Route,Location,URL,"Avg Stars","Your Stars","Route Type",Rating,Pitches,Length,"Area Latitude","Area Longitude"
"The Godfather","3. Godfather Boulder > 1. Box Canyon Boulders > Cox Hollow > Governor Dodge State Park > South > Wisconsin",https://www.mountainproject.com/route/105889429/the-godfather,3.8,-1,Boulder,V4,1,15,43.01229,-90.12221
"The Flatiron","4. Flatiron > 07. East of CCC (Guillotine Ridge) > East Bluff South Face > East Bluff > Devil's Lake Bouldering > Devil's Lake > Baraboo Range > Wisconsin",https://www.mountainproject.com/route/105730853/the-flatiron,3.7,-1,Boulder,V4,1,10,43.41338,-89.71207
P.Stachio,"The Stache (aka Dog Walk) Boulder > West Bluff Central > West Bluff > Devil's Lake Bouldering > Devil's Lake > Baraboo Range > Wisconsin",https://www.mountainproject.com/route/106836673/pstachio,3.5,-1,Boulder,V4,1,12,43.42135,-89.73618
"Out Past Curfew","3. Boat Landing Boulders > Cox Hollow > Governor Dodge State Park > South > Wisconsin",https://www.mountainproject.com/route/106173046/out-past-curfew,3.4,-1,Boulder,V4,1,15,43.01417,-90.11354
"Only the Lonely","1. Lonely  Boulders > Group Camps > Governor Dodge State Park > South > Wisconsin",https://www.mountainproject.com/route/105880291/only-the-lonely,3.4,-1,Boulder,V4,1,,43.04068,-90.1063
"Baby Crane","Burma Road > Devil's Lake Bouldering > Devil's Lake > Baraboo Range > Wisconsin",https://www.mountainproject.com/route/107303348/baby-crane,3.4,-1,Boulder,V4,1,12,43.4,-89.74329
"Get the Hell Outta Dodge","East Side- Backbone Ridge > Backbone Ridge > 4. Group Camp B > Group Camps > Governor Dodge State Park > South > Wisconsin",https://www.mountainproject.com/route/105879100/get-the-hell-outta-dodge,3.2,-1,Boulder,V4,1,,43.05179,-90.09875
"Sunny & 60's","Sunny & 60s > 2. East Bluff North Talus > East Bluff North > East Bluff > Devil's Lake Bouldering > Devil's Lake > Baraboo Range > Wisconsin",https://www.mountainproject.com/route/106597788/sunny-60s,3.8,-1,Boulder,V4,1,,43.42442,-89.72506
Resolution,"High Anxiety > Plan B Area > 4. Group Camp B > Group Camps > Governor Dodge State Park > South > Wisconsin",https://www.mountainproject.com/route/105879034/resolution,2.6,-1,Boulder,V4,1,,43.05023,-90.09778
"Flux Boulder Classic","Flux > 06. West of CCC Trail > East Bluff South Face > East Bluff > Devil's Lake Bouldering > Devil's Lake > Baraboo Range > Wisconsin",https://www.mountainproject.com/route/107277094/flux-boulder-classic,3.8,-1,Boulder,V4,1,,43.41264,-89.71206
"Recreational Vehicle","08. Hogleg/Anchorpoint > West Bluff South > West Bluff > Devil's Lake Bouldering > Devil's Lake > Baraboo Range > Wisconsin",https://www.mountainproject.com/route/106492793/recreational-vehicle,2.9,-1,Boulder,V4,1,20,43.41885,-89.737
"Pillar of Contemporary Movement","1. East of Trail Boulders > 6. Monolith Ridge > East Bluff North > East Bluff > Devil's Lake Bouldering > Devil's Lake > Baraboo Range > Wisconsin",https://www.mountainproject.com/route/106435413/pillar-of-contemporary-movement,3.1,-1,Boulder,V4,1,,43.42252,-89.72392
"Like Shaking Hands with God","Burma Road > Devil's Lake Bouldering > Devil's Lake > Baraboo Range > Wisconsin",https://www.mountainproject.com/route/107302149/like-shaking-hands-with-god,2.8,-1,Boulder,"V4 PG13",1,15,43.4,-89.74329
"Show Me The Kind","4. Show Me the Kind > 1. North Shore > East Bluff North > East Bluff > Devil's Lake Bouldering > Devil's Lake > Baraboo Range > Wisconsin",https://www.mountainproject.com/route/105935491/show-me-the-kind,3.4,-1,Boulder,V4,1,15,43.42699,-89.72633
"Left Corner Problem","The Man-eater Boulder > Black River Falls > Central > Wisconsin",https://www.mountainproject.com/route/105986179/left-corner-problem,3.7,-1,Boulder,V4,1,12,44.28007,-90.82238
Carcass,"10. Vulture Lookout West > East Bluff South Face > East Bluff > Devil's Lake Bouldering > Devil's Lake > Baraboo Range > Wisconsin",https://www.mountainproject.com/route/114301373/carcass,3.9,-1,Boulder,V4,1,15,43.41278,-89.70451
"Double Elephant","03. Double Elephant > West Bluff South > West Bluff > Devil's Lake Bouldering > Devil's Lake > Baraboo Range > Wisconsin",https://www.mountainproject.com/route/106496806/double-elephant,3.9,-1,Boulder,V4,1,,43.41637,-89.7379
"Left out","West Side- Backbone Ridge > Backbone Ridge > 4. Group Camp B > Group Camps > Governor Dodge State Park > South > Wisconsin",https://www.mountainproject.com/route/105985617/left-out,2.8,-1,Boulder,V4,1,25,43.0511,-90.0994
"Bark Biter","4. Monolith Ridge - East Side > 6. Monolith Ridge > East Bluff North > East Bluff > Devil's Lake Bouldering > Devil's Lake > Baraboo Range > Wisconsin",https://www.mountainproject.com/route/105730706/bark-biter,2.6,-1,Boulder,V4,1,10,43.42157,-89.72333
"Get The Hell Outta Dodge-Exit Right","East Side- Backbone Ridge > Backbone Ridge > 4. Group Camp B > Group Camps > Governor Dodge State Park > South > Wisconsin",https://www.mountainproject.com/route/109519047/get-the-hell-outta-dodge-exit-right,2.9,-1,Boulder,V4,1,,43.05179,-90.09875
Liger,"Cave Rock Boulders > West Bluff Central > West Bluff > Devil's Lake Bouldering > Devil's Lake > Baraboo Range > Wisconsin",https://www.mountainproject.com/route/111086062/liger,3.3,-1,Boulder,V4,1,20,43.42156,-89.73737
"Calm like a Bomb","3. Pavilion Block Bouldering > 1. North Side > High Cliff State Park > Niagara Escarpment & Kettle Moraine > Wisconsin",https://www.mountainproject.com/route/105890884/calm-like-a-bomb,3.2,-1,Boulder,V4,1,,44.16454,-88.28684
"The Glutton","3.  Two Women > 06. Alpine Club/Beautiful Soup > West Bluff South > West Bluff > Devil's Lake Bouldering > Devil's Lake > Baraboo Range > Wisconsin",https://www.mountainproject.com/route/110516703/the-glutton,3.2,-1,Boulder,V4,1,12,43.41789,-89.73709
"Jump for Joy","Main Cliff East > Rattlesnake Mound > Central Sandstone > Central > Wisconsin",https://www.mountainproject.com/route/106293345/jump-for-joy,3.2,-1,Boulder,V4,1,12,43.87382,-89.83901
Inquisition,"Poison Ivy Wall > 09. East of the East > East Bluff South Face > East Bluff > Devil's Lake Bouldering > Devil's Lake > Baraboo Range > Wisconsin",https://www.mountainproject.com/route/112851491/inquisition,4.0,-1,Boulder,V4,1,15,43.41231,-89.70627
"The Didgeridoo","1.  The Instrumentals > West Bluff North, upper access > West Bluff North > West Bluff > Devil's Lake Bouldering > Devil's Lake > Baraboo Range > Wisconsin",https://www.mountainproject.com/route/119199814/the-didgeridoo,3.7,-1,Boulder,V4,1,,43.42707,-89.73667
"The Bottle","The Reserve > 03. The Reserve > South Bluff > Devil's Lake Bouldering > Devil's Lake > Baraboo Range > Wisconsin",https://www.mountainproject.com/route/111083845/the-bottle,2.9,-1,Boulder,V4,1,14,43.40436,-89.72961
"The Red Dance","Bear Paw Dome > Hagar Mountain (North) > Hagar Mountain > Northern Highlands > Wisconsin",https://www.mountainproject.com/route/119886453/the-red-dance,3.5,-1,Boulder,V4,1,,45.20414,-88.41924
"Problem 1","Porcelain Wall > Black River Falls > Central > Wisconsin",https://www.mountainproject.com/route/105986199/problem-1,4.0,-1,Boulder,V4,1,15,44.27974,-90.82093
"Boulder 81","Boulder 81 > Boulder 81 > Old Grade Road Bouldering > Northwest > Wisconsin",https://www.mountainproject.com/route/120850379/boulder-81,4.0,-1,Boulder,V4,1,14,46.31559,-91.00996
"Green Swoop, The","Union Grove Ridge > Blackhawk Lake Recreation Area > South > Wisconsin",https://www.mountainproject.com/route/112531243/green-swoop-the,4.0,-1,Boulder,"V4 PG13",1,12,43.00144,-90.28456
10/10/10,"Full Park Link-Ups > Linkups, Contrivances, Oddities and Triflings > Devil's Lake > Baraboo Range > Wisconsin",https://www.mountainproject.com/route/111380456/101010,4.0,-1,"Trad, Boulder","5.10 V4 PG13",30,,43.41452,-89.73115
"Smell the Moss","Smell the Moss > Rib Mountain > Northern Highlands > Wisconsin",https://www.mountainproject.com/route/105975042/smell-the-moss,3.5,-1,Boulder,V4,1,10,44.92179,-89.6978
"Beached Whale","House Boulder Area > Rattlesnake Mound > Central Sandstone > Central > Wisconsin",https://www.mountainproject.com/route/106224867/beached-whale,2.6,-1,Boulder,V4,1,,43.87479,-89.83939
"Two Women","3.  Two Women > 06. Alpine Club/Beautiful Soup > West Bluff South > West Bluff > Devil's Lake Bouldering > Devil's Lake > Baraboo Range > Wisconsin",https://www.mountainproject.com/route/107133901/two-women,2.7,-1,Boulder,V4,1,,43.41789,-89.73709
"Alpine Gin","The Miner's Boulders > Grandad Bluff > Central > Wisconsin",https://www.mountainproject.com/route/106961832/alpine-gin,3.4,-1,Boulder,V4,1,20,43.8111,-91.2114
Speakeasy,"Red Light District > 6. Group Camp G > Group Camps > Governor Dodge State Park > South > Wisconsin",https://www.mountainproject.com/route/106402276/speakeasy,3.7,-1,Boulder,V4,1,10,43.04924,-90.08487
"The Seperatist","High Anxiety > Plan B Area > 4. Group Camp B > Group Camps > Governor Dodge State Park > South > Wisconsin",https://www.mountainproject.com/route/105879006/the-seperatist,2.8,-1,Boulder,V4,1,,43.05023,-90.09778
"Feels Like Butter","Jurassics > Rib Mountain > Northern Highlands > Wisconsin",https://www.mountainproject.com/route/105974054/feels-like-butter,3.4,-1,Boulder,V4,1,15,44.92122,-89.69572
"Cowboy Messiah","Jesus Boulder > Black River Falls > Central > Wisconsin",https://www.mountainproject.com/route/106714791/cowboy-messiah,3.4,-1,Boulder,"V4 PG13",1,15,44.28128,-90.82607
Testtickler,"Barrel Ridge Proper > Barrel Ridge > Twin Valley > Governor Dodge State Park > South > Wisconsin",https://www.mountainproject.com/route/106252938/testtickler,2.7,-1,Boulder,V4,1,15,43.03431,-90.11173
"The Warbler","Warbler > 7.  Massive Vertigo Area > West Bluff North, lower access > West Bluff North > West Bluff > Devil's Lake Bouldering > Devil's Lake > Baraboo Range > Wisconsin",https://www.mountainproject.com/route/109006937/the-warbler,3.2,-1,Boulder,V4,1,,43.42426,-89.73664
"Sir Mix Alot","1.  Smooth Operator Area > West Bluff North, lower access > West Bluff North > West Bluff > Devil's Lake Bouldering > Devil's Lake > Baraboo Range > Wisconsin",https://www.mountainproject.com/route/107631231/sir-mix-alot,3.3,-1,Boulder,"V4 PG13",1,,43.42818,-89.73615
"Muffin Top","The Bunker > 02. Horse Rampart Talus > East Bluff South > East Bluff > Devil's Lake Bouldering > Devil's Lake > Baraboo Range > Wisconsin",https://www.mountainproject.com/route/107263341/muffin-top,3.6,-1,Boulder,V4,1,15,43.41573,-89.72516
"The Gilf","3.  Two Women > 06. Alpine Club/Beautiful Soup > West Bluff South > West Bluff > Devil's Lake Bouldering > Devil's Lake > Baraboo Range > Wisconsin",https://www.mountainproject.com/route/111091081/the-gilf,2.9,-1,Boulder,V4,1,,43.41789,-89.73709
"Soggy Bailey","The Cave > Boulder 81 > Old Grade Road Bouldering > Northwest > Wisconsin",https://www.mountainproject.com/route/122940216/soggy-bailey,3.0,-1,Boulder,V4,1,20,46.31532,-91.01014
"The Ghost","Ghost Pillar > 02. Major Mass > East Bluff South Face > East Bluff > Devil's Lake Bouldering > Devil's Lake > Baraboo Range > Wisconsin",https://www.mountainproject.com/route/118617210/the-ghost,3.5,-1,Boulder,"V4 PG13",1,,43.41435,-89.72103
"Martini Madness","4. Flatiron > 07. East of CCC (Guillotine Ridge) > East Bluff South Face > East Bluff > Devil's Lake Bouldering > Devil's Lake > Baraboo Range > Wisconsin",https://www.mountainproject.com/route/106435658/martini-madness,3.1,-1,Boulder,V4,1,,43.41338,-89.71207
Kaiju,"Youggary Pillar > 04. Pork Chop > West Bluff South > West Bluff > Devil's Lake Bouldering > Devil's Lake > Baraboo Range > Wisconsin",https://www.mountainproject.com/route/112260059/kaiju,3.5,-1,Boulder,"V4 R",1,20,43.41691,-89.73765
"Reaching For Daylight","Cave Rock Boulders > West Bluff Central > West Bluff > Devil's Lake Bouldering > Devil's Lake > Baraboo Range > Wisconsin",https://www.mountainproject.com/route/111326867/reaching-for-daylight,3.5,-1,Boulder,"V4 PG13",1,30,43.42156,-89.73737
"Rampart Roof","Rampart Roof > 06. West of CCC Trail > East Bluff South Face > East Bluff > Devil's Lake Bouldering > Devil's Lake > Baraboo Range > Wisconsin",https://www.mountainproject.com/route/107066709/rampart-roof,3.5,-1,Boulder,"5.12a/b V4",1,,43.41351,-89.71379
"Sex Muscle","Sex Muscle > Hillbilly Bouldering > Hillbilly Hollow > Central > Wisconsin",https://www.mountainproject.com/route/108135972/sex-muscle,3.1,-1,Boulder,V4,1,,43.97495,-89.50236
Carrion,"10. Vulture Lookout West > East Bluff South Face > East Bluff > Devil's Lake Bouldering > Devil's Lake > Baraboo Range > Wisconsin",https://www.mountainproject.com/route/114300506/carrion,3.1,-1,Boulder,V4,1,,43.41278,-89.70451
"Off the Pocket","The Cube > Black River Falls > Central > Wisconsin",https://www.mountainproject.com/route/105986271/off-the-pocket,2.8,-1,Boulder,V4,1,12,44.27998,-90.82219
"Dazed and Contused","1. Dazed and Contused > 09. East of the East > East Bluff South Face > East Bluff > Devil's Lake Bouldering > Devil's Lake > Baraboo Range > Wisconsin",https://www.mountainproject.com/route/112270198/dazed-and-contused,3.0,-1,Boulder,"V4 PG13",1,15,43.41262,-89.70849
1312,"Tranquility Pillar > 01. Stettner Rocks > West Bluff South > West Bluff > Devil's Lake Bouldering > Devil's Lake > Baraboo Range > Wisconsin",https://www.mountainproject.com/route/119338679/1312,3.1,-1,Boulder,V4,1,,43.41451,-89.73933
Perseus,"The Parthenon > Hagar Mountain (North) > Hagar Mountain > Northern Highlands > Wisconsin",https://www.mountainproject.com/route/119886814/perseus,3.3,-1,Boulder,"V4 PG13",1,,45.20223,-88.41797
"Miss Saigon","The Parthenon > Hagar Mountain (North) > Hagar Mountain > Northern Highlands > Wisconsin",https://www.mountainproject.com/route/119887831/miss-saigon,3.3,-1,Boulder,"V4 PG13",1,,45.20223,-88.41797
Azazel,"Rose Stones > Hagar Mountain (North) > Hagar Mountain > Northern Highlands > Wisconsin",https://www.mountainproject.com/route/119888604/azazel,3.3,-1,Boulder,V4,1,,45.20346,-88.40642
"Jones' Roof","13. Boomtown > South Bluff > Devil's Lake Bouldering > Devil's Lake > Baraboo Range > Wisconsin",https://www.mountainproject.com/route/106623008/jones-roof,3.2,-1,Boulder,V4,1,14,43.39653,-89.72373
"Skittle Center","Skittle > Potholes Trail > Interstate Park > Northwest > Wisconsin",https://www.mountainproject.com/route/116830802/skittle-center,2.8,-1,Boulder,V4,1,10,45.40099,-92.64965
Side-Pull,"Quincy Bluff and Wetland Reserve > Central Sandstone > Central > Wisconsin",https://www.mountainproject.com/route/106224605/side-pull,3.1,-1,Boulder,V4,1,10,43.86656,-89.87756
"Tainted Love","Loch Ness Boulder > 4. Danny's Imaginary Boulders > Cox Hollow > Governor Dodge State Park > South > Wisconsin",https://www.mountainproject.com/route/118815422/tainted-love,2.7,-1,Boulder,V4,1,,43.01445,-90.11079
"Drunk and Disorderly","6. Monolith Ridge - West Side > 6. Monolith Ridge > East Bluff North > East Bluff > Devil's Lake Bouldering > Devil's Lake > Baraboo Range > Wisconsin",https://www.mountainproject.com/route/107337231/drunk-and-disorderly,3.3,-1,Boulder,"V4 R",1,20,43.42157,-89.72367
"John Dillinger","02. Public Enemy > West Bluff South > West Bluff > Devil's Lake Bouldering > Devil's Lake > Baraboo Range > Wisconsin",https://www.mountainproject.com/route/111734422/john-dillinger,2.9,-1,Boulder,V4,1,15,43.41649,-89.73747
"Down South Raven","House Boulder Area > Rattlesnake Mound > Central Sandstone > Central > Wisconsin",https://www.mountainproject.com/route/107189091/down-south-raven,2.6,-1,Boulder,V4,1,15,43.87479,-89.83939
"Midwest Hardcore (aka 6hrs)","West Side- Backbone Ridge > Backbone Ridge > 4. Group Camp B > Group Camps > Governor Dodge State Park > South > Wisconsin",https://www.mountainproject.com/route/106248643/midwest-hardcore-aka-6hrs,3.0,-1,Boulder,V4,1,,43.0511,-90.0994
"The Compressor","08. Hogleg/Anchorpoint > West Bluff South > West Bluff > Devil's Lake Bouldering > Devil's Lake > Baraboo Range > Wisconsin",https://www.mountainproject.com/route/107214687/the-compressor,3.0,-1,Boulder,V4,1,,43.41885,-89.737
"Noodle Boulder - Corner Direct","Noodle Boulder > River Area Boulders > Interstate Park > Northwest > Wisconsin",https://www.mountainproject.com/route/111283264/noodle-boulder-corner-direct,2.8,-1,Boulder,V4,1,10,45.39872,-92.6497
"45 Left","17. 45 Degree Boulder > West Bluff South > West Bluff > Devil's Lake Bouldering > Devil's Lake > Baraboo Range > Wisconsin",https://www.mountainproject.com/route/106510094/45-left,2.8,-1,Boulder,V4,1,,43.41943,-89.73877
"Lou Reed Lunge","Lou Reed > 01. Balanced Rock Trail > East Bluff South > East Bluff > Devil's Lake Bouldering > Devil's Lake > Baraboo Range > Wisconsin",https://www.mountainproject.com/route/106435519/lou-reed-lunge,2.6,-1,Boulder,V4,1,,43.41471,-89.72476
"Tiny Bubbles Traverse","Tiny Bubbles Wall > Tiny Bubbles Area > Interstate Park > Northwest > Wisconsin",https://www.mountainproject.com/route/107175942/tiny-bubbles-traverse,2.9,-1,Boulder,V4,1,20,45.39769,-92.6517
Frostbite,"3. Goosebumps > Ice Age Trail > Devil's Lake Bouldering > Devil's Lake > Baraboo Range > Wisconsin",https://www.mountainproject.com/route/114301651/frostbite,2.8,-1,Boulder,V4,1,12,43.4253,-89.68943
"Bald Eagle","10. Vulture Lookout West > East Bluff South Face > East Bluff > Devil's Lake Bouldering > Devil's Lake > Baraboo Range > Wisconsin",https://www.mountainproject.com/route/114300462/bald-eagle,3.0,-1,Boulder,"V4 PG13",1,,43.41278,-89.70451
"The Headstone","Headstone Area > Rib Mountain > Northern Highlands > Wisconsin",https://www.mountainproject.com/route/105974122/the-headstone,3.0,-1,Boulder,"V4 PG13",1,15,44.92044,-89.69516
"Let's play doctor","White Knight > 02. Ghost Talus > South Bluff > Devil's Lake Bouldering > Devil's Lake > Baraboo Range > Wisconsin",https://www.mountainproject.com/route/108114057/lets-play-doctor,2.4,-1,Boulder,V4,1,10,43.40899,-89.73649
Hyperion,"The Parthenon > Hagar Mountain (North) > Hagar Mountain > Northern Highlands > Wisconsin",https://www.mountainproject.com/route/119886554/hyperion,3.0,-1,Boulder,"V4 PG13",1,,45.20223,-88.41797
Relic,"13. Cleo’s Needle > West Bluff South > West Bluff > Devil's Lake Bouldering > Devil's Lake > Baraboo Range > Wisconsin",https://www.mountainproject.com/route/117659168/relic,3.0,-1,Boulder,"V4 PG13",1,15,43.41744,-89.73861
"Remo's Sacrifice","The Prow (aka Tunder Tighs) > 7.  Massive Vertigo Area > West Bluff North, lower access > West Bluff North > West Bluff > Devil's Lake Bouldering > Devil's Lake > Baraboo Range > Wisconsin",https://www.mountainproject.com/route/107093561/remos-sacrifice,3.0,-1,Boulder,"V4 PG13",1,,43.42351,-89.73641
"The Petrified Man","The Sideshow > 05. CCC Grottos > East Bluff South Face > East Bluff > Devil's Lake Bouldering > Devil's Lake > Baraboo Range > Wisconsin",https://www.mountainproject.com/route/107548149/the-petrified-man,2.7,-1,Boulder,V4,1,,43.41243,-89.71263
Terraform,"Aberdeen Quarry (North) > Dave's Falls County Park > Northern Highlands > Wisconsin",https://www.mountainproject.com/route/118919774/terraform,2.9,-1,Boulder,V4,1,,45.49608,-87.99327
"Orchestra In Your Head","Whaler's Rock > 14. The Lost & Found (Neck Oil Wall) > East Bluff South > East Bluff > Devil's Lake Bouldering > Devil's Lake > Baraboo Range > Wisconsin",https://www.mountainproject.com/route/119758630/orchestra-in-your-head,3.0,-1,Boulder,V4,1,18,43.41838,-89.72568
"Double Jointed","2. Jafar > 09. East of the East > East Bluff South Face > East Bluff > Devil's Lake Bouldering > Devil's Lake > Baraboo Range > Wisconsin",https://www.mountainproject.com/route/122038776/double-jointed,3.0,-1,Boulder,V4,1,,43.41311,-89.70836
"Buffalo Sauce","Tranquility Pillar > 01. Stettner Rocks > West Bluff South > West Bluff > Devil's Lake Bouldering > Devil's Lake > Baraboo Range > Wisconsin",https://www.mountainproject.com/route/119639732/buffalo-sauce,3.0,-1,Boulder,V4,1,15,43.41451,-89.73933
"Folie à Deux","Limbo > Nelligan Lake > Northern Highlands > Wisconsin",https://www.mountainproject.com/route/121342605/folie-a-deux,3.0,-1,Boulder,V4,1,,45.22868,-88.32224
"The Balducci Levitation","Granite Path > Governor Thompson State Park > Northern Highlands > Wisconsin",https://www.mountainproject.com/route/118720418/the-balducci-levitation,3.0,-1,Boulder,V4,1,,45.32569,-88.23355
"Frozen Foam","Foam Boulder > Potholes Trail > Interstate Park > Northwest > Wisconsin",https://www.mountainproject.com/route/120062105/frozen-foam,3.0,-1,Boulder,V4,1,,45.39929,-92.64967
"Another Coin in the Wishing Whale","Pete's Pebble > 500 ft. Boulder Field > West Bluff Central > West Bluff > Devil's Lake Bouldering > Devil's Lake > Baraboo Range > Wisconsin",https://www.mountainproject.com/route/118607805/another-coin-in-the-wishing-whale,2.7,-1,Boulder,V4,1,,43.42116,-89.7354
"Presque Vu","Limbo > Nelligan Lake > Northern Highlands > Wisconsin",https://www.mountainproject.com/route/121342649/presque-vu,3.0,-1,Boulder,"V4 PG13",1,,45.22868,-88.32224
Bristleweed,"The Grove > Hagar Mountain (North) > Hagar Mountain > Northern Highlands > Wisconsin",https://www.mountainproject.com/route/119888226/bristleweed,2.5,-1,Boulder,V4,1,,45.20405,-88.41333
Overgrown,"10. Vulture Lookout West > East Bluff South Face > East Bluff > Devil's Lake Bouldering > Devil's Lake > Baraboo Range > Wisconsin",https://www.mountainproject.com/route/114538397/overgrown,3.0,-1,Boulder,V4,1,,43.41278,-89.70451
"Cross Cube","The Cube > Black River Falls > Central > Wisconsin",https://www.mountainproject.com/route/109252104/cross-cube,3.0,-1,Boulder,V4,1,30,44.27998,-90.82219
"Slab of Doom","Bachelor > 06. West of CCC Trail > East Bluff South Face > East Bluff > Devil's Lake Bouldering > Devil's Lake > Baraboo Range > Wisconsin",https://www.mountainproject.com/route/107225874/slab-of-doom,3.0,-1,Boulder,"V4 PG13",1,,43.41298,-89.71274
"High Room","Warbler > 7.  Massive Vertigo Area > West Bluff North, lower access > West Bluff North > West Bluff > Devil's Lake Bouldering > Devil's Lake > Baraboo Range > Wisconsin",https://www.mountainproject.com/route/109059342/high-room,2.7,-1,Boulder,V4,1,,43.42426,-89.73664
"Glory or Death","Snake Charmer > 2.  Fat Raccoon > West Bluff North, lower access > West Bluff North > West Bluff > Devil's Lake Bouldering > Devil's Lake > Baraboo Range > Wisconsin",https://www.mountainproject.com/route/107633376/glory-or-death,3.0,-1,Boulder,"V4 PG13",1,,43.42754,-89.73544
"Party Hole","Money Maker/ Party Hole > 2. East Bluff North Talus > East Bluff North > East Bluff > Devil's Lake Bouldering > Devil's Lake > Baraboo Range > Wisconsin",https://www.mountainproject.com/route/107757946/party-hole,2.0,-1,Boulder,V4,1,10,43.42534,-89.72554
"Birds Nest","Ranger Station Rocks > Rib Mountain > Northern Highlands > Wisconsin",https://www.mountainproject.com/route/105975128/birds-nest,3.0,-1,Boulder,V4,1,15,44.92098,-89.68196
"Forgot to Floss","Smell the Moss > Rib Mountain > Northern Highlands > Wisconsin",https://www.mountainproject.com/route/105992447/forgot-to-floss,2.3,-1,Boulder,V4,1,14,44.92179,-89.6978
"Pimpin' Right","Pimpin' Wall > Rib Mountain > Northern Highlands > Wisconsin",https://www.mountainproject.com/route/105974852/pimpin-right,2.0,-1,Boulder,V4,1,8,44.92078,-89.69537
"Passing Through","05. Trail Side Boulder > West Bluff South > West Bluff > Devil's Lake Bouldering > Devil's Lake > Baraboo Range > Wisconsin",https://www.mountainproject.com/route/122353640/passing-through,3.0,-1,Boulder,"V4 PG13",1,,43.4178,-89.73671
"Fistful of 'Dise","Illusions Area > 4. Danny's Imaginary Boulders > Cox Hollow > Governor Dodge State Park > South > Wisconsin",https://www.mountainproject.com/route/122799057/fistful-of-dise,3.0,-1,Boulder,V4,1,10,43.01465,-90.11043
"Just Got Pickled","Oak Leaf Bike Trail - Wilson > Buildering Sites (statewide) > Wisconsin",https://www.mountainproject.com/route/117714832/just-got-pickled,3.5,-1,Boulder,V4,1,13,43.10136,-87.90486
Kvothe,"The Realm > Southwest Bluff (Sauk Hill) > Devil's Lake Bouldering > Devil's Lake > Baraboo Range > Wisconsin",https://www.mountainproject.com/route/120055358/kvothe,2.8,-1,Boulder,V4,1,,43.41195,-89.75593
"No Flux Given","Flux > 06. West of CCC Trail > East Bluff South Face > East Bluff > Devil's Lake Bouldering > Devil's Lake > Baraboo Range > Wisconsin",https://www.mountainproject.com/route/122081138/no-flux-given,2.4,-1,Boulder,V4,1,12,43.41264,-89.71206
"Pale Blue Dot","Happy Go Highball > 6.  Happy Go Highball / Hidden Treasure > West Bluff North, lower access > West Bluff North > West Bluff > Devil's Lake Bouldering > Devil's Lake > Baraboo Range > Wisconsin",https://www.mountainproject.com/route/115319763/pale-blue-dot,3.0,-1,Boulder,V4,1,,43.42472,-89.73707
"No One's Slick as Gaston","Oak Leaf Bike Trail - Wilson > Buildering Sites (statewide) > Wisconsin",https://www.mountainproject.com/route/117616743/no-ones-slick-as-gaston,3.0,-1,Boulder,V4,1,13,43.10136,-87.90486
Overlooked,"Overlook > Mount Vernon > Donald Park > South > Wisconsin",https://www.mountainproject.com/route/119786075/overlooked,3.0,-1,Boulder,V4,1,,42.94856,-89.66269
"Barndoor 0.002","Buttered Logs > Milwaukee Lakefront > Buildering Sites (statewide) > Wisconsin",https://www.mountainproject.com/route/118799172/barndoor-0002,3.0,-1,Boulder,V4,1,13,43.05113,-87.8893
Leroy,"1. Obzen > 07. East of CCC (Guillotine Ridge) > East Bluff South Face > East Bluff > Devil's Lake Bouldering > Devil's Lake > Baraboo Range > Wisconsin",https://www.mountainproject.com/route/120332947/leroy,2.0,-1,Boulder,V4,1,,43.41289,-89.71164
Avant-Funk,"Rhythm Wall > Ledge Park > Horicon > Niagara Escarpment & Kettle Moraine > Wisconsin",https://www.mountainproject.com/route/114379700/avant-funk,3.0,-1,Boulder,V4,1,15,43.46954,-88.58412
"Over the Garden Wall","08. South Bluff Towers > South Bluff > Devil's Lake Bouldering > Devil's Lake > Baraboo Range > Wisconsin",https://www.mountainproject.com/route/115370797/over-the-garden-wall,3.0,-1,Boulder,V4,1,,43.40423,-89.71759
"Big toe Traverse","Jumping Hole Adjacent > Cave Point County Park (Door County) > Niagara Escarpment & Kettle Moraine > Wisconsin",https://www.mountainproject.com/route/119199806/big-toe-traverse,3.0,-1,Boulder,V4,1,35,44.9303,-87.1724
"Toe suck","Area 82 > Boulder 81 > Old Grade Road Bouldering > Northwest > Wisconsin",https://www.mountainproject.com/route/121671670/toe-suck,3.0,-1,Boulder,V4,1,12,46.3116,-91.01066
"Way of the Wildcat","Wildcat Mountain > Central > Wisconsin",https://www.mountainproject.com/route/118901125/way-of-the-wildcat,3.0,-1,Boulder,V4,1,30,43.70217,-90.57255
"Long Winter","2. Medallion > Ice Age Trail > Devil's Lake Bouldering > Devil's Lake > Baraboo Range > Wisconsin",https://www.mountainproject.com/route/114301606/long-winter,3.0,-1,Boulder,V4,1,15,43.42462,-89.68844
"The Gargoyle","6. Monolith Ridge - West Side > 6. Monolith Ridge > East Bluff North > East Bluff > Devil's Lake Bouldering > Devil's Lake > Baraboo Range > Wisconsin",https://www.mountainproject.com/route/112236422/the-gargoyle,3.0,-1,Boulder,"V4 PG13",1,,43.42157,-89.72367
Lagomorph,"7. Beyond Family Camping > 2. West Side > High Cliff State Park > Niagara Escarpment & Kettle Moraine > Wisconsin",https://www.mountainproject.com/route/114442153/lagomorph,3.0,-1,Boulder,"V4 PG13",1,20,44.14728,-88.30337
Heatwave,"Heatwave > 04. Birthday Talus > East Bluff South > East Bluff > Devil's Lake Bouldering > Devil's Lake > Baraboo Range > Wisconsin",https://www.mountainproject.com/route/119121915/heatwave,2.3,-1,Boulder,V4,1,,43.41627,-89.72658
"Golden Light","Golden Light > 01. South Shore Talus > East Bluff South Face > East Bluff > Devil's Lake Bouldering > Devil's Lake > Baraboo Range > Wisconsin",https://www.mountainproject.com/route/120374983/golden-light,3.0,-1,Boulder,V4,1,,43.41357,-89.72369
"Island Queen","Northeast Pillar > Madeline Island > Apostle Islands > Northwest > Wisconsin",https://www.mountainproject.com/route/122917883/island-queen,3.0,-1,Boulder,V4,1,9,46.7947,-90.6523
"Pack Your Sewing Machine","Fern Gully (SE of the FRB) > South of Fire Road > West Bluff Fire Road > West Bluff > Devil's Lake Bouldering > Devil's Lake > Baraboo Range > Wisconsin",https://www.mountainproject.com/route/108994647/pack-your-sewing-machine,3.0,-1,Boulder,V4,1,20,43.42061,-89.74277
"The Last Final","4. The Bulge > 1. North Side > High Cliff State Park > Niagara Escarpment & Kettle Moraine > Wisconsin",https://www.mountainproject.com/route/106076382/the-last-final,3.0,-1,"TR, Boulder","5.12- V4",1,30,44.16265,-88.28916
"Pimpin' and Crimpin'","Pimpin' Wall > Rib Mountain > Northern Highlands > Wisconsin",https://www.mountainproject.com/route/105974858/pimpin-and-crimpin,1.5,-1,Boulder,V4,1,8,44.92078,-89.69537
Agape,"13. Boomtown > South Bluff > Devil's Lake Bouldering > Devil's Lake > Baraboo Range > Wisconsin",https://www.mountainproject.com/route/106623094/agape,3.0,-1,Boulder,V4,1,14,43.39653,-89.72373
"Emperor Penguin","Emperor's Boulder > Rib Mountain > Northern Highlands > Wisconsin",https://www.mountainproject.com/route/106055447/emperor-penguin,2.5,-1,Boulder,"V4 PG13",1,,44.92097,-89.69731
"Cube Traverse","The Cube > Black River Falls > Central > Wisconsin",https://www.mountainproject.com/route/106025158/cube-traverse,2.6,-1,Boulder,V4,1,15,44.27998,-90.82219
"Limited Shelf Life","Whaler's Rock > 14. The Lost & Found (Neck Oil Wall) > East Bluff South > East Bluff > Devil's Lake Bouldering > Devil's Lake > Baraboo Range > Wisconsin",https://www.mountainproject.com/route/107748225/limited-shelf-life,2.6,-1,Boulder,V4,1,,43.41838,-89.72568
"Rubik's Cubicle","El Parasol > 2.  Fat Raccoon > West Bluff North, lower access > West Bluff North > West Bluff > Devil's Lake Bouldering > Devil's Lake > Baraboo Range > Wisconsin",https://www.mountainproject.com/route/107542238/rubiks-cubicle,2.0,-1,Boulder,V4,1,,43.42766,-89.73581
"Cosa Nostra","3. Godfather Boulder > 1. Box Canyon Boulders > Cox Hollow > Governor Dodge State Park > South > Wisconsin",https://www.mountainproject.com/route/106228376/cosa-nostra,2.7,-1,Boulder,"V4 PG13",1,,43.01229,-90.12221
"Le Craguette","1.  Smooth Operator Area > West Bluff North, lower access > West Bluff North > West Bluff > Devil's Lake Bouldering > Devil's Lake > Baraboo Range > Wisconsin",https://www.mountainproject.com/route/118816766/le-craguette,2.7,-1,Boulder,V4,1,,43.42818,-89.73615
"Bearded Baby Jesus","Lil Bud > 5. Kite Boulders > 6. Monolith Ridge > East Bluff North > East Bluff > Devil's Lake Bouldering > Devil's Lake > Baraboo Range > Wisconsin",https://www.mountainproject.com/route/112295312/bearded-baby-jesus,2.8,-1,Boulder,V4,1,9,43.42072,-89.72443
"Charlize Heron","10. Vulture Lookout West > East Bluff South Face > East Bluff > Devil's Lake Bouldering > Devil's Lake > Baraboo Range > Wisconsin",https://www.mountainproject.com/route/114300427/charlize-heron,2.8,-1,Boulder,"V4 PG13",1,,43.41278,-89.70451
"Rubik’s Groove","Winter Blues > 2. East Bluff North Talus > East Bluff North > East Bluff > Devil's Lake Bouldering > Devil's Lake > Baraboo Range > Wisconsin",https://www.mountainproject.com/route/118631203/rubiks-groove,2.8,-1,Boulder,V4,1,,43.42621,-89.72622
"Love Triangle","Amazing Pillar > 03. The Reserve > South Bluff > Devil's Lake Bouldering > Devil's Lake > Baraboo Range > Wisconsin",https://www.mountainproject.com/route/107362621/love-triangle,2.7,-1,Boulder,V4,1,8,43.4036,-89.73417
"Tiny Bubbles Left","Tiny Bubbles Wall > Tiny Bubbles Area > Interstate Park > Northwest > Wisconsin",https://www.mountainproject.com/route/107498167/tiny-bubbles-left,2.8,-1,Boulder,V4,1,12,45.39769,-92.6517
"Box Car Full Traverse","The Box-Car Boulder > Black River Falls > Central > Wisconsin",https://www.mountainproject.com/route/106015865/box-car-full-traverse,2.8,-1,Boulder,V4,1,30,44.28018,-90.82298
"Midwest Mustache Ride","6. Mustache Boulder > 1. Box Canyon Boulders > Cox Hollow > Governor Dodge State Park > South > Wisconsin",https://www.mountainproject.com/route/106408001/midwest-mustache-ride,2.3,-1,Boulder,V4,1,12,43.01252,-90.12185
"Slope Opera","The Reserve > 03. The Reserve > South Bluff > Devil's Lake Bouldering > Devil's Lake > Baraboo Range > Wisconsin",https://www.mountainproject.com/route/107946658/slope-opera,2.6,-1,Boulder,V4,1,10,43.40436,-89.72961
"Stairway Slab","The Reserve > 03. The Reserve > South Bluff > Devil's Lake Bouldering > Devil's Lake > Baraboo Range > Wisconsin",https://www.mountainproject.com/route/106274050/stairway-slab,2.2,-1,Boulder,V4,1,,43.40436,-89.72961
[Redacted],"Gill's Booger > 06. West of CCC Trail > East Bluff South Face > East Bluff > Devil's Lake Bouldering > Devil's Lake > Baraboo Range > Wisconsin",https://www.mountainproject.com/route/107547957/redacted,2.3,-1,Boulder,V4,1,15,43.4134,-89.71288
"Battle Wound","Battle Wound > 01. South Shore Talus > East Bluff South Face > East Bluff > Devil's Lake Bouldering > Devil's Lake > Baraboo Range > Wisconsin",https://www.mountainproject.com/route/107082334/battle-wound,2.6,-1,Boulder,V4,1,,43.41403,-89.72321
"Cankle Breaker","2. Jafar > 09. East of the East > East Bluff South Face > East Bluff > Devil's Lake Bouldering > Devil's Lake > Baraboo Range > Wisconsin",https://www.mountainproject.com/route/112859795/cankle-breaker,2.7,-1,Boulder,V4,1,,43.41311,-89.70836
"Red Storm Rising","Bouldering by the Roped Climbing (Holding Area) > Hillbilly Bouldering > Hillbilly Hollow > Central > Wisconsin",https://www.mountainproject.com/route/106220286/red-storm-rising,2.7,-1,Boulder,V4,1,,43.97408,-89.49973
Cube,"Press It Out > Plan B Area > 4. Group Camp B > Group Camps > Governor Dodge State Park > South > Wisconsin",https://www.mountainproject.com/route/107323948/cube,2.7,-1,Boulder,V4,1,7,43.04966,-90.09842
"Big Wobbly","Big Wobbly > 5. Monolith Talus > East Bluff North > East Bluff > Devil's Lake Bouldering > Devil's Lake > Baraboo Range > Wisconsin",https://www.mountainproject.com/route/110211035/big-wobbly,2.7,-1,Boulder,"V4 PG13",1,15,43.42132,-89.72466
"DL Love","Triple Tower Wall > Steinke Basin > Devil's Lake Bouldering > Devil's Lake > Baraboo Range > Wisconsin",https://www.mountainproject.com/route/106488610/dl-love,2.7,-1,Boulder,V4,1,,43.4263,-89.718
"Bene Gesserit","Gom Jabbar > 4.  Gom Jabbar > West Bluff North, upper access > West Bluff North > West Bluff > Devil's Lake Bouldering > Devil's Lake > Baraboo Range > Wisconsin",https://www.mountainproject.com/route/117890237/bene-gesserit,2.4,-1,Boulder,V4,1,12,43.42348,-89.73784
"Cat Burglar","Overlook > Mount Vernon > Donald Park > South > Wisconsin",https://www.mountainproject.com/route/119582567/cat-burglar,2.5,-1,Boulder,V4,1,22,42.94856,-89.66269
"Ice Queen","Ice Queen > 04. Birthday Talus > East Bluff South > East Bluff > Devil's Lake Bouldering > Devil's Lake > Baraboo Range > Wisconsin",https://www.mountainproject.com/route/108791973/ice-queen,2.5,-1,Boulder,V4,1,,43.41634,-89.72657
"A Scanner Darkly","Science Friction > 2. East Bluff North Talus > East Bluff North > East Bluff > Devil's Lake Bouldering > Devil's Lake > Baraboo Range > Wisconsin",https://www.mountainproject.com/route/107438123/a-scanner-darkly,2.5,-1,Boulder,"V4 PG13",1,10,43.42579,-89.72583
Scapularis,"Scapularis > 3.  Big Red > West Bluff North, lower access > West Bluff North > West Bluff > Devil's Lake Bouldering > Devil's Lake > Baraboo Range > Wisconsin",https://www.mountainproject.com/route/107645135/scapularis,2.5,-1,Boulder,V4,1,,43.42673,-89.7357
"I Love Sandra","Smell the Moss > Rib Mountain > Northern Highlands > Wisconsin",https://www.mountainproject.com/route/105978220/i-love-sandra,2.4,-1,Boulder,V4,1,9,44.92179,-89.6978
"Sardonic Center Left","Sardonic > Potholes Trail > Interstate Park > Northwest > Wisconsin",https://www.mountainproject.com/route/117392105/sardonic-center-left,2.7,-1,Boulder,V4,1,10,45.40086,-92.64894
Hyphae,"The Roadside Boulders > Chute Pond County Park > Northern Highlands > Wisconsin",https://www.mountainproject.com/route/117979789/hyphae,2.3,-1,Boulder,V4,1,,45.13371,-88.45284
"Warm Up Center SDS","House Boulder Area > Rattlesnake Mound > Central Sandstone > Central > Wisconsin",https://www.mountainproject.com/route/106935049/warm-up-center-sds,2.4,-1,Boulder,V4,1,15,43.87479,-89.83939
"The Curse","7. The Black Pearl > 1. North Side > High Cliff State Park > Niagara Escarpment & Kettle Moraine > Wisconsin",https://www.mountainproject.com/route/105903175/the-curse,2.4,-1,Boulder,V4,1,8,44.16101,-88.29046
"The Good, The Bad, The Dodge","Singled Out Boulders > 1. Box Canyon Boulders > Cox Hollow > Governor Dodge State Park > South > Wisconsin",https://www.mountainproject.com/route/110202173/the-good-the-bad-the-dodge,2.3,-1,Boulder,V4,1,9,43.01295,-90.1207
"Can We Cane 'Em?","Yo Shorty > West Bluff Central > West Bluff > Devil's Lake Bouldering > Devil's Lake > Baraboo Range > Wisconsin",https://www.mountainproject.com/route/106557999/can-we-cane-em,2.3,-1,Boulder,V4,1,,43.42088,-89.73639
"Between the Lines","Headstone Area > Rib Mountain > Northern Highlands > Wisconsin",https://www.mountainproject.com/route/105974098/between-the-lines,2.3,-1,Boulder,V4,1,,44.92044,-89.69516
Footloose,"2. Leaning Tower/Tombstone Wall > 08. East Rampart > East Bluff South Face > East Bluff > Devil's Lake Bouldering > Devil's Lake > Baraboo Range > Wisconsin",https://www.mountainproject.com/route/121117248/footloose,2.8,-1,Boulder,V4,1,15,43.41383,-89.7149
"Lame Right","Lame Boulder > Interstate Park > Northwest > Wisconsin",https://www.mountainproject.com/route/117641413/lame-right,2.5,-1,Boulder,V4,1,12,45.39773,-92.65032
"Ball Bearing","Buttered Logs > Milwaukee Lakefront > Buildering Sites (statewide) > Wisconsin",https://www.mountainproject.com/route/118779672/ball-bearing,2.7,-1,Boulder,V4,1,12,43.05113,-87.8893
"Rash Leg","Presque Isle Point > Stockton Island > Apostle Islands > Northwest > Wisconsin",https://www.mountainproject.com/route/114794508/rash-leg,2.5,-1,Boulder,V4,1,5,46.90908,-90.54572
"Green Sharpie","Sharpie > 06. West of CCC Trail > East Bluff South Face > East Bluff > Devil's Lake Bouldering > Devil's Lake > Baraboo Range > Wisconsin",https://www.mountainproject.com/route/118033461/green-sharpie,2.3,-1,Boulder,V4,1,,43.41308,-89.71283
"Beyond the Blue","Limbo > Nelligan Lake > Northern Highlands > Wisconsin",https://www.mountainproject.com/route/121342755/beyond-the-blue,2.5,-1,Boulder,V4,1,,45.22868,-88.32224
"Prowling Turtle","World War Z > West Bluff Central > West Bluff > Devil's Lake Bouldering > Devil's Lake > Baraboo Range > Wisconsin",https://www.mountainproject.com/route/119473310/prowling-turtle,2.5,-1,Boulder,V4,1,,43.42006,-89.738
Momentum,"Cave Rock Boulders > West Bluff Central > West Bluff > Devil's Lake Bouldering > Devil's Lake > Baraboo Range > Wisconsin",https://www.mountainproject.com/route/111098037/momentum,2.5,-1,Boulder,V4,1,15,43.42156,-89.73737
"Mental Shelf Sit","Upper Guardrail Ridge > Northeast side of Narrows Creek > Weidman Memorial Park > Baraboo Range > Wisconsin",https://www.mountainproject.com/route/111346705/mental-shelf-sit,2.7,-1,Boulder,V4,1,18,43.48192,-89.95305
"Mike's Boulder","Clusterf@&% Area (aka Lost Face Boulders) > West Bluff Central > West Bluff > Devil's Lake Bouldering > Devil's Lake > Baraboo Range > Wisconsin",https://www.mountainproject.com/route/108111836/mikes-boulder,2.5,-1,Boulder,V4,1,,43.42055,-89.738
"Watch Your Step","Slap > 3.  Big Red > West Bluff North, lower access > West Bluff North > West Bluff > Devil's Lake Bouldering > Devil's Lake > Baraboo Range > Wisconsin",https://www.mountainproject.com/route/107645161/watch-your-step,2.5,-1,Boulder,"V4 PG13",1,,43.42674,-89.73576
"Pop Corner","Good Day Governor > Old Orchard Pass > Governor Dodge State Park > South > Wisconsin",https://www.mountainproject.com/route/106408274/pop-corner,2.5,-1,Boulder,V4,1,,43.03464,-90.08347
"problem 4","Porcelain Wall > Black River Falls > Central > Wisconsin",https://www.mountainproject.com/route/106951734/problem-4,2.5,-1,Boulder,V4,1,18,44.27974,-90.82093
"Emperor's New Groove","Emperor's Boulder > Rib Mountain > Northern Highlands > Wisconsin",https://www.mountainproject.com/route/105974883/emperors-new-groove,2.5,-1,Boulder,V4,1,15,44.92097,-89.69731
"Sardonic Right","Sardonic > Potholes Trail > Interstate Park > Northwest > Wisconsin",https://www.mountainproject.com/route/118102481/sardonic-right,2.2,-1,Boulder,V4,1,8,45.40086,-92.64894
"Modern Leper","Equestria > Mount Vernon > Donald Park > South > Wisconsin",https://www.mountainproject.com/route/118859863/modern-leper,2.1,-1,Boulder,V4,1,15,42.94871,-89.66339
"The Red Room","Heavenly Boulders > West Bluff Central > West Bluff > Devil's Lake Bouldering > Devil's Lake > Baraboo Range > Wisconsin",https://www.mountainproject.com/route/118951644/the-red-room,2.3,-1,Boulder,V4,1,10,43.41953,-89.73738
"Stand up guy","Buttered Logs > Milwaukee Lakefront > Buildering Sites (statewide) > Wisconsin",https://www.mountainproject.com/route/118799335/stand-up-guy,2.3,-1,Boulder,V4,1,13,43.05113,-87.8893
"Unforgiven Sins","Heavenly Boulders > West Bluff Central > West Bluff > Devil's Lake Bouldering > Devil's Lake > Baraboo Range > Wisconsin",https://www.mountainproject.com/route/118912599/unforgiven-sins,2.3,-1,Boulder,"V4 PG13",1,,43.41953,-89.73738
"Slot Right","Slot Climbs > Rib Mountain > Northern Highlands > Wisconsin",https://www.mountainproject.com/route/105974894/slot-right,2.3,-1,Boulder,V4,1,10,44.92115,-89.69495
"Use Your Delusions","4. Monolith Ridge - East Side > 6. Monolith Ridge > East Bluff North > East Bluff > Devil's Lake Bouldering > Devil's Lake > Baraboo Range > Wisconsin",https://www.mountainproject.com/route/107280815/use-your-delusions,2.2,-1,Boulder,V4,1,12,43.42157,-89.72333
Shmoil,"Noodle Boulder > River Area Boulders > Interstate Park > Northwest > Wisconsin",https://www.mountainproject.com/route/118974077/shmoil,2.2,-1,Boulder,V4,1,9,45.39872,-92.6497
"Young Eggs","White Wall > 09. East of the East > East Bluff South Face > East Bluff > Devil's Lake Bouldering > Devil's Lake > Baraboo Range > Wisconsin",https://www.mountainproject.com/route/111024964/young-eggs,2.2,-1,Boulder,V4,1,8,43.41226,-89.70682
"Sir Slap Alot","Slap > 3.  Big Red > West Bluff North, lower access > West Bluff North > West Bluff > Devil's Lake Bouldering > Devil's Lake > Baraboo Range > Wisconsin",https://www.mountainproject.com/route/107646325/sir-slap-alot,2.0,-1,Boulder,V4,1,,43.42674,-89.73576
"Just Dew It","3. Group Camp A > Group Camps > Governor Dodge State Park > South > Wisconsin",https://www.mountainproject.com/route/106419119/just-dew-it,2.3,-1,Boulder,V4,1,15,43.04983,-90.10069
"Pink Elephant","Jurassics > Rib Mountain > Northern Highlands > Wisconsin",https://www.mountainproject.com/route/105975094/pink-elephant,2.2,-1,Boulder,V4,1,10,44.92122,-89.69572
"Slippery Seam","Greatest Bluff > 3. Greatest Show > East Bluff North > East Bluff > Devil's Lake Bouldering > Devil's Lake > Baraboo Range > Wisconsin",https://www.mountainproject.com/route/105935508/slippery-seam,2.0,-1,Boulder,V4,1,,43.42563,-89.7246
"Early Bird","West Side- Backbone Ridge > Backbone Ridge > 4. Group Camp B > Group Camps > Governor Dodge State Park > South > Wisconsin",https://www.mountainproject.com/route/106231682/early-bird,2.0,-1,Boulder,V4,1,15,43.0511,-90.0994
"Just the Tip","Tipping Point > 5. Monolith Talus > East Bluff North > East Bluff > Devil's Lake Bouldering > Devil's Lake > Baraboo Range > Wisconsin",https://www.mountainproject.com/route/108882926/just-the-tip,2.0,-1,Boulder,V4,1,,43.42149,-89.72417
Why,"The Game Area > Interstate Park > Northwest > Wisconsin",https://www.mountainproject.com/route/118887110/why,2.0,-1,Boulder,V4,1,10,45.39655,-92.65188
"Loon Song","10. Vulture Lookout West > East Bluff South Face > East Bluff > Devil's Lake Bouldering > Devil's Lake > Baraboo Range > Wisconsin",https://www.mountainproject.com/route/114300617/loon-song,2.0,-1,Boulder,V4,1,,43.41278,-89.70451
"Just Grab It!","Super Slab Area > West Bluff Central > West Bluff > Devil's Lake Bouldering > Devil's Lake > Baraboo Range > Wisconsin",https://www.mountainproject.com/route/106535427/just-grab-it,2.0,-1,Boulder,V4,1,,43.42098,-89.73728
"Brototype 1.0","The Wedge > 5. Monolith Talus > East Bluff North > East Bluff > Devil's Lake Bouldering > Devil's Lake > Baraboo Range > Wisconsin",https://www.mountainproject.com/route/107183867/brototype-10,1.6,-1,Boulder,V4,1,12,43.42281,-89.72442
"Makes Me Smile","Barrel Ridge Proper > Barrel Ridge > Twin Valley > Governor Dodge State Park > South > Wisconsin",https://www.mountainproject.com/route/107323991/makes-me-smile,2.0,-1,Boulder,V4,1,10,43.03431,-90.11173
"Makin' Bacon","Fustercluck > 02. Ghost Talus > South Bluff > Devil's Lake Bouldering > Devil's Lake > Baraboo Range > Wisconsin",https://www.mountainproject.com/route/108113396/makin-bacon,2.0,-1,Boulder,V4,1,10,43.40893,-89.73633
"Mike's Green Fantasy","Warbler > 7.  Massive Vertigo Area > West Bluff North, lower access > West Bluff North > West Bluff > Devil's Lake Bouldering > Devil's Lake > Baraboo Range > Wisconsin",https://www.mountainproject.com/route/109059302/mikes-green-fantasy,1.8,-1,Boulder,V4,1,,43.42426,-89.73664
"Cowboy Up","Whaler's Rock > 14. The Lost & Found (Neck Oil Wall) > East Bluff South > East Bluff > Devil's Lake Bouldering > Devil's Lake > Baraboo Range > Wisconsin",https://www.mountainproject.com/route/107748241/cowboy-up,2.0,-1,Boulder,"V4 PG13",1,,43.41838,-89.72568
"Mantel of Death","The Awning > 14. The Lost & Found (Neck Oil Wall) > East Bluff South > East Bluff > Devil's Lake Bouldering > Devil's Lake > Baraboo Range > Wisconsin",https://www.mountainproject.com/route/107748212/mantel-of-death,2.0,-1,Boulder,"V4 PG13",1,,43.41871,-89.72562
"Dodge the Choss","Triple Tower Wall > Steinke Basin > Devil's Lake Bouldering > Devil's Lake > Baraboo Range > Wisconsin",https://www.mountainproject.com/route/106736766/dodge-the-choss,2.0,-1,Boulder,V4,1,12,43.4263,-89.718
Dragons,"3. Group Camp A > Group Camps > Governor Dodge State Park > South > Wisconsin",https://www.mountainproject.com/route/106408792/dragons,2.0,-1,Boulder,V4,1,7,43.04983,-90.10069
"Two Gilfs","3.  Two Women > 06. Alpine Club/Beautiful Soup > West Bluff South > West Bluff > Devil's Lake Bouldering > Devil's Lake > Baraboo Range > Wisconsin",https://www.mountainproject.com/route/111091073/two-gilfs,1.7,-1,Boulder,V4,1,,43.41789,-89.73709
"Moby Dick","Granite Path > Governor Thompson State Park > Northern Highlands > Wisconsin",https://www.mountainproject.com/route/119003567/moby-dick,2.0,-1,Boulder,V4,1,10,45.32569,-88.23355
"Moon Man","The Pool > Above 500 Foot > West Bluff Central > West Bluff > Devil's Lake Bouldering > Devil's Lake > Baraboo Range > Wisconsin",https://www.mountainproject.com/route/118967562/moon-man,2.0,-1,Boulder,V4,1,,43.42004,-89.73738
"Minnesota V10","Minnesota > 5. Monolith Talus > East Bluff North > East Bluff > Devil's Lake Bouldering > Devil's Lake > Baraboo Range > Wisconsin",https://www.mountainproject.com/route/108968326/minnesota-v10,2.0,-1,Boulder,V4,1,,43.42265,-89.72462
"Red Ryder","The Parthenon > Hagar Mountain (North) > Hagar Mountain > Northern Highlands > Wisconsin",https://www.mountainproject.com/route/119887494/red-ryder,2.0,-1,Boulder,V4,1,,45.20223,-88.41797
Kitty,"Blarney > 4.  Gom Jabbar > West Bluff North, upper access > West Bluff North > West Bluff > Devil's Lake Bouldering > Devil's Lake > Baraboo Range > Wisconsin",https://www.mountainproject.com/route/118883229/kitty,2.0,-1,Boulder,V4,1,,43.42347,-89.7377
"Sit Burner","Blubber Face > 5. Kite Boulders > 6. Monolith Ridge > East Bluff North > East Bluff > Devil's Lake Bouldering > Devil's Lake > Baraboo Range > Wisconsin",https://www.mountainproject.com/route/112295403/sit-burner,2.0,-1,Boulder,V4,1,15,43.42047,-89.72436
Mowgli,"6. Jungle Book Wall > 2. West Side > High Cliff State Park > Niagara Escarpment & Kettle Moraine > Wisconsin",https://www.mountainproject.com/route/113859246/mowgli,2.0,-1,Boulder,V4,1,15,44.14946,-88.30186
"Pony Rider","Jockey Rocket > 02. Horse Rampart Talus > East Bluff South > East Bluff > Devil's Lake Bouldering > Devil's Lake > Baraboo Range > Wisconsin",https://www.mountainproject.com/route/110932671/pony-rider,2.0,-1,Boulder,V4,1,,43.41611,-89.72571
"Paula Abdul","Clusterf@&% Area (aka Lost Face Boulders) > West Bluff Central > West Bluff > Devil's Lake Bouldering > Devil's Lake > Baraboo Range > Wisconsin",https://www.mountainproject.com/route/108111856/paula-abdul,2.0,-1,Boulder,V4,1,,43.42055,-89.738
"The Grave Digger","Grave of the Fallen > 2.  Fat Raccoon > West Bluff North, lower access > West Bluff North > West Bluff > Devil's Lake Bouldering > Devil's Lake > Baraboo Range > Wisconsin",https://www.mountainproject.com/route/108335505/the-grave-digger,2.0,-1,Boulder,V4,1,,43.42761,-89.73608
"Z MOVE Left","06. Ejaculator Area > South Bluff > Devil's Lake Bouldering > Devil's Lake > Baraboo Range > Wisconsin",https://www.mountainproject.com/route/106463266/z-move-left,2.0,-1,Boulder,V4,1,,43.40376,-89.72385
Highball,"4. Flatiron > 07. East of CCC (Guillotine Ridge) > East Bluff South Face > East Bluff > Devil's Lake Bouldering > Devil's Lake > Baraboo Range > Wisconsin",https://www.mountainproject.com/route/106573219/highball,2.0,-1,Boulder,V4,1,,43.41338,-89.71207
"Thin Crack","The Reserve > 03. The Reserve > South Bluff > Devil's Lake Bouldering > Devil's Lake > Baraboo Range > Wisconsin",https://www.mountainproject.com/route/106274061/thin-crack,1.7,-1,Boulder,V4,1,,43.40436,-89.72961
"Arrowhead Right","The Woods > Westby Bouldering > Central > Wisconsin",https://www.mountainproject.com/route/107339329/arrowhead-right,2.0,-1,Boulder,V4,1,,43.65679,-90.8616
"Kings Throne Left","King's Throne > Westby Bouldering > Central > Wisconsin",https://www.mountainproject.com/route/106371985/kings-throne-left,2.0,-1,Boulder,V4,1,10,43.6568,-90.8616
"Mental Ninjitsu","Northern Lookout Point > Rib Mountain > Northern Highlands > Wisconsin",https://www.mountainproject.com/route/105975024/mental-ninjitsu,2.0,-1,Boulder,V4,1,10,44.92216,-89.69702
"Pythagoras Wettest Dream","Alexandria > 5. Kite Boulders > 6. Monolith Ridge > East Bluff North > East Bluff > Devil's Lake Bouldering > Devil's Lake > Baraboo Range > Wisconsin",https://www.mountainproject.com/route/122471536/pythagoras-wettest-dream,2.0,-1,Boulder,"V4 R",1,15,43.42081,-89.72341
Trixie,"Blarney > 4.  Gom Jabbar > West Bluff North, upper access > West Bluff North > West Bluff > Devil's Lake Bouldering > Devil's Lake > Baraboo Range > Wisconsin",https://www.mountainproject.com/route/121781227/trixie,2.0,-1,Boulder,V4,1,,43.42347,-89.7377
Pollenator,"08. Railroad Amphitheater > East Bluff South > East Bluff > Devil's Lake Bouldering > Devil's Lake > Baraboo Range > Wisconsin",https://www.mountainproject.com/route/122551352/pollenator,2.0,-1,Boulder,V4,1,,43.41813,-89.72722
"The Cesspool","Bouldering by the Roped Climbing (Holding Area) > Hillbilly Bouldering > Hillbilly Hollow > Central > Wisconsin",https://www.mountainproject.com/route/110357105/the-cesspool,2.0,-1,Boulder,V4,1,10,43.97408,-89.49973
Coal,"Echo Canyon Trail Boulders > Interstate Park > Northwest > Wisconsin",https://www.mountainproject.com/route/119950035/coal,2.0,-1,Boulder,V4,1,,45.3955,-92.65369
Precipice,"Witness the Slickness > 06. West of CCC Trail > East Bluff South Face > East Bluff > Devil's Lake Bouldering > Devil's Lake > Baraboo Range > Wisconsin",https://www.mountainproject.com/route/122094644/precipice,2.0,-1,Boulder,"V4 R",1,,43.4127,-89.71216
Unity,"Baker’s Stash > 01. Balanced Rock Trail > East Bluff South > East Bluff > Devil's Lake Bouldering > Devil's Lake > Baraboo Range > Wisconsin",https://www.mountainproject.com/route/119002598/unity,2.0,-1,Boulder,V4,1,,43.41408,-89.72587
"Radium Girl","Granite Path > Governor Thompson State Park > Northern Highlands > Wisconsin",https://www.mountainproject.com/route/118726983/radium-girl,2.0,-1,Boulder,V4,1,20,45.32569,-88.23355
"Nickel and Dimed","7. Beyond Family Camping > 2. West Side > High Cliff State Park > Niagara Escarpment & Kettle Moraine > Wisconsin",https://www.mountainproject.com/route/114441963/nickel-and-dimed,2.0,-1,Boulder,V4,1,20,44.14728,-88.30337
"Mono a Mono","Aimless > 3. South Side > High Cliff State Park > Niagara Escarpment & Kettle Moraine > Wisconsin",https://www.mountainproject.com/route/114469292/mono-a-mono,2.0,-1,Boulder,V4,1,20,44.14285,-88.30682
"The Big Year","11. Vulture Lookout East > East Bluff South Face > East Bluff > Devil's Lake Bouldering > Devil's Lake > Baraboo Range > Wisconsin",https://www.mountainproject.com/route/114315778/the-big-year,2.0,-1,Boulder,V4,1,20,43.41357,-89.70137
"Blinded by the light","Bouldering by the Roped Climbing (Holding Area) > Hillbilly Bouldering > Hillbilly Hollow > Central > Wisconsin",https://www.mountainproject.com/route/108794188/blinded-by-the-light,2.0,-1,Boulder,V4,1,10,43.97408,-89.49973
ADHD,"4. The Bulge > 1. North Side > High Cliff State Park > Niagara Escarpment & Kettle Moraine > Wisconsin",https://www.mountainproject.com/route/110465803/adhd,2.0,-1,Boulder,V4,1,25,44.16265,-88.28916
"Half Moons of Doom","Monolith Talus miscellany > 5. Monolith Talus > East Bluff North > East Bluff > Devil's Lake Bouldering > Devil's Lake > Baraboo Range > Wisconsin",https://www.mountainproject.com/route/111203488/half-moons-of-doom,2.0,-1,Boulder,V4,1,8,43.42223,-89.72445
Blade,"5. Blade Boulder > 1. Box Canyon Boulders > Cox Hollow > Governor Dodge State Park > South > Wisconsin",https://www.mountainproject.com/route/107796407/blade,2.0,-1,Boulder,V4,1,8,43.01248,-90.12172
"Too Soon","Twin Valley Campground > Twin Valley > Governor Dodge State Park > South > Wisconsin",https://www.mountainproject.com/route/106743953/too-soon,2.0,-1,Boulder,V4,1,8,43.02609,-90.10216
[Redacted],"Headstone Area > Rib Mountain > Northern Highlands > Wisconsin",https://www.mountainproject.com/route/106055458/redacted,2.0,-1,Boulder,V4,1,,44.92044,-89.69516
"The Last Emperor (aka Emperor's last stand)","Emperor's Boulder > Rib Mountain > Northern Highlands > Wisconsin",https://www.mountainproject.com/route/105974887/the-last-emperor-aka-emperors-last-stand,2.0,-1,Boulder,V4,1,15,44.92097,-89.69731
"The Horologist","05. Trail Side Boulder > West Bluff South > West Bluff > Devil's Lake Bouldering > Devil's Lake > Baraboo Range > Wisconsin",https://www.mountainproject.com/route/123398186/the-horologist,2.0,-1,Boulder,"V4 PG13",1,15,43.4178,-89.73671
"Cheers to Voyager","1. Dazed and Contused > 09. East of the East > East Bluff South Face > East Bluff > Devil's Lake Bouldering > Devil's Lake > Baraboo Range > Wisconsin",https://www.mountainproject.com/route/112312057/cheers-to-voyager,1.7,-1,Boulder,V4,1,,43.41262,-89.70849
slugs,"East Side- Backbone Ridge > Backbone Ridge > 4. Group Camp B > Group Camps > Governor Dodge State Park > South > Wisconsin",https://www.mountainproject.com/route/106173076/slugs,1.7,-1,Boulder,V4,1,,43.05179,-90.09875
"What would Steve Dew?","Barrel Ridge Proper > Barrel Ridge > Twin Valley > Governor Dodge State Park > South > Wisconsin",https://www.mountainproject.com/route/106816617/what-would-steve-dew,1.8,-1,Boulder,V4,1,18,43.03431,-90.11173
"Full Extension Direct","Full Extension > 6. Group Camp G > Group Camps > Governor Dodge State Park > South > Wisconsin",https://www.mountainproject.com/route/107518227/full-extension-direct,1.7,-1,Boulder,V4,1,10,43.04951,-90.08482
Toadstool,"The Roadside Boulders > Chute Pond County Park > Northern Highlands > Wisconsin",https://www.mountainproject.com/route/117953308/toadstool,1.8,-1,Boulder,V4,1,,45.13371,-88.45284
"Unkown Crimpy Traverse","Burma Road > Devil's Lake Bouldering > Devil's Lake > Baraboo Range > Wisconsin",https://www.mountainproject.com/route/108422758/unkown-crimpy-traverse,1.8,-1,Boulder,V4,1,10,43.4,-89.74329
"The Gift","1.  Smooth Operator Area > West Bluff North, lower access > West Bluff North > West Bluff > Devil's Lake Bouldering > Devil's Lake > Baraboo Range > Wisconsin",https://www.mountainproject.com/route/111020101/the-gift,1.7,-1,Boulder,V4,1,10,43.42818,-89.73615
"Dirty Direct","Barrel Boulders > Twin Valley > Governor Dodge State Park > South > Wisconsin",https://www.mountainproject.com/route/107324001/dirty-direct,1.7,-1,Boulder,V4,1,9,43.03413,-90.11715
"A Test of Tesselation","5. Steve's ZZ Boulders > Group Camps > Governor Dodge State Park > South > Wisconsin",https://www.mountainproject.com/route/106389462/a-test-of-tesselation,1.7,-1,Boulder,V4,1,25,43.05482,-90.09974
"Welcome to the Lake","2. Welcome to the Lake! > 1. North Shore > East Bluff North > East Bluff > Devil's Lake Bouldering > Devil's Lake > Baraboo Range > Wisconsin",https://www.mountainproject.com/route/106420038/welcome-to-the-lake,1.3,-1,Boulder,V4,1,20,43.42737,-89.72684
"Par 4","Monolith Talus miscellany > 5. Monolith Talus > East Bluff North > East Bluff > Devil's Lake Bouldering > Devil's Lake > Baraboo Range > Wisconsin",https://www.mountainproject.com/route/109499635/par-4,1.5,-1,Boulder,V4,1,10,43.42223,-89.72445
"Ghosts of the Forest","Ghost of the Forest > 2. East Bluff North Talus > East Bluff North > East Bluff > Devil's Lake Bouldering > Devil's Lake > Baraboo Range > Wisconsin",https://www.mountainproject.com/route/117121048/ghosts-of-the-forest,1.5,-1,Boulder,V4,1,,43.42508,-89.72621
Slug,"The Parthenon > Hagar Mountain (North) > Hagar Mountain > Northern Highlands > Wisconsin",https://www.mountainproject.com/route/119887647/slug,1.5,-1,Boulder,V4,1,,45.20223,-88.41797
"Diving into the shallow end","The Pool > Above 500 Foot > West Bluff Central > West Bluff > Devil's Lake Bouldering > Devil's Lake > Baraboo Range > Wisconsin",https://www.mountainproject.com/route/118973473/diving-into-the-shallow-end,1.5,-1,Boulder,V4,1,,43.42004,-89.73738
"The Shister","Barrel Boulders > Twin Valley > Governor Dodge State Park > South > Wisconsin",https://www.mountainproject.com/route/105888696/the-shister,1.5,-1,Boulder,V4,1,,43.03413,-90.11715
"Swoop There It Is","Saucer > 2. East Bluff North Talus > East Bluff North > East Bluff > Devil's Lake Bouldering > Devil's Lake > Baraboo Range > Wisconsin",https://www.mountainproject.com/route/108127398/swoop-there-it-is,1.8,-1,Boulder,V4,1,,43.42435,-89.72505
"Right wall traverse","The Hidden Cavern > Black River Falls > Central > Wisconsin",https://www.mountainproject.com/route/106399075/right-wall-traverse,1.5,-1,Boulder,V4,1,25,44.27999,-90.82296
"Backyard Forager","The Roadside Boulders > Chute Pond County Park > Northern Highlands > Wisconsin",https://www.mountainproject.com/route/119867504/backyard-forager,1.3,-1,Boulder,V4,1,,45.13371,-88.45284
"No Expectations","Youggary Pillar > 04. Pork Chop > West Bluff South > West Bluff > Devil's Lake Bouldering > Devil's Lake > Baraboo Range > Wisconsin",https://www.mountainproject.com/route/118631275/no-expectations,1.3,-1,Boulder,V4,1,,43.41691,-89.73765
"Head Trauma","Born Full Grown > 6. Group Camp G > Group Camps > Governor Dodge State Park > South > Wisconsin",https://www.mountainproject.com/route/107355506/head-trauma,1.3,-1,Boulder,V4,1,8,43.04991,-90.08517
Pyrite,"Scenic Overlook Boulders > Chute Pond County Park > Northern Highlands > Wisconsin",https://www.mountainproject.com/route/118704772/pyrite,1.2,-1,Boulder,V4,1,,45.13297,-88.4492
"Sloper Problem","Tree Boulder > Black River Falls > Central > Wisconsin",https://www.mountainproject.com/route/106025154/sloper-problem,1.0,-1,Boulder,V4,1,10,44.28008,-90.82233
"Thunder From Down Under","Down Under > 5. Monolith Talus > East Bluff North > East Bluff > Devil's Lake Bouldering > Devil's Lake > Baraboo Range > Wisconsin",https://www.mountainproject.com/route/111372214/thunder-from-down-under,1.0,-1,Boulder,V4,1,7,43.42274,-89.72475
"Anthony's kryptonite","Anthony's > Hillbilly Bouldering > Hillbilly Hollow > Central > Wisconsin",https://www.mountainproject.com/route/111691076/anthonys-kryptonite,1.5,-1,Boulder,V4,1,10,43.97477,-89.50172
"Take me to your sloper","Star Destroyer Area > Rattlesnake Mound > Central Sandstone > Central > Wisconsin",https://www.mountainproject.com/route/109518041/take-me-to-your-sloper,1.0,-1,Boulder,V4,1,15,43.87461,-89.83894
"Secret Shopper","Secret Shopper > Heart of Stones > 05. CCC Grottos > East Bluff South Face > East Bluff > Devil's Lake Bouldering > Devil's Lake > Baraboo Range > Wisconsin",https://www.mountainproject.com/route/123837151/secret-shopper,2.0,-1,Boulder,V4,1,,43.41307,-89.71375
"The Capacitor","Flux > 06. West of CCC Trail > East Bluff South Face > East Bluff > Devil's Lake Bouldering > Devil's Lake > Baraboo Range > Wisconsin",https://www.mountainproject.com/route/124004636/the-capacitor,1.8,-1,Boulder,V4,1,,43.41264,-89.71206
"One Particular Harbor","Northeast Pillar > Madeline Island > Apostle Islands > Northwest > Wisconsin",https://www.mountainproject.com/route/124887672/one-particular-harbor,2.0,-1,Boulder,V4,1,,46.7947,-90.6523
"Bama Breeze","Northeast Pillar > Madeline Island > Apostle Islands > Northwest > Wisconsin",https://www.mountainproject.com/route/124887722/bama-breeze,3.0,-1,Boulder,V4,1,,46.7947,-90.6523
Penguin,"Gotham Boulder > 1. Box Canyon Boulders > Cox Hollow > Governor Dodge State Park > South > Wisconsin",https://www.mountainproject.com/route/124914412/penguin,3.0,-1,Boulder,V4,1,14,43.01264,-90.12169
"Blue Hour","The Quarry > Interstate Park > Northwest > Wisconsin",https://www.mountainproject.com/route/125187454/blue-hour,2.0,-1,Boulder,V4,1,,45.3872,-92.66462
"High Noon","The Quarry > Interstate Park > Northwest > Wisconsin",https://www.mountainproject.com/route/125194403/high-noon,2.0,-1,Boulder,V4,1,,45.3872,-92.66462
MouseRat,"Happy Go Highball > 6.  Happy Go Highball / Hidden Treasure > West Bluff North, lower access > West Bluff North > West Bluff > Devil's Lake Bouldering > Devil's Lake > Baraboo Range > Wisconsin",https://www.mountainproject.com/route/125229271/mouserat,3.0,-1,Boulder,"V4 PG13",1,,43.42472,-89.73707
"Graffiti City","Pride Rock > The M (Platte Mound) > South > Wisconsin",https://www.mountainproject.com/route/125284861/graffiti-city,3.0,-1,Boulder,V4,1,15,42.7632,-90.40435
"The Big Foot Traverse","2. Leaning Tower/Tombstone Wall > 08. East Rampart > East Bluff South Face > East Bluff > Devil's Lake Bouldering > Devil's Lake > Baraboo Range > Wisconsin",https://www.mountainproject.com/route/125677149/the-big-foot-traverse,2.0,-1,Boulder,V4,1,,43.41383,-89.7149
