Route,Location,URL,"Avg Stars","Your Stars","Route Type",Rating,Pitches,Length,"Area Latitude","Area Longitude"
Periscope,"Periscope Boulder > Contact Station Boulders > Contact Station Area > Grayson Highlands State Park > Southwest Virginia (Appalachia) > Virginia",https://www.mountainproject.com/route/106566425/periscope,3.4,-1,Boulder,V3,1,12,36.61245,-81.48093
"Indian Outlaw","Rock House Boulder > Picnic Area Boulders > Picnic Area > Grayson Highlands State Park > Southwest Virginia (Appalachia) > Virginia",https://www.mountainproject.com/route/106779712/indian-outlaw,3.1,-1,Boulder,V3,1,13,36.62523,-81.48157
"Horse Head Route","Springfield Bouldering (Hooes Rd) > DC & Northern VA Region > Virginia",https://www.mountainproject.com/route/108906405/horse-head-route,3.7,-1,Boulder,V3,1,15,38.7615,-77.2077
"The Hive","Hive Boulder > 1. Overlook Area > Listening Rock Trail > Grayson Highlands State Park > Southwest Virginia (Appalachia) > Virginia",https://www.mountainproject.com/route/107333030/the-hive,2.8,-1,Boulder,V3,1,14,36.62238,-81.50243
"Senior Discount","Big Boy > The Forest > Blue Ridge Parkway > Charlottesville vicinity > Central & Southern VA Region > Virginia",https://www.mountainproject.com/route/119697127/senior-discount,3.7,-1,Boulder,V3,1,16,37.89461,-79.04896
Bombsight,"Periscope Boulder > Contact Station Boulders > Contact Station Area > Grayson Highlands State Park > Southwest Virginia (Appalachia) > Virginia",https://www.mountainproject.com/route/106830441/bombsight,2.5,-1,Boulder,V3,1,16,36.61245,-81.48093
"Moonlight Sonata","Moonlight Left > Moonlight > Moonlight > Listening Rock Trail > Grayson Highlands State Park > Southwest Virginia (Appalachia) > Virginia",https://www.mountainproject.com/route/107612757/moonlight-sonata,4.0,-1,Boulder,V3,1,20,36.6122,-81.4912
"Far Cry","Far Cry Boulder > Left Blasters > Blaster Blocks > Keelowkee Lake > HKL West > High Knob Landform > Southwest Virginia (Appalachia) > Virginia",https://www.mountainproject.com/route/121247232/far-cry,4.0,-1,Boulder,V3,1,10,36.91727,-82.64656
Copperhead,"Contact Boulder > Contact Station Boulders > Contact Station Area > Grayson Highlands State Park > Southwest Virginia (Appalachia) > Virginia",https://www.mountainproject.com/route/106761764/copperhead,2.5,-1,Boulder,V3,1,10,36.612,-81.47896
"Chicken of the Sea","Chicken Breast Boulder > The Beach > Mill Creek > Southwest Virginia (Appalachia) > Virginia",https://www.mountainproject.com/route/118988003/chicken-of-the-sea,3.7,-1,Boulder,V3,1,,37.31345,-80.79462
"Soot Sprite","White Rock Roof > Southwest Virginia (Appalachia) > Virginia",https://www.mountainproject.com/route/119478832/soot-sprite,3.7,-1,Boulder,V3,1,12,37.40084,-80.65744
"Permission to Pass","Lab Slab Boulder > Labyrinth > HKL East > High Knob Landform > Southwest Virginia (Appalachia) > Virginia",https://www.mountainproject.com/route/121072966/permission-to-pass,4.0,-1,Boulder,"V3 R",1,25,36.91245,-82.63035
"Prefect 42","Magrathea Boulder > Waterfall Area > Mill Creek > Southwest Virginia (Appalachia) > Virginia",https://www.mountainproject.com/route/118988930/prefect-42,4.0,-1,Boulder,V3,1,,37.30277,-80.79409
M.[c]v0-v11,"Wo Boulder > Nnelg > Mill Creek > Southwest Virginia (Appalachia) > Virginia",https://www.mountainproject.com/route/118989166/mcv0-v11,4.0,-1,Boulder,V3,1,12,37.3101,-80.79723
".The Treat","Pentagon Boulder > Casablanca Boulders > Casablanca Area > Mile Two Boulders > (2) Mile Two > Guest River Gorge > Southwest Virginia (Appalachia) > Virginia",https://www.mountainproject.com/route/115420205/the-treat,4.0,-1,Boulder,V3,1,18,36.90657,-82.41947
"Holy Moly","Holy Moly Boulder > Labyrinth > HKL East > High Knob Landform > Southwest Virginia (Appalachia) > Virginia",https://www.mountainproject.com/route/108294457/holy-moly,4.0,-1,Boulder,V3,1,18,36.9097,-82.6302
"Diamonds In The Sky","White Dwarf Boulder > Labyrinth > HKL East > High Knob Landform > Southwest Virginia (Appalachia) > Virginia",https://www.mountainproject.com/route/109353649/diamonds-in-the-sky,4.0,-1,Boulder,"V3 PG13",1,23,36.9097,-82.6302
"Royal Jelly","Hive Boulder > 1. Overlook Area > Listening Rock Trail > Grayson Highlands State Park > Southwest Virginia (Appalachia) > Virginia",https://www.mountainproject.com/route/107350551/royal-jelly,2.8,-1,Boulder,V3,1,15,36.62238,-81.50243
"Shark Arete","Shark Boulder > The Buttermilks > Richmond Vicinity > Central & Southern VA Region > Virginia",https://www.mountainproject.com/route/109851163/shark-arete,2.9,-1,Boulder,V3,1,10,37.52419,-77.47446
"All Things Considered","Sunset Boulder > Sunset Area > Highlands > Grayson Highlands State Park > Southwest Virginia (Appalachia) > Virginia",https://www.mountainproject.com/route/107623934/all-things-considered,3.7,-1,Boulder,V3,1,25,36.6333,-81.5089
"The Big Squeeze","Chambers Ridge > Goshen Pass > Charlottesville vicinity > Central & Southern VA Region > Virginia",https://www.mountainproject.com/route/114208855/the-big-squeeze,4.0,-1,Boulder,"V3 PG13",1,15,37.94267,-79.45147
"Knifey Spoony","Sawblade Boulder > Reid Hollow Road > Charlottesville vicinity > Central & Southern VA Region > Virginia",https://www.mountainproject.com/route/119651328/knifey-spoony,4.0,-1,Boulder,V3,1,15,37.72966,-79.31087
"Maui Wowie","Island Boulder > Moonstone Area > Mile 1 Boulders > (1) Mile One > Guest River Gorge > Southwest Virginia (Appalachia) > Virginia",https://www.mountainproject.com/route/119615157/maui-wowie,4.0,-1,Boulder,V3,1,12,36.90072,-82.42117
"Calling My Spirit","Mausoleum Boulder > Upper Lightside Bouldering > Upper Lightside > Lightside > (6) Jaybird Gorge > Guest River Gorge > Southwest Virginia (Appalachia) > Virginia",https://www.mountainproject.com/route/116566480/calling-my-spirit,4.0,-1,Boulder,V3,1,16,36.89939,-82.41867
"Thunderbolt Arete","Thunderbolt Boulder > Gasland > Upper Darkside > Darkside > (6) Jaybird Gorge > Guest River Gorge > Southwest Virginia (Appalachia) > Virginia",https://www.mountainproject.com/route/115572330/thunderbolt-arete,4.0,-1,Boulder,V3,1,13,36.89955,-82.41887
SandStoneSmellz,"Millie Creek Boulder > Butternut Hill > Mill Creek > Southwest Virginia (Appalachia) > Virginia",https://www.mountainproject.com/route/118988320/sandstonesmellz,4.0,-1,Boulder,V3,1,,37.30823,-80.79193
"Bad Fish","Bad Boulder > Bad Boulders > (7) Jaybird Mountain > Guest River Gorge > Southwest Virginia (Appalachia) > Virginia",https://www.mountainproject.com/route/120022934/bad-fish,4.0,-1,Boulder,V3,1,13,36.89933,-82.41876
"Mr. Stripey","Long Wall > Hemlock Grove > Bearpen Boulders > ~M.R.N.R.A. > Grayson Highlands State Park > Southwest Virginia (Appalachia) > Virginia",https://www.mountainproject.com/route/120841448/mr-stripey,4.0,-1,Boulder,V3,1,13,36.62156,-81.5111
"Hell is for Heroes","Erebus Boulder > The Underworld > Inner Circle > Harkening Hill > Southwest Virginia (Appalachia) > Virginia",https://www.mountainproject.com/route/116354411/hell-is-for-heroes,4.0,-1,Boulder,V3,1,,37.45538,-79.61943
"Top Gun Arete","Top Gun > Top Gun Area > Cliff Mountain Boulders > HKL West > High Knob Landform > Southwest Virginia (Appalachia) > Virginia",https://www.mountainproject.com/route/117728548/top-gun-arete,4.0,-1,Boulder,V3,1,11,36.78794,-82.7874
Bagheera,"Boss Boulder > Lost world > Mill Creek > Southwest Virginia (Appalachia) > Virginia",https://www.mountainproject.com/route/119047068/bagheera,4.0,-1,Boulder,V3,1,,37.30308,-80.79896
"Sabotage Crack","Shotgun Boulder > Upper Lightside Bouldering > Upper Lightside > Lightside > (6) Jaybird Gorge > Guest River Gorge > Southwest Virginia (Appalachia) > Virginia",https://www.mountainproject.com/route/120537202/sabotage-crack,4.0,-1,Boulder,V3,1,20,36.89939,-82.41864
Macadamia,"Chestnut Boulder > Stock Blocks > Keelowkee Lake > HKL West > High Knob Landform > Southwest Virginia (Appalachia) > Virginia",https://www.mountainproject.com/route/119775311/macadamia,4.0,-1,Boulder,V3,1,12,36.85592,-82.86416
"Blaster Zone","Steel Boulder > Right Blasters > Blaster Blocks > Keelowkee Lake > HKL West > High Knob Landform > Southwest Virginia (Appalachia) > Virginia",https://www.mountainproject.com/route/120536544/blaster-zone,4.0,-1,Boulder,V3,1,12,36.91727,-82.64656
Dumbo,"Dumbo Boulder > Center Darkside > Darkside > (6) Jaybird Gorge > Guest River Gorge > Southwest Virginia (Appalachia) > Virginia",https://www.mountainproject.com/route/120285065/dumbo,4.0,-1,Boulder,V3,1,12,36.90666,-82.31441
"Star Fox","Infinity Boulder > Lower Lightside Bouldering > Lower Lightside > Lightside > (6) Jaybird Gorge > Guest River Gorge > Southwest Virginia (Appalachia) > Virginia",https://www.mountainproject.com/route/122082947/star-fox,4.0,-1,Boulder,V3,1,18,36.89937,-82.4186
"Highest Esteem","Esteem Boulder > Main Wall (Spooky) > Spooky Rocks > Keelowkee Lake > HKL West > High Knob Landform > Southwest Virginia (Appalachia) > Virginia",https://www.mountainproject.com/route/118770194/highest-esteem,4.0,-1,Boulder,V3,1,12,36.91842,-82.64318
"Powell River Prow","Callahan Boulder > Powell River Trail > Appalachia > Southwest Virginia (Appalachia) > Virginia",https://www.mountainproject.com/route/114026633/powell-river-prow,4.0,-1,Boulder,V3,1,15,36.90306,-82.78159
"Mission Trip","Missionary Boulder > Right Blasters > Blaster Blocks > Keelowkee Lake > HKL West > High Knob Landform > Southwest Virginia (Appalachia) > Virginia",https://www.mountainproject.com/route/120537024/mission-trip,4.0,-1,Boulder,V3,1,15,36.91727,-82.64656
Pioneer,"Pioneer Wall > Philly Blocks > Keelowkee Lake > HKL West > High Knob Landform > Southwest Virginia (Appalachia) > Virginia",https://www.mountainproject.com/route/120376522/pioneer,4.0,-1,Boulder,V3,1,13,36.85826,-82.90422
Orphism,"Gallery Boulder > Center Lightside Bouldering > Center Lightside > Lightside > (6) Jaybird Gorge > Guest River Gorge > Southwest Virginia (Appalachia) > Virginia",https://www.mountainproject.com/route/114144579/orphism,4.0,-1,Boulder,V3,1,15,36.89937,-82.4186
"Folsom Prison","Big Rig Boulder > Wild Wood > Haw Orchard > Grayson Highlands State Park > Southwest Virginia (Appalachia) > Virginia",https://www.mountainproject.com/route/108080013/folsom-prison,4.0,-1,Boulder,"V3 PG13",1,20,36.6185,-81.48122
"Southern Fist","Samurai Boulder > Samurai Area > Mile Two Boulders > (2) Mile Two > Guest River Gorge > Southwest Virginia (Appalachia) > Virginia",https://www.mountainproject.com/route/112284252/southern-fist,4.0,-1,Boulder,"V3 PG13",1,25,36.90032,-82.41947
"Mr. Fantastic","Hero Wall > Drop Area (Horseshoe Area) > Atkins Bouldering > Southwest Virginia (Appalachia) > Virginia",https://www.mountainproject.com/route/106980153/mr-fantastic,4.0,-1,Boulder,V3,1,,36.911,-81.45
"Lindley's Line","Center Highball Wall > Mill Creek Highball Wall > Mill Creek > Upchurch Area > Picnic Area > Grayson Highlands State Park > Southwest Virginia (Appalachia) > Virginia",https://www.mountainproject.com/route/109077225/lindleys-line,4.0,-1,Boulder,V3,1,25,36.61486,-81.49149
"Sling Blade","Overlook > AVO > Blue Ridge Parkway > Charlottesville vicinity > Central & Southern VA Region > Virginia",https://www.mountainproject.com/route/107444797/sling-blade,4.0,-1,Boulder,V3,1,16,37.86878,-79.05932
Coho,"Salmon roof > Main Boulder Area > Main Boulderfield Area > Bluefield Boulders > Southwest Virginia (Appalachia) > Virginia",https://www.mountainproject.com/route/106586546/coho,4.0,-1,Boulder,V3,1,15,36.65847,-81.53778
"Big 20 Arete","Big 20 Boulder > Stock Blocks > Keelowkee Lake > HKL West > High Knob Landform > Southwest Virginia (Appalachia) > Virginia",https://www.mountainproject.com/route/123445580/big-20-arete,4.0,-1,Boulder,V3,1,15,36.85592,-82.86416
"Huddle House","Big 20 Boulder > Stock Blocks > Keelowkee Lake > HKL West > High Knob Landform > Southwest Virginia (Appalachia) > Virginia",https://www.mountainproject.com/route/123445610/huddle-house,4.0,-1,Boulder,V3,1,13,36.85592,-82.86416
Gingivitis,"The Molar > The Buttermilks > Richmond Vicinity > Central & Southern VA Region > Virginia",https://www.mountainproject.com/route/116194916/gingivitis,3.5,-1,Boulder,V3,1,,37.52837,-77.48373
Firedrake,"Left Dragon > Dragon Boulders > McAfee's Knob > Southwest Virginia (Appalachia) > Virginia",https://www.mountainproject.com/route/107369038/firedrake,3.0,-1,Boulder,V3,1,,37.37974,-80.09339
"Whale Crack","The Whale Boulder > The Buttermilks > Richmond Vicinity > Central & Southern VA Region > Virginia",https://www.mountainproject.com/route/109850350/whale-crack,2.8,-1,Boulder,V3,1,20,37.52574,-77.4784
"Sundance Kid","Outlaw Boulder > Outlaw Area > Picnic Area > Grayson Highlands State Park > Southwest Virginia (Appalachia) > Virginia",https://www.mountainproject.com/route/107707889/sundance-kid,3.6,-1,Boulder,V3,1,13,36.62702,-81.47885
"Crooked Road","Crooked Road Boulder > Boneyard Area > Grayson Highlands State Park > Southwest Virginia (Appalachia) > Virginia",https://www.mountainproject.com/route/107198503/crooked-road,3.7,-1,Boulder,V3,1,18,36.6122,-81.4912
"Flake Dyno SDS","Mickey Mouse Boulders > McAfee's Knob > Southwest Virginia (Appalachia) > Virginia",https://www.mountainproject.com/route/108112163/flake-dyno-sds,3.3,-1,Boulder,V3,1,12,37.38522,-80.07813
"Russel's Teapot","Olympus Boulder > Picnic Area Boulders > Picnic Area > Grayson Highlands State Park > Southwest Virginia (Appalachia) > Virginia",https://www.mountainproject.com/route/107127016/russels-teapot,2.5,-1,Boulder,V3,1,15,36.62727,-81.48103
"Warm Up Roof Right","Warm-Up Boulder > The Belly Boulder Area > McAfee's Knob > Southwest Virginia (Appalachia) > Virginia",https://www.mountainproject.com/route/107084688/warm-up-roof-right,3.1,-1,Boulder,V3,1,20,37.39268,-80.03973
"Ship's Prow","Mayflower Boulder > Finite Element Area > McAfee's Knob > Southwest Virginia (Appalachia) > Virginia",https://www.mountainproject.com/route/107087662/ships-prow,3.3,-1,Boulder,V3,1,9,37.3801,-80.0898
"Mickey Face Left","Mickey Mouse Boulders > McAfee's Knob > Southwest Virginia (Appalachia) > Virginia",https://www.mountainproject.com/route/107084260/mickey-face-left,2.4,-1,Boulder,V3,1,8,37.38522,-80.07813
"Fiesta, Forever","Fiesta Boulder > Blue Ridge Parkway > Charlottesville vicinity > Central & Southern VA Region > Virginia",https://www.mountainproject.com/route/121846247/fiesta-forever,3.2,-1,Boulder,V3,1,,37.94868,-78.9134
"Jawing of Keel-Hauling","Fence Boulder > The Buttermilks > Richmond Vicinity > Central & Southern VA Region > Virginia",https://www.mountainproject.com/route/122325014/jawing-of-keel-hauling,3.0,-1,Boulder,V3,1,10,37.52714,-77.48131
"Big Gulp?","Second Mountain > Shenandoah & NW VA Region > Virginia",https://www.mountainproject.com/route/113210410/big-gulp,3.1,-1,Boulder,V3,1,15,38.51696,-79.03842
"This World","Lower Hawksbill Boulder > Central District > Shenandoah National Park > Shenandoah & NW VA Region > Virginia",https://www.mountainproject.com/route/117526947/this-world,3.5,-1,Boulder,V3,1,15,38.557,-78.38412
"Facile Ascensus","The Wedge Boulder > The Beach > Mill Creek > Southwest Virginia (Appalachia) > Virginia",https://www.mountainproject.com/route/121521739/facile-ascensus,3.0,-1,Boulder,V3,1,12,37.31351,-80.79541
"Noble Arete","Esquire Boulder > Left Blasters > Blaster Blocks > Keelowkee Lake > HKL West > High Knob Landform > Southwest Virginia (Appalachia) > Virginia",https://www.mountainproject.com/route/121247194/noble-arete,3.5,-1,Boulder,V3,1,10,36.91727,-82.64656
"God's Thumb","God's Thumb > Pavilion Area > Flag Rock Bouldering > Flag Rock > HKL East > High Knob Landform > Southwest Virginia (Appalachia) > Virginia",https://www.mountainproject.com/route/108294378/gods-thumb,3.5,-1,Boulder,V3,1,11,36.9193,-82.6269
Apolune,"Space Boulder > 5. Central > Listening Rock Trail > Grayson Highlands State Park > Southwest Virginia (Appalachia) > Virginia",https://www.mountainproject.com/route/107286613/apolune,3.5,-1,Boulder,V3,1,27,36.62279,-81.50167
"Johnson's Magic","Magic Boulder > Osborne West > Osborne Rock/Ridge > HKL East > High Knob Landform > Southwest Virginia (Appalachia) > Virginia",https://www.mountainproject.com/route/109227358/johnsons-magic,3.5,-1,Boulder,"V3 PG13",1,13,36.91954,-82.62855
Gas-a-Lean,"Ultra Boulder > Gasland > Upper Darkside > Darkside > (6) Jaybird Gorge > Guest River Gorge > Southwest Virginia (Appalachia) > Virginia",https://www.mountainproject.com/route/113886485/gas-a-lean,3.3,-1,Boulder,V3,1,,36.89935,-82.41877
"Dragons Den","Lost World Boulder > Right Blasters > Blaster Blocks > Keelowkee Lake > HKL West > High Knob Landform > Southwest Virginia (Appalachia) > Virginia",https://www.mountainproject.com/route/120536698/dragons-den,3.3,-1,Boulder,V3,1,11,36.91775,-82.64658
Facade,"Cap-Gun Boulder > Left Boneyard > Boneyard Area > Grayson Highlands State Park > Southwest Virginia (Appalachia) > Virginia",https://www.mountainproject.com/route/106655441/facade,2.8,-1,Boulder,V3,1,8,36.61272,-81.49442
"Journey To Glory","Title Fight Boulder > Title Fight Area > Cascades Bouldering > Southwest Virginia (Appalachia) > Virginia",https://www.mountainproject.com/route/107542449/journey-to-glory,3.0,-1,Boulder,V3,1,12,37.35999,-80.58823
"Lingual Arete","Bi-Lingual Boulder > 1. Overlook Area > Listening Rock Trail > Grayson Highlands State Park > Southwest Virginia (Appalachia) > Virginia",https://www.mountainproject.com/route/107282514/lingual-arete,2.5,-1,Boulder,V3,1,,36.62279,-81.50167
"Counter Pressure (Proper)","Roadside > McAfee's Knob > Southwest Virginia (Appalachia) > Virginia",https://www.mountainproject.com/route/107361614/counter-pressure-proper,2.4,-1,Boulder,V3,1,,37.3804,-80.0899
"Season Finale","Episode Boulder > Middle Boneyard > Boneyard Area > Grayson Highlands State Park > Southwest Virginia (Appalachia) > Virginia",https://www.mountainproject.com/route/106709760/season-finale,2.6,-1,Boulder,V3,1,10,36.61271,-81.49507
"Rite of Passage","Bastion Boulder > Stones > Harkening Hill > Southwest Virginia (Appalachia) > Virginia",https://www.mountainproject.com/route/107422630/rite-of-passage,3.0,-1,Boulder,V3,1,10,37.4548,-79.61891
"Quentin Quarantino","Weenie Beenie Area > DC & Northern VA Region > Virginia",https://www.mountainproject.com/route/118729520/quentin-quarantino,1.8,-1,Boulder,V3,1,175,38.84353,-77.08523
"Cupon Code","Big Boy > The Forest > Blue Ridge Parkway > Charlottesville vicinity > Central & Southern VA Region > Virginia",https://www.mountainproject.com/route/121526521/cupon-code,2.5,-1,Boulder,V3,1,16,37.89461,-79.04896
"Fish Fillet","Approach Boulders > Wintergreen > Charlottesville vicinity > Central & Southern VA Region > Virginia",https://www.mountainproject.com/route/118135195/fish-fillet,3.0,-1,Boulder,V3,1,15,37.90645,-78.93721
"Green Tea","Picnic Boulder > Picnic Boulder & Block > Picnic Area Boulders > Picnic Area > Grayson Highlands State Park > Southwest Virginia (Appalachia) > Virginia",https://www.mountainproject.com/route/107145759/green-tea,2.3,-1,Boulder,V3,1,6,36.62523,-81.48157
"Secret Agent","Clandestine Block > Cascadia Area > Cascades Bouldering > Southwest Virginia (Appalachia) > Virginia",https://www.mountainproject.com/route/107531125/secret-agent,2.8,-1,Boulder,V3,1,10,37.35369,-80.59625
Banjo,"Bears Den Boulders > DC & Northern VA Region > Virginia",https://www.mountainproject.com/route/118705437/banjo,3.0,-1,Boulder,"V3 R",1,10,39.11193,-77.85641
"Figurehead Traverse","Forest Hill Park > Richmond Vicinity > Central & Southern VA Region > Virginia",https://www.mountainproject.com/route/120615034/figurehead-traverse,3.0,-1,Boulder,V3,1,24,37.51727,-77.47092
"Mickey Face Direct","Mickey Mouse Boulders > McAfee's Knob > Southwest Virginia (Appalachia) > Virginia",https://www.mountainproject.com/route/120367391/mickey-face-direct,3.0,-1,Boulder,V3,1,10,37.38522,-80.07813
"Unnamed classic?","Trail side bouldering > Blue Ridge Rail Way Trail > Amherst County > Central & Southern VA Region > Virginia",https://www.mountainproject.com/route/121861721/unnamed-classic,3.0,-1,Boulder,V3,1,,37.69803,-79.00532
Quinceañera,"Fiesta Boulder > Blue Ridge Parkway > Charlottesville vicinity > Central & Southern VA Region > Virginia",https://www.mountainproject.com/route/121846264/quinceanera,2.5,-1,Boulder,V3,1,,37.94868,-78.9134
"Carapace Traverse","Snail Boulder > Blue Ridge Parkway > Charlottesville vicinity > Central & Southern VA Region > Virginia",https://www.mountainproject.com/route/121576379/carapace-traverse,2.7,-1,Boulder,V3,1,13,37.98008,-78.90571
"Shot Across the Bow","Forest Hill Park > Richmond Vicinity > Central & Southern VA Region > Virginia",https://www.mountainproject.com/route/109860973/shot-across-the-bow,3.0,-1,Boulder,V3,1,10,37.51727,-77.47092
"Mind Over Mantle","The Titanic Boulder > The Belly Boulder Area > McAfee's Knob > Southwest Virginia (Appalachia) > Virginia",https://www.mountainproject.com/route/118184832/mind-over-mantle,3.0,-1,Boulder,V3,1,,37.3925,-80.03994
"El Borracho","Doah Boulder > Little Bishop Boulders > Central District > Shenandoah National Park > Shenandoah & NW VA Region > Virginia",https://www.mountainproject.com/route/118971195/el-borracho,3.0,-1,Boulder,V3,1,15,38.58585,-78.36815
"Anatomy of the Wave","Wave Block > Center Darkside > Darkside > (6) Jaybird Gorge > Guest River Gorge > Southwest Virginia (Appalachia) > Virginia",https://www.mountainproject.com/route/118637333/anatomy-of-the-wave,3.0,-1,Boulder,V3,1,11,36.90948,-82.45516
"Fault Lines","Clamber Boulder > Upper Deck > Harkening Hill > Southwest Virginia (Appalachia) > Virginia",https://www.mountainproject.com/route/116510611/fault-lines,3.0,-1,Boulder,V3,1,13,37.45569,-79.62032
Wraith,"Rolls Royce Boulder > Lower Lightside Bouldering > Lower Lightside > Lightside > (6) Jaybird Gorge > Guest River Gorge > Southwest Virginia (Appalachia) > Virginia",https://www.mountainproject.com/route/116669314/wraith,3.0,-1,Boulder,V3,1,13,36.89937,-82.4186
"Dark Tower","Darkside Boulder > Center Darkside > Darkside > (6) Jaybird Gorge > Guest River Gorge > Southwest Virginia (Appalachia) > Virginia",https://www.mountainproject.com/route/118885064/dark-tower,3.0,-1,Boulder,V3,1,12,36.90949,-82.45517
"Otter Limits","Otter Roof > Otter Boulders > Casablanca Area > Mile Two Boulders > (2) Mile Two > Guest River Gorge > Southwest Virginia (Appalachia) > Virginia",https://www.mountainproject.com/route/117894761/otter-limits,3.0,-1,Boulder,V3,1,12,36.90447,-82.42728
Orlok,"Veiny Boulder > Upper Deck > Harkening Hill > Southwest Virginia (Appalachia) > Virginia",https://www.mountainproject.com/route/116249114/orlok,3.0,-1,Boulder,V3,1,12,37.45587,-79.61969
"Smoke Stack","Thunderbolt Boulder > Gasland > Upper Darkside > Darkside > (6) Jaybird Gorge > Guest River Gorge > Southwest Virginia (Appalachia) > Virginia",https://www.mountainproject.com/route/115572136/smoke-stack,3.0,-1,Boulder,V3,1,13,36.89955,-82.41887
Hypotenuse,"Pythagoras Boulder > Center Darkside > Darkside > (6) Jaybird Gorge > Guest River Gorge > Southwest Virginia (Appalachia) > Virginia",https://www.mountainproject.com/route/118884752/hypotenuse,3.0,-1,Boulder,V3,1,20,36.90948,-82.45516
"Merlin Arete","Top Gun > Top Gun Area > Cliff Mountain Boulders > HKL West > High Knob Landform > Southwest Virginia (Appalachia) > Virginia",https://www.mountainproject.com/route/117728595/merlin-arete,3.0,-1,Boulder,V3,1,11,36.78794,-82.7874
Juxtaposition,"Gallery Boulder > Center Lightside Bouldering > Center Lightside > Lightside > (6) Jaybird Gorge > Guest River Gorge > Southwest Virginia (Appalachia) > Virginia",https://www.mountainproject.com/route/115180308/juxtaposition,3.0,-1,Boulder,V3,1,13,36.89937,-82.4186
"Wood Booger","Origins Boulder > Labyrinth > HKL East > High Knob Landform > Southwest Virginia (Appalachia) > Virginia",https://www.mountainproject.com/route/108333006/wood-booger,3.0,-1,Boulder,V3,1,10,36.90524,-82.63237
"Presidents Problem","Cap-Gun Boulder > Left Boneyard > Boneyard Area > Grayson Highlands State Park > Southwest Virginia (Appalachia) > Virginia",https://www.mountainproject.com/route/106734383/presidents-problem,2.6,-1,Boulder,V3,1,9,36.61272,-81.49442
"Shakedown on 9th Street","Right Boulder > Across The Road Boulders > Blue Ridge Parkway > Charlottesville vicinity > Central & Southern VA Region > Virginia",https://www.mountainproject.com/route/107316230/shakedown-on-9th-street,3.0,-1,Boulder,V3,1,15,37.86878,-79.05932
"Delorean Doors","Huckleberry Boulder > Luminary Area > Haw Orchard > Grayson Highlands State Park > Southwest Virginia (Appalachia) > Virginia",https://www.mountainproject.com/route/107505896/delorean-doors,3.0,-1,Boulder,V3,1,15,36.6185,-81.48122
"Around The ""Cave""","End of the Logging Road > Forge Mountain > Goshen Pass > Charlottesville vicinity > Central & Southern VA Region > Virginia",https://www.mountainproject.com/route/123285920/around-the-cave,3.0,-1,Boulder,V3,1,15,37.9411,-79.45628
"Screeching Monkey","The Hidden Temple > The Buttermilks > Richmond Vicinity > Central & Southern VA Region > Virginia",https://www.mountainproject.com/route/121567111/screeching-monkey,3.0,-1,Boulder,V3,1,10,37.52504,-77.47621
Scooter,"Left Highball Wall > Mill Creek Highball Wall > Mill Creek > Upchurch Area > Picnic Area > Grayson Highlands State Park > Southwest Virginia (Appalachia) > Virginia",https://www.mountainproject.com/route/117745311/scooter,3.0,-1,Boulder,V3,1,18,36.61486,-81.49149
"Lurkin (Stand Start)","Hollow Point Boulder > The Buttermilks > Richmond Vicinity > Central & Southern VA Region > Virginia",https://www.mountainproject.com/route/118785858/lurkin-stand-start,3.0,-1,Boulder,V3,1,8,37.52971,-77.4865
Cubensis,"Devil Called Love Boulder > Sunset Sonata Boulders > NellysFord > Charlottesville vicinity > Central & Southern VA Region > Virginia",https://www.mountainproject.com/route/121948780/cubensis,3.0,-1,Boulder,V3,1,,37.91957,-78.89957
"Oti’s Gold Mine","Fridley's Gap > Shenandoah & NW VA Region > Virginia",https://www.mountainproject.com/route/117917491/otis-gold-mine,3.0,-1,Boulder,V3,1,20,38.49686,-78.70944
"Juicy Sweatpants","Johns Rest Boulders > Rapidan Wildlife Management Area > Shenandoah & NW VA Region > Virginia",https://www.mountainproject.com/route/121563266/juicy-sweatpants,3.0,-1,Boulder,V3,1,8,38.38423,-78.46195
"Depth Charge","Sub Boulder > Sunset Sonata Boulders > NellysFord > Charlottesville vicinity > Central & Southern VA Region > Virginia",https://www.mountainproject.com/route/121948914/depth-charge,3.0,-1,Boulder,V3,1,,37.91968,-78.89979
Dodecane,"Level One Boulder > Ground Zero Boulders > Old Stoney Valley > Charlottesville vicinity > Central & Southern VA Region > Virginia",https://www.mountainproject.com/route/121983045/dodecane,3.0,-1,Boulder,V3,1,,37.91951,-78.91216
"Taking Names","Intruder Boulder > Sunset Sonata Boulders > NellysFord > Charlottesville vicinity > Central & Southern VA Region > Virginia",https://www.mountainproject.com/route/122028885/taking-names,3.0,-1,Boulder,V3,1,,37.91919,-78.89997
Banjo,"Banjo-Kazooie Boulder > Devil's Marbleyard > Southwest Virginia (Appalachia) > Virginia",https://www.mountainproject.com/route/114061186/banjo,3.0,-1,Boulder,V3,1,12,37.58149,-79.47164
"Times Square","New Year's Boulder > Afton Mountain Bouldering > Shenandoah National Park > Shenandoah & NW VA Region > Virginia",https://www.mountainproject.com/route/110385735/times-square,3.0,-1,Boulder,V3,1,15,38.0451,-78.84534
"Anti Vaxer","Microbe Boulder > Lower Lightside Bouldering > Lower Lightside > Lightside > (6) Jaybird Gorge > Guest River Gorge > Southwest Virginia (Appalachia) > Virginia",https://www.mountainproject.com/route/116616104/anti-vaxer,3.0,-1,Boulder,V3,1,11,36.89937,-82.41859
"Jumping For Yahweh","Main area > Mile 47.5 Pull off > Blue Ridge Parkway > Charlottesville vicinity > Central & Southern VA Region > Virginia",https://www.mountainproject.com/route/118197611/jumping-for-yahweh,3.0,-1,Boulder,V3,1,15,37.71851,-79.31312
Polypore,"Devil Called Love Boulder > Sunset Sonata Boulders > NellysFord > Charlottesville vicinity > Central & Southern VA Region > Virginia",https://www.mountainproject.com/route/122083507/polypore,3.0,-1,Boulder,V3,1,,37.91957,-78.89957
"Gleaming the Cube","Dice Boulder > Shawvers Run > Potts Mountain > Southwest Virginia (Appalachia) > Virginia",https://www.mountainproject.com/route/119139206/gleaming-the-cube,3.0,-1,Boulder,V3,1,15,37.56183,-80.19606
"Twelve Foot Foamie","Island Boulder > Moonstone Area > Mile 1 Boulders > (1) Mile One > Guest River Gorge > Southwest Virginia (Appalachia) > Virginia",https://www.mountainproject.com/route/119615163/twelve-foot-foamie,3.0,-1,Boulder,V3,1,12,36.90072,-82.42117
Eradicator,"Super Boulder > Lower Lightside Bouldering > Lower Lightside > Lightside > (6) Jaybird Gorge > Guest River Gorge > Southwest Virginia (Appalachia) > Virginia",https://www.mountainproject.com/route/116663374/eradicator,3.0,-1,Boulder,V3,1,11,36.89937,-82.4186
"Dark Matter","Darkside Boulder > Center Darkside > Darkside > (6) Jaybird Gorge > Guest River Gorge > Southwest Virginia (Appalachia) > Virginia",https://www.mountainproject.com/route/118077605/dark-matter,3.0,-1,Boulder,V3,1,13,36.90949,-82.45517
"Good & Gather","Tribe Boulder > Bridge Climbing (Three Amigos) > Spooky Rocks > Keelowkee Lake > HKL West > High Knob Landform > Southwest Virginia (Appalachia) > Virginia",https://www.mountainproject.com/route/121416110/good-gather,3.0,-1,Boulder,V3,1,18,36.91842,-82.64315
Shadowfax,"Darkside Boulder > Center Darkside > Darkside > (6) Jaybird Gorge > Guest River Gorge > Southwest Virginia (Appalachia) > Virginia",https://www.mountainproject.com/route/122146999/shadowfax,3.0,-1,Boulder,V3,1,18,36.90949,-82.45517
Spectrum,"Spectrum Boulder > Lower Lightside Bouldering > Lower Lightside > Lightside > (6) Jaybird Gorge > Guest River Gorge > Southwest Virginia (Appalachia) > Virginia",https://www.mountainproject.com/route/116643461/spectrum,3.0,-1,Boulder,V3,1,14,36.89937,-82.41859
"Brimp Boy","Jolly Green Giant Boulder > Waterfall Area > Mill Creek > Southwest Virginia (Appalachia) > Virginia",https://www.mountainproject.com/route/118988855/brimp-boy,3.0,-1,Boulder,V3,1,,37.30244,-80.79495
Hooch,"Whiskey Boulder > Widow Area > Mile 1 Boulders > (1) Mile One > Guest River Gorge > Southwest Virginia (Appalachia) > Virginia",https://www.mountainproject.com/route/116754771/hooch,3.0,-1,Boulder,V3,1,10,36.90072,-82.4212
"Off the Tree (Sit Project)","Hemlock Springs Boulder > Central District > Shenandoah National Park > Shenandoah & NW VA Region > Virginia",https://www.mountainproject.com/route/120888423/off-the-tree-sit-project,3.0,-1,Boulder,V3,1,,38.5964,-78.36212
"The Father","Mausoleum Boulder > Upper Lightside Bouldering > Upper Lightside > Lightside > (6) Jaybird Gorge > Guest River Gorge > Southwest Virginia (Appalachia) > Virginia",https://www.mountainproject.com/route/116715747/the-father,3.0,-1,Boulder,V3,1,13,36.89939,-82.41867
"Nutty Buddy","Chestnut Boulder > Stock Blocks > Keelowkee Lake > HKL West > High Knob Landform > Southwest Virginia (Appalachia) > Virginia",https://www.mountainproject.com/route/119775597/nutty-buddy,3.0,-1,Boulder,V3,1,18,36.85592,-82.86416
"Pug Life","Clint's Boulder > Gully A > Mill Creek > Southwest Virginia (Appalachia) > Virginia",https://www.mountainproject.com/route/119136100/pug-life,3.0,-1,Boulder,V3,1,8,37.31471,-80.79878
"Hands-free Hillbilly Highway","Haunted Boulder > Upper Lightside Bouldering > Upper Lightside > Lightside > (6) Jaybird Gorge > Guest River Gorge > Southwest Virginia (Appalachia) > Virginia",https://www.mountainproject.com/route/120328396/hands-free-hillbilly-highway,3.0,-1,Boulder,V3,1,30,36.89942,-82.41864
"Henry the Navigator","Pentagon Boulder > Casablanca Boulders > Casablanca Area > Mile Two Boulders > (2) Mile Two > Guest River Gorge > Southwest Virginia (Appalachia) > Virginia",https://www.mountainproject.com/route/115420270/henry-the-navigator,3.0,-1,Boulder,V3,1,17,36.90657,-82.41947
Siderial,"Orbit Block > Boulder Garden > Mile Two Boulders > (2) Mile Two > Guest River Gorge > Southwest Virginia (Appalachia) > Virginia",https://www.mountainproject.com/route/116747444/siderial,3.0,-1,Boulder,V3,1,10,36.9003,-82.41947
"Disco Inferno","Ultra Boulder > Gasland > Upper Darkside > Darkside > (6) Jaybird Gorge > Guest River Gorge > Southwest Virginia (Appalachia) > Virginia",https://www.mountainproject.com/route/118769503/disco-inferno,3.0,-1,Boulder,V3,1,15,36.89935,-82.41877
"Penny for Your Thoughts","Penny Boulder > Down the Gully Area > Forge Mountain > Goshen Pass > Charlottesville vicinity > Central & Southern VA Region > Virginia",https://www.mountainproject.com/route/119492763/penny-for-your-thoughts,3.0,-1,Boulder,V3,1,7,37.93871,-79.45969
"Bad Bench","Main Bench Boulder > Bench Boulders > Casablanca Area > Mile Two Boulders > (2) Mile Two > Guest River Gorge > Southwest Virginia (Appalachia) > Virginia",https://www.mountainproject.com/route/117833069/bad-bench,3.0,-1,Boulder,V3,1,11,36.90239,-82.41947
"Caprice Classic","Notion Boulder > Main Wall (Spooky) > Spooky Rocks > Keelowkee Lake > HKL West > High Knob Landform > Southwest Virginia (Appalachia) > Virginia",https://www.mountainproject.com/route/118772266/caprice-classic,3.0,-1,Boulder,V3,1,12,36.91842,-82.64319
Surrounded,"Moat Block > Moonstone Area > Mile 1 Boulders > (1) Mile One > Guest River Gorge > Southwest Virginia (Appalachia) > Virginia",https://www.mountainproject.com/route/119774881/surrounded,3.0,-1,Boulder,V3,1,9,36.90072,-82.42117
"Badger Arete","Badger Boulder > Wild Wood > Haw Orchard > Grayson Highlands State Park > Southwest Virginia (Appalachia) > Virginia",https://www.mountainproject.com/route/120663618/badger-arete,3.0,-1,Boulder,V3,1,12,36.6185,-81.48122
"Dani's Line","Second Wall > Whitetop > ~M.R.N.R.A. > Grayson Highlands State Park > Southwest Virginia (Appalachia) > Virginia",https://www.mountainproject.com/route/121148522/danis-line,3.0,-1,Boulder,V3,1,11,36.6122,-81.49119
"Peaceful Journey","Tribe Boulder > Bridge Climbing (Three Amigos) > Spooky Rocks > Keelowkee Lake > HKL West > High Knob Landform > Southwest Virginia (Appalachia) > Virginia",https://www.mountainproject.com/route/121416182/peaceful-journey,3.0,-1,Boulder,V3,1,16,36.91842,-82.64315
"Brave New World","Long Wall > Hemlock Grove > Bearpen Boulders > ~M.R.N.R.A. > Grayson Highlands State Park > Southwest Virginia (Appalachia) > Virginia",https://www.mountainproject.com/route/120841413/brave-new-world,3.0,-1,Boulder,V3,1,12,36.62156,-81.5111
"Golden Boy (Stand)","Island Boulder > Moonstone Area > Mile 1 Boulders > (1) Mile One > Guest River Gorge > Southwest Virginia (Appalachia) > Virginia",https://www.mountainproject.com/route/119774443/golden-boy-stand,3.0,-1,Boulder,V3,1,10,36.90072,-82.42117
"Turtle Soup","Turtle Boulder > Turtle Area > Cliff Mountain Boulders > HKL West > High Knob Landform > Southwest Virginia (Appalachia) > Virginia",https://www.mountainproject.com/route/117727999/turtle-soup,3.0,-1,Boulder,V3,1,9,36.78702,-82.78808
"Aint Never Lie","Folk Boulder > Samurai Area > Mile Two Boulders > (2) Mile Two > Guest River Gorge > Southwest Virginia (Appalachia) > Virginia",https://www.mountainproject.com/route/117894506/aint-never-lie,3.0,-1,Boulder,V3,1,15,36.90032,-82.41946
"Eagle Roof","Eagle Boulder > Briar Patch Boulders > Bearpen Boulders > ~M.R.N.R.A. > Grayson Highlands State Park > Southwest Virginia (Appalachia) > Virginia",https://www.mountainproject.com/route/117120788/eagle-roof,3.0,-1,Boulder,V3,1,10,36.62156,-81.51111
"Wildflower Arete","Meadow Boulder > Legend Boulders > Scales Area Bouldering > ~M.R.N.R.A. > Grayson Highlands State Park > Southwest Virginia (Appalachia) > Virginia",https://www.mountainproject.com/route/120441115/wildflower-arete,3.0,-1,Boulder,V3,1,11,36.61219,-81.49117
"Eagle Arete","Eagle Boulder > Briar Patch Boulders > Bearpen Boulders > ~M.R.N.R.A. > Grayson Highlands State Park > Southwest Virginia (Appalachia) > Virginia",https://www.mountainproject.com/route/117120804/eagle-arete,3.0,-1,Boulder,V3,1,10,36.62156,-81.51111
"Everybody Hurts","Infinity Boulder > Lower Lightside Bouldering > Lower Lightside > Lightside > (6) Jaybird Gorge > Guest River Gorge > Southwest Virginia (Appalachia) > Virginia",https://www.mountainproject.com/route/118166531/everybody-hurts,3.0,-1,Boulder,V3,1,20,36.89937,-82.4186
"Thoughtful Arete","Think Blocks > Turtle Area > Cliff Mountain Boulders > HKL West > High Knob Landform > Southwest Virginia (Appalachia) > Virginia",https://www.mountainproject.com/route/117728216/thoughtful-arete,3.0,-1,Boulder,V3,1,10,36.78702,-82.78808
"People Are Strange","Shotgun Wall > Upper Lightside Bouldering > Upper Lightside > Lightside > (6) Jaybird Gorge > Guest River Gorge > Southwest Virginia (Appalachia) > Virginia",https://www.mountainproject.com/route/122083196/people-are-strange,3.0,-1,Boulder,V3,1,18,36.89937,-82.41858
"Ranch Arete","Ranch Boulder > ~M.R.N.R.A. > Grayson Highlands State Park > Southwest Virginia (Appalachia) > Virginia",https://www.mountainproject.com/route/122374623/ranch-arete,3.0,-1,Boulder,V3,1,9,36.62156,-81.51111
".The Sapling","Timber Boulder > Timber Boulders > Lower Darkside > Darkside > (6) Jaybird Gorge > Guest River Gorge > Southwest Virginia (Appalachia) > Virginia",https://www.mountainproject.com/route/118237230/the-sapling,3.0,-1,Boulder,V3,1,11,36.90949,-82.45516
"Low Self Esteem","Esteem Boulder > Main Wall (Spooky) > Spooky Rocks > Keelowkee Lake > HKL West > High Knob Landform > Southwest Virginia (Appalachia) > Virginia",https://www.mountainproject.com/route/118770212/low-self-esteem,3.0,-1,Boulder,V3,1,14,36.91842,-82.64318
Apocalypto,"Jungle Block > Center Lightside Bouldering > Center Lightside > Lightside > (6) Jaybird Gorge > Guest River Gorge > Southwest Virginia (Appalachia) > Virginia",https://www.mountainproject.com/route/122191309/apocalypto,3.0,-1,Boulder,V3,1,10,36.89937,-82.4186
"Cherry Bomb Arete","Cherry Boulder > Sharp Block (Standards) > Spooky Rocks > Keelowkee Lake > HKL West > High Knob Landform > Southwest Virginia (Appalachia) > Virginia",https://www.mountainproject.com/route/118806093/cherry-bomb-arete,3.0,-1,Boulder,V3,1,12,36.91842,-82.64316
"Yonder Mountain","Beyond Boulder > Lower Lightside Bouldering > Lower Lightside > Lightside > (6) Jaybird Gorge > Guest River Gorge > Southwest Virginia (Appalachia) > Virginia",https://www.mountainproject.com/route/122082955/yonder-mountain,3.0,-1,Boulder,V3,1,12,36.89937,-82.4186
",The Nest","Nest Boulder > Hemingway Boulders > Bearpen Boulders > ~M.R.N.R.A. > Grayson Highlands State Park > Southwest Virginia (Appalachia) > Virginia",https://www.mountainproject.com/route/114433103/the-nest,3.0,-1,Boulder,V3,1,10,36.62156,-81.51111
"Steam Factory","Steam Boulder > Upper Lightside Bouldering > Upper Lightside > Lightside > (6) Jaybird Gorge > Guest River Gorge > Southwest Virginia (Appalachia) > Virginia",https://www.mountainproject.com/route/114084741/steam-factory,3.0,-1,Boulder,V3,1,17,36.89939,-82.41864
"Red Fox Arete","Haunted Boulder > Upper Lightside Bouldering > Upper Lightside > Lightside > (6) Jaybird Gorge > Guest River Gorge > Southwest Virginia (Appalachia) > Virginia",https://www.mountainproject.com/route/114041397/red-fox-arete,3.0,-1,Boulder,V3,1,15,36.89942,-82.41864
Kit-n-Caboodle,"Collective Block > Hemingway Boulders > Bearpen Boulders > ~M.R.N.R.A. > Grayson Highlands State Park > Southwest Virginia (Appalachia) > Virginia",https://www.mountainproject.com/route/113140052/kit-n-caboodle,3.0,-1,Boulder,V3,1,,36.62198,-81.51111
Gallop,"Pegasus Boulder > Gasland > Upper Darkside > Darkside > (6) Jaybird Gorge > Guest River Gorge > Southwest Virginia (Appalachia) > Virginia",https://www.mountainproject.com/route/113897362/gallop,3.0,-1,Boulder,V3,1,15,36.89935,-82.41877
"Divine Gesture","Hemingway Boulder > Hemingway Boulders > Bearpen Boulders > ~M.R.N.R.A. > Grayson Highlands State Park > Southwest Virginia (Appalachia) > Virginia",https://www.mountainproject.com/route/113139746/divine-gesture,3.0,-1,Boulder,V3,1,8,36.62171,-81.51197
"Balancing Act","Balanced Rock > Balanced Rock Boulders > Clear Creek > HKL East > High Knob Landform > Southwest Virginia (Appalachia) > Virginia",https://www.mountainproject.com/route/113416262/balancing-act,3.0,-1,Boulder,V3,1,25,36.91903,-82.62518
"Death Roof (Dyno Exit)","Death Roof > Night Vale Area > Mile 3 Boulders > (3) Mile Three > Guest River Gorge > Southwest Virginia (Appalachia) > Virginia",https://www.mountainproject.com/route/112265722/death-roof-dyno-exit,3.0,-1,Boulder,V3,1,14,36.8995,-82.42126
"Every Vote Counts","Election Boulder > Samurai Area > Mile Two Boulders > (2) Mile Two > Guest River Gorge > Southwest Virginia (Appalachia) > Virginia",https://www.mountainproject.com/route/112304211/every-vote-counts,3.0,-1,Boulder,V3,1,13,36.89908,-82.42035
"Down for the Cause","Down Roofs > Vision Area > Mile Two Boulders > (2) Mile Two > Guest River Gorge > Southwest Virginia (Appalachia) > Virginia",https://www.mountainproject.com/route/112401460/down-for-the-cause,3.0,-1,Boulder,V3,1,12,36.89936,-82.42136
"Down for the Count","Down Roofs > Vision Area > Mile Two Boulders > (2) Mile Two > Guest River Gorge > Southwest Virginia (Appalachia) > Virginia",https://www.mountainproject.com/route/112401470/down-for-the-count,3.0,-1,Boulder,V3,1,12,36.89936,-82.42136
Jolene,"Big Rig Boulder > Wild Wood > Haw Orchard > Grayson Highlands State Park > Southwest Virginia (Appalachia) > Virginia",https://www.mountainproject.com/route/111685519/jolene,3.0,-1,Boulder,V3,1,17,36.6185,-81.48122
Badger,"Badger Boulder > Wild Wood > Haw Orchard > Grayson Highlands State Park > Southwest Virginia (Appalachia) > Virginia",https://www.mountainproject.com/route/111875964/badger,3.0,-1,Boulder,V3,1,12,36.6185,-81.48122
"Blackberry Blossom","Hollow Trail Boulders > Mint Springs Park > Charlottesville vicinity > Central & Southern VA Region > Virginia",https://www.mountainproject.com/route/107293166/blackberry-blossom,3.0,-1,Boulder,V3,1,15,38.05671,-78.46161
"Used To Be A Farm","Beaver Creek Reservoir > Charlottesville vicinity > Central & Southern VA Region > Virginia",https://www.mountainproject.com/route/107290510/used-to-be-a-farm,3.0,-1,Boulder,V3,1,8,38.05671,-78.46161
Moonstone,"Moonstone Boulder > Moonstone Area > Mile 1 Boulders > (1) Mile One > Guest River Gorge > Southwest Virginia (Appalachia) > Virginia",https://www.mountainproject.com/route/123097379/moonstone,3.0,-1,Boulder,V3,1,12,36.90071,-82.42116
Rhapsody,"Humble Pie Boulder > Fantasia Boulders > Casablanca Area > Mile Two Boulders > (2) Mile Two > Guest River Gorge > Southwest Virginia (Appalachia) > Virginia",https://www.mountainproject.com/route/109926072/rhapsody,3.0,-1,Boulder,V3,1,10,36.37206,-81.88869
"Deep Thought","Deep Thought Block > Labyrinth > HKL East > High Knob Landform > Southwest Virginia (Appalachia) > Virginia",https://www.mountainproject.com/route/109309316/deep-thought,3.0,-1,Boulder,V3,1,10,36.9097,-82.6302
"Big Freeda","New Beginnings Boulder > New Beginnings Area > Mile Two Boulders > (2) Mile Two > Guest River Gorge > Southwest Virginia (Appalachia) > Virginia",https://www.mountainproject.com/route/108743924/big-freeda,3.0,-1,Boulder,V3,1,12,36.90032,-82.41947
"Nothing But Time (Direct)","Gospel Boulder > Labyrinth > HKL East > High Knob Landform > Southwest Virginia (Appalachia) > Virginia",https://www.mountainproject.com/route/109359194/nothing-but-time-direct,3.0,-1,Boulder,V3,1,12,36.90957,-82.63089
"Calamity Arete","Calamity Boulder > Back of Beyond > Haw Orchard > Grayson Highlands State Park > Southwest Virginia (Appalachia) > Virginia",https://www.mountainproject.com/route/108945130/calamity-arete,3.0,-1,Boulder,"V3 R",1,15,36.6235,-81.47622
Bewegungslehre,"Principia Boulder > Back of Beyond > Haw Orchard > Grayson Highlands State Park > Southwest Virginia (Appalachia) > Virginia",https://www.mountainproject.com/route/108945227/bewegungslehre,3.0,-1,Boulder,V3,1,15,36.6235,-81.47622
"No Mans Land","Rock House Boulder > Picnic Area Boulders > Picnic Area > Grayson Highlands State Park > Southwest Virginia (Appalachia) > Virginia",https://www.mountainproject.com/route/107289878/no-mans-land,3.0,-1,Boulder,"V3 R",1,20,36.62523,-81.48157
"Big Divot","Golf Course Boulder > Camp Rock  Ridge > HKL East > High Knob Landform > Southwest Virginia (Appalachia) > Virginia",https://www.mountainproject.com/route/108505476/big-divot,3.0,-1,Boulder,V3,1,9,36.02984,-82.56246
"Groove Machine (Stand)","Ravine Block > Osborne East > Osborne Rock/Ridge > HKL East > High Knob Landform > Southwest Virginia (Appalachia) > Virginia",https://www.mountainproject.com/route/108520556/groove-machine-stand,3.0,-1,Boulder,V3,1,8,36.91954,-82.62855
"Arbiter Arête","Arbiter Boulder > Middle Boneyard > Boneyard Area > Grayson Highlands State Park > Southwest Virginia (Appalachia) > Virginia",https://www.mountainproject.com/route/107743193/arbiter-arete,3.0,-1,Boulder,V3,1,15,36.61271,-81.49507
"Justice For All","Justice Roof > Outlaw Area > Picnic Area > Grayson Highlands State Park > Southwest Virginia (Appalachia) > Virginia",https://www.mountainproject.com/route/108273137/justice-for-all,3.0,-1,Boulder,V3,1,10,36.62702,-81.47885
Overdose,"No Humor In Suicide Boulder > McCormick Gap Boulders > South District > Shenandoah National Park > Shenandoah & NW VA Region > Virginia",https://www.mountainproject.com/route/107308509/overdose,3.0,-1,Boulder,V3,1,20,38.23367,-78.73183
"Juijitsu Hold","Burlstain Boulder > Stones > Harkening Hill > Southwest Virginia (Appalachia) > Virginia",https://www.mountainproject.com/route/107427414/juijitsu-hold,3.0,-1,Boulder,V3,1,10,37.46555,-79.60949
"Worth The Squeeze","Squeeze Wall > Fat Man's Squeeze Area > Rhododendron Peak > Rhododendron Gap Bouldering > ~M.R.N.R.A. > Grayson Highlands State Park > Southwest Virginia (Appalachia) > Virginia",https://www.mountainproject.com/route/108020889/worth-the-squeeze,3.0,-1,Boulder,V3,1,20,36.6122,-81.4912
Swallowtail,"Swallow Boulder > Hinterland > Upchurch Area > Picnic Area > Grayson Highlands State Park > Southwest Virginia (Appalachia) > Virginia",https://www.mountainproject.com/route/108189488/swallowtail,3.0,-1,Boulder,V3,1,10,36.6122,-81.4912
"Burkes Garden Roof","Burkes Garden Roof > North Ridge > Burkes Garden > Southwest Virginia (Appalachia) > Virginia",https://www.mountainproject.com/route/108105906/burkes-garden-roof,3.0,-1,Boulder,V3,1,13,37.08461,-81.30223
"Lee Massie","Massie Boulder > Sunset Area > Highlands > Grayson Highlands State Park > Southwest Virginia (Appalachia) > Virginia",https://www.mountainproject.com/route/107635618/lee-massie,3.0,-1,Boulder,V3,1,18,36.6333,-81.5089
"Slim Shady","8 Mile Slab > Pyramid Area > Cascades Bouldering > Southwest Virginia (Appalachia) > Virginia",https://www.mountainproject.com/route/107807731/slim-shady,3.0,-1,Boulder,V3,1,13,37.35505,-80.59643
"Here But Missing","Right of Rock Fence > Mile Post 6.25 Crag > Blue Ridge Parkway > Charlottesville vicinity > Central & Southern VA Region > Virginia",https://www.mountainproject.com/route/107306952/here-but-missing,3.0,-1,Boulder,V3,1,30,37.86878,-79.05932
"Boulder Direct","Bouldergasm > Stones > Harkening Hill > Southwest Virginia (Appalachia) > Virginia",https://www.mountainproject.com/route/107425394/boulder-direct,3.0,-1,Boulder,V3,1,9,37.46555,-79.60949
"Fresh Eyes","Sam's Boulder > Egg Basket > Harkening Hill > Southwest Virginia (Appalachia) > Virginia",https://www.mountainproject.com/route/107438359/fresh-eyes,3.0,-1,Boulder,V3,1,8,37.44958,-79.6162
"The Deed","Devil's Kitchen > Devil's Kitchen > McAfee's Knob > Southwest Virginia (Appalachia) > Virginia",https://www.mountainproject.com/route/107087773/the-deed,2.8,-1,Boulder,V3,1,8,37.39143,-80.03722
"Tragedy Of The Commons","Spray Boulder > Main Boulder Area > Main Boulderfield Area > Bluefield Boulders > Southwest Virginia (Appalachia) > Virginia",https://www.mountainproject.com/route/107273622/tragedy-of-the-commons,3.0,-1,Boulder,V3,1,11,36.65847,-81.53778
Napalm,"Napalm Boulder > 3. Autumn Area > Listening Rock Trail > Grayson Highlands State Park > Southwest Virginia (Appalachia) > Virginia",https://www.mountainproject.com/route/107349304/napalm,3.0,-1,Boulder,V3,1,18,36.62279,-81.50167
"Height School","Arbiter Boulder > Middle Boneyard > Boneyard Area > Grayson Highlands State Park > Southwest Virginia (Appalachia) > Virginia",https://www.mountainproject.com/route/106967785/height-school,3.0,-1,Boulder,V3,1,25,36.61271,-81.49507
"Totally Tuna","Tuna Boulder > 5. Central > Listening Rock Trail > Grayson Highlands State Park > Southwest Virginia (Appalachia) > Virginia",https://www.mountainproject.com/route/107382136/totally-tuna,3.0,-1,Boulder,V3,1,12,36.62279,-81.50167
"Two Face","The Villian's Lair > Drop Area (Horseshoe Area) > Atkins Bouldering > Southwest Virginia (Appalachia) > Virginia",https://www.mountainproject.com/route/106980311/two-face,3.0,-1,Boulder,V3,1,12,36.911,-81.45
"Pitch 15 (aka Shorties Only)","East Wall > Union Station Track Wall > DC & Northern VA Region > Virginia",https://www.mountainproject.com/route/123461578/pitch-15-aka-shorties-only,3.0,-1,Boulder,V3,1,10,38.90322,-77.00369
"Mouse Trap","Slasher Boulder > The Cove > Richmond Vicinity > Central & Southern VA Region > Virginia",https://www.mountainproject.com/route/118866819/mouse-trap,2.6,-1,Boulder,V3,1,13,37.53056,-77.47189
"Knife Party","Big Brother > Lewis Larus Park > Richmond Vicinity > Central & Southern VA Region > Virginia",https://www.mountainproject.com/route/116373728/knife-party,2.7,-1,Boulder,V3,1,18,37.54659,-77.56279
"Right 66","Alum Springs > DC & Northern VA Region > Virginia",https://www.mountainproject.com/route/118861190/right-66,2.8,-1,Boulder,V3,1,10,38.288,-77.4835
"Secret Squirrel","Clandestine Block > Cascadia Area > Cascades Bouldering > Southwest Virginia (Appalachia) > Virginia",https://www.mountainproject.com/route/107531118/secret-squirrel,2.6,-1,Boulder,V3,1,11,37.35369,-80.59625
"Tommy Two","Gumby > The Forest > Blue Ridge Parkway > Charlottesville vicinity > Central & Southern VA Region > Virginia",https://www.mountainproject.com/route/120115404/tommy-two,2.6,-1,Boulder,V3,1,,37.89468,-79.0483
"Coffee Is My Cologne","The Egg Boulder > The Buttermilks > Richmond Vicinity > Central & Southern VA Region > Virginia",https://www.mountainproject.com/route/109849385/coffee-is-my-cologne,2.3,-1,Boulder,V3,1,10,37.52715,-77.48036
"Flake Static SDS","Mickey Mouse Boulders > McAfee's Knob > Southwest Virginia (Appalachia) > Virginia",https://www.mountainproject.com/route/114400348/flake-static-sds,2.5,-1,Boulder,V3,1,10,37.38522,-80.07813
"You take the high road","Crossroads > The Forest > Blue Ridge Parkway > Charlottesville vicinity > Central & Southern VA Region > Virginia",https://www.mountainproject.com/route/118813751/you-take-the-high-road,2.3,-1,Boulder,V3,1,12,37.89525,-79.04718
Elastigirl,"Incredibles Boulder > Rock Point Overlook > Blue Ridge Parkway > Charlottesville vicinity > Central & Southern VA Region > Virginia",https://www.mountainproject.com/route/120239017/elastigirl,2.7,-1,Boulder,V3,1,7,37.93754,-78.94932
"Disney Vacation","Mickey Mouse Boulders > McAfee's Knob > Southwest Virginia (Appalachia) > Virginia",https://www.mountainproject.com/route/116120217/disney-vacation,2.8,-1,Boulder,V3,1,,37.38522,-80.07813
Paganish,"Olympus Boulder > Picnic Area Boulders > Picnic Area > Grayson Highlands State Park > Southwest Virginia (Appalachia) > Virginia",https://www.mountainproject.com/route/106879092/paganish,2.7,-1,Boulder,V3,1,16,36.62727,-81.48103
Unknow,"Boulder 2 > NellysFord > Charlottesville vicinity > Central & Southern VA Region > Virginia",https://www.mountainproject.com/route/108632113/unknow,2.7,-1,Boulder,V3,1,6,37.92046,-78.90358
Hullabaloo,"Trail's End Boulder > 4. Trails End Area > Listening Rock Trail > Grayson Highlands State Park > Southwest Virginia (Appalachia) > Virginia",https://www.mountainproject.com/route/107343948/hullabaloo,2.7,-1,Boulder,V3,1,,36.62279,-81.50167
"Whale's Mouth","The Whale Boulder > The Buttermilks > Richmond Vicinity > Central & Southern VA Region > Virginia",https://www.mountainproject.com/route/109850405/whales-mouth,2.3,-1,Boulder,V3,1,10,37.52574,-77.4784
"Shang-High Hopes","Shanghai Boulder > 2. SLS Area > Listening Rock Trail > Grayson Highlands State Park > Southwest Virginia (Appalachia) > Virginia",https://www.mountainproject.com/route/107362888/shang-high-hopes,2.5,-1,Boulder,V3,1,13,36.62279,-81.50167
"The Eye of Sauron","The Hobbit Hole > The Buttermilks > Richmond Vicinity > Central & Southern VA Region > Virginia",https://www.mountainproject.com/route/109862139/the-eye-of-sauron,2.5,-1,Boulder,V3,1,8,37.52472,-77.47414
"C Note","Cascadia > Cascadia Area > Cascades Bouldering > Southwest Virginia (Appalachia) > Virginia",https://www.mountainproject.com/route/110479971/c-note,2.5,-1,Boulder,V3,1,12,37.35375,-80.59888
"Flake Dyno","Mickey Mouse Boulders > McAfee's Knob > Southwest Virginia (Appalachia) > Virginia",https://www.mountainproject.com/route/107084267/flake-dyno,2.2,-1,Boulder,V3,1,7,37.38522,-80.07813
"Daisy Chain","Plant World Boulder > The Buttermilks > Richmond Vicinity > Central & Southern VA Region > Virginia",https://www.mountainproject.com/route/112462904/daisy-chain,2.6,-1,Boulder,V3,1,10,37.52366,-77.46649
"Lock Smith","SLS Roof > 2. SLS Area > Listening Rock Trail > Grayson Highlands State Park > Southwest Virginia (Appalachia) > Virginia",https://www.mountainproject.com/route/107349025/lock-smith,2.5,-1,Boulder,V3,1,12,36.62279,-81.50167
"Angry Albatross","Vendetta Boulder > The Cove > Richmond Vicinity > Central & Southern VA Region > Virginia",https://www.mountainproject.com/route/116960124/angry-albatross,2.5,-1,Boulder,V3,1,8,37.53056,-77.47189
"Bar Fight","Little Brother > Lewis Larus Park > Richmond Vicinity > Central & Southern VA Region > Virginia",https://www.mountainproject.com/route/118103194/bar-fight,2.4,-1,Boulder,V3,1,10,37.54659,-77.56278
"Space Invaders","Cascadia > Cascadia Area > Cascades Bouldering > Southwest Virginia (Appalachia) > Virginia",https://www.mountainproject.com/route/107459418/space-invaders,2.2,-1,Boulder,V3,1,10,37.35375,-80.59888
"Tall Dark and Beefy","Abyss Wall > 1. Overlook Area > Listening Rock Trail > Grayson Highlands State Park > Southwest Virginia (Appalachia) > Virginia",https://www.mountainproject.com/route/107282550/tall-dark-and-beefy,2.4,-1,Boulder,V3,1,15,36.62279,-81.50167
"Barrel Roll","Mustang Boulder > Rock Point Overlook > Blue Ridge Parkway > Charlottesville vicinity > Central & Southern VA Region > Virginia",https://www.mountainproject.com/route/120546082/barrel-roll,2.4,-1,Boulder,V3,1,12,37.93755,-78.94933
"Will Arete","Cross Country Trail Boulders > DC & Northern VA Region > Virginia",https://www.mountainproject.com/route/118932098/will-arete,2.3,-1,Boulder,V3,1,,38.72644,-77.21585
"Soft Top","The Wedge Boulder > The Beach > Mill Creek > Southwest Virginia (Appalachia) > Virginia",https://www.mountainproject.com/route/118988074/soft-top,2.5,-1,Boulder,V3,1,,37.31351,-80.79541
"Shallow Short Shrift","Magrathea Boulder > Waterfall Area > Mill Creek > Southwest Virginia (Appalachia) > Virginia",https://www.mountainproject.com/route/118988940/shallow-short-shrift,2.5,-1,Boulder,V3,1,,37.30277,-80.79409
Blinky,"Sega Roof Boulder > Genesis > Mill Creek > Southwest Virginia (Appalachia) > Virginia",https://www.mountainproject.com/route/119047186/blinky,2.5,-1,Boulder,V3,1,10,37.30864,-80.79403
"Edge of  Time","Edge Of Time Area > Feral Peak > Rhododendron Gap Bouldering > ~M.R.N.R.A. > Grayson Highlands State Park > Southwest Virginia (Appalachia) > Virginia",https://www.mountainproject.com/route/106483799/edge-of-time,2.5,-1,Boulder,V3,1,20,36.6122,-81.4912
"Scary Mantle","Right Corridor > The Corridor & Beyond > McAfee's Knob > Southwest Virginia (Appalachia) > Virginia",https://www.mountainproject.com/route/107087460/scary-mantle,2.5,-1,Boulder,V3,1,15,37.3801,-80.0898
logarithm,"Huckleberry Boulder > Luminary Area > Haw Orchard > Grayson Highlands State Park > Southwest Virginia (Appalachia) > Virginia",https://www.mountainproject.com/route/107505927/logarithm,2.5,-1,Boulder,V3,1,14,36.6185,-81.48122
"Sidecling Stand","Gumby > The Forest > Blue Ridge Parkway > Charlottesville vicinity > Central & Southern VA Region > Virginia",https://www.mountainproject.com/route/120112568/sidecling-stand,2.0,-1,Boulder,V3,1,,37.89468,-79.0483
"Guide Tennies","Left Fin > Streetside Fins > Picnic Area Boulders > Picnic Area > Grayson Highlands State Park > Southwest Virginia (Appalachia) > Virginia",https://www.mountainproject.com/route/107160572/guide-tennies,2.1,-1,Boulder,V3,1,18,36.62523,-81.48157
"Chakra Blues","The Hidden Temple > The Buttermilks > Richmond Vicinity > Central & Southern VA Region > Virginia",https://www.mountainproject.com/route/121679125/chakra-blues,2.6,-1,Boulder,V3,1,,37.52504,-77.47621
"Skyline Arete","Skyline Boulder > Horizon Area > Highlands > Grayson Highlands State Park > Southwest Virginia (Appalachia) > Virginia",https://www.mountainproject.com/route/106857543/skyline-arete,2.3,-1,Boulder,V3,1,13,36.6409,-81.5056
"call u tonight","Gulf Branch > DC & Northern VA Region > Virginia",https://www.mountainproject.com/route/108466734/call-u-tonight,2.2,-1,Boulder,"V3 PG13",1,20,38.9251,-77.11354
"Smear Tactics","Burlstain Boulder > Stones > Harkening Hill > Southwest Virginia (Appalachia) > Virginia",https://www.mountainproject.com/route/107427381/smear-tactics,2.2,-1,Boulder,V3,1,12,37.46555,-79.60949
Unknown,"Project Boulder > The Belly Boulder Area > McAfee's Knob > Southwest Virginia (Appalachia) > Virginia",https://www.mountainproject.com/route/107084597/unknown,2.3,-1,Boulder,V3,1,8,37.39291,-80.03945
Metamorphosis,"Fire Boulder > Alchemy Area > Contact Station Area > Grayson Highlands State Park > Southwest Virginia (Appalachia) > Virginia",https://www.mountainproject.com/route/106939064/metamorphosis,2.3,-1,Boulder,V3,1,12,36.61245,-81.48092
"Dan's Slant","Gumby > The Forest > Blue Ridge Parkway > Charlottesville vicinity > Central & Southern VA Region > Virginia",https://www.mountainproject.com/route/120115391/dans-slant,2.1,-1,Boulder,V3,1,,37.89468,-79.0483
"Corndog Corner","Picnic Boulder > Picnic Boulder & Block > Picnic Area Boulders > Picnic Area > Grayson Highlands State Park > Southwest Virginia (Appalachia) > Virginia",https://www.mountainproject.com/route/107145748/corndog-corner,2.0,-1,Boulder,V3,1,10,36.62523,-81.48157
"Ronski Feint","Broken Block > Contact Station Boulders > Contact Station Area > Grayson Highlands State Park > Southwest Virginia (Appalachia) > Virginia",https://www.mountainproject.com/route/106906812/ronski-feint,1.9,-1,Boulder,V3,1,8,36.61245,-81.48093
Shrubbery,"Plant World Boulder > The Buttermilks > Richmond Vicinity > Central & Southern VA Region > Virginia",https://www.mountainproject.com/route/112415755/shrubbery,2.2,-1,Boulder,V3,1,8,37.52366,-77.46649
"Blockaid Sit","A.V.P. Boulder > A.V.P. Boulders > Boneyard Area > Grayson Highlands State Park > Southwest Virginia (Appalachia) > Virginia",https://www.mountainproject.com/route/106947245/blockaid-sit,2.0,-1,Boulder,V3,1,12,36.61324,-81.49537
Bushido,"Belly Boulder > The Belly Boulder Area > McAfee's Knob > Southwest Virginia (Appalachia) > Virginia",https://www.mountainproject.com/route/107085355/bushido,2.0,-1,Boulder,V3,1,8,37.3801,-80.0898
"Medicine Man","Rock House Boulder > Picnic Area Boulders > Picnic Area > Grayson Highlands State Park > Southwest Virginia (Appalachia) > Virginia",https://www.mountainproject.com/route/107137298/medicine-man,2.0,-1,Boulder,"V3 PG13",1,7,36.62523,-81.48157
"You're Not Sponsored","Forest Hill Park > Richmond Vicinity > Central & Southern VA Region > Virginia",https://www.mountainproject.com/route/112402676/youre-not-sponsored,2.0,-1,Boulder,V3,1,8,37.51727,-77.47092
"Biker Arête","The Biker Area > The Buttermilks > Richmond Vicinity > Central & Southern VA Region > Virginia",https://www.mountainproject.com/route/109849204/biker-arete,2.0,-1,Boulder,V3,1,10,37.52666,-77.48041
Bipolar,"Bi-Lingual Boulder > 1. Overlook Area > Listening Rock Trail > Grayson Highlands State Park > Southwest Virginia (Appalachia) > Virginia",https://www.mountainproject.com/route/107282499/bipolar,2.0,-1,Boulder,V3,1,8,36.62279,-81.50167
"Horizon Warm-up","Horizon Block > Horizon Area > Highlands > Grayson Highlands State Park > Southwest Virginia (Appalachia) > Virginia",https://www.mountainproject.com/route/106873738/horizon-warm-up,1.8,-1,Boulder,V3,1,8,36.6409,-81.5056
"Chain Ring Tattoo","Bicycle Boulder > Crescent Boulders > Shenandoah & NW VA Region > Virginia",https://www.mountainproject.com/route/119408302/chain-ring-tattoo,2.0,-1,Boulder,V3,1,6,39.13646,-77.84409
"Gator Skin Traverse","The Fortress > Stones > Harkening Hill > Southwest Virginia (Appalachia) > Virginia",https://www.mountainproject.com/route/115683845/gator-skin-traverse,2.0,-1,Boulder,V3,1,15,37.45483,-79.61864
"Blitz and Chitz","Portal Gun Boulder > C-137 Area > Blue Ridge Parkway > Charlottesville vicinity > Central & Southern VA Region > Virginia",https://www.mountainproject.com/route/113957462/blitz-and-chitz,2.0,-1,Boulder,V3,1,,37.91036,-78.97466
"Muddy Fingers","Useful Bridge Boulder > The Beach > Mill Creek > Southwest Virginia (Appalachia) > Virginia",https://www.mountainproject.com/route/118987696/muddy-fingers,2.0,-1,Boulder,V3,1,10,37.31658,-80.79394
"Psycho Slicer","Psycho Boulder > Hinterland > Upchurch Area > Picnic Area > Grayson Highlands State Park > Southwest Virginia (Appalachia) > Virginia",https://www.mountainproject.com/route/117061035/psycho-slicer,2.0,-1,Boulder,V3,1,11,36.6122,-81.4912
Geotek,"Krystal Boulder > Slippery Slope > Mill Creek > Southwest Virginia (Appalachia) > Virginia",https://www.mountainproject.com/route/118988739/geotek,2.0,-1,Boulder,V3,1,,37.30884,-80.79537
"French Press","Java Boulder > Butternut Hill > Mill Creek > Southwest Virginia (Appalachia) > Virginia",https://www.mountainproject.com/route/118988121/french-press,2.5,-1,Boulder,V3,1,,37.31106,-80.79276
Handle,"Teapot Block > Center Darkside > Darkside > (6) Jaybird Gorge > Guest River Gorge > Southwest Virginia (Appalachia) > Virginia",https://www.mountainproject.com/route/118884883/handle,2.0,-1,Boulder,V3,1,6,36.90948,-82.45516
"Heel Fungus","Forest Hill Park > Richmond Vicinity > Central & Southern VA Region > Virginia",https://www.mountainproject.com/route/109860948/heel-fungus,2.0,-1,Boulder,V3,1,10,37.51727,-77.47092
"Fighting Words","Title Fight Boulder > Title Fight Area > Cascades Bouldering > Southwest Virginia (Appalachia) > Virginia",https://www.mountainproject.com/route/107542522/fighting-words,2.0,-1,Boulder,V3,1,12,37.35999,-80.58823
"Outlaw Arete","Outlaw Boulder > Outlaw Area > Picnic Area > Grayson Highlands State Park > Southwest Virginia (Appalachia) > Virginia",https://www.mountainproject.com/route/108270439/outlaw-arete,2.0,-1,Boulder,V3,1,9,36.62702,-81.47885
"Squeeze with Ease","Contrast Boulder > Contrast Area > Cascades Bouldering > Southwest Virginia (Appalachia) > Virginia",https://www.mountainproject.com/route/107558181/squeeze-with-ease,2.0,-1,Boulder,V3,1,13,37.35931,-80.58918
"Meat Maker","Meat Boulder > Upper Deck > Harkening Hill > Southwest Virginia (Appalachia) > Virginia",https://www.mountainproject.com/route/107453292/meat-maker,2.0,-1,Boulder,V3,1,3,37.4555,-79.6196
"Eye On The Ball","Right Corridor > The Corridor & Beyond > McAfee's Knob > Southwest Virginia (Appalachia) > Virginia",https://www.mountainproject.com/route/107087485/eye-on-the-ball,2.0,-1,Boulder,V3,1,12,37.3801,-80.0898
"Three's a Crowd","Lonely Boulder > Lonely Cluster > Highlands > Grayson Highlands State Park > Southwest Virginia (Appalachia) > Virginia",https://www.mountainproject.com/route/106936833/threes-a-crowd,2.0,-1,Boulder,V3,1,9,36.6333,-81.5089
"Double Helix","Constant Boulder > Right Boneyard > Boneyard Area > Grayson Highlands State Park > Southwest Virginia (Appalachia) > Virginia",https://www.mountainproject.com/route/107063228/double-helix,2.0,-1,Boulder,V3,1,8,36.61272,-81.49442
1961,"Spy vs. Spy Area > Drop Area (Horseshoe Area) > Atkins Bouldering > Southwest Virginia (Appalachia) > Virginia",https://www.mountainproject.com/route/106979628/1961,2.0,-1,Boulder,V3,1,,36.911,-81.45
"Lever 2000","Flat Top > Right Boneyard > Boneyard Area > Grayson Highlands State Park > Southwest Virginia (Appalachia) > Virginia",https://www.mountainproject.com/route/106771680/lever-2000,2.0,-1,Boulder,V3,1,8,36.61272,-81.49442
Guit-Jo,"Flat Top > Right Boneyard > Boneyard Area > Grayson Highlands State Park > Southwest Virginia (Appalachia) > Virginia",https://www.mountainproject.com/route/106771725/guit-jo,2.0,-1,Boulder,V3,1,10,36.61272,-81.49442
"Faulty Wiring","Benchside Express Boulder > Heyward Community Forest > Charlottesville vicinity > Central & Southern VA Region > Virginia",https://www.mountainproject.com/route/122016895/faulty-wiring,2.0,-1,Boulder,V3,1,,38.0288,-78.55449
"Starry night","Hard boiled egg > Hard boiled egg area > Bouldering > Old Rag > Shenandoah National Park > Shenandoah & NW VA Region > Virginia",https://www.mountainproject.com/route/112422146/starry-night,2.0,-1,Boulder,V3,1,,38.56294,-78.3261
"Nyan cat","Cat scratch overhang > Bear cave area > Bouldering > Old Rag > Shenandoah National Park > Shenandoah & NW VA Region > Virginia",https://www.mountainproject.com/route/114009892/nyan-cat,2.0,-1,Boulder,V3,1,8,38.55137,-78.30283
"Something to do with cats","Cat scratch overhang > Bear cave area > Bouldering > Old Rag > Shenandoah National Park > Shenandoah & NW VA Region > Virginia",https://www.mountainproject.com/route/114009935/something-to-do-with-cats,2.0,-1,Boulder,V3,1,,38.55137,-78.30283
"Mini Roadside Right","Roadside > McAfee's Knob > Southwest Virginia (Appalachia) > Virginia",https://www.mountainproject.com/route/114249501/mini-roadside-right,1.8,-1,Boulder,V3,1,,37.3804,-80.0899
Railroaded,"The Biker Area > The Buttermilks > Richmond Vicinity > Central & Southern VA Region > Virginia",https://www.mountainproject.com/route/118244095/railroaded,2.0,-1,Boulder,V3,1,10,37.52666,-77.48041
"Candy Flip","Fiesta Boulder > Blue Ridge Parkway > Charlottesville vicinity > Central & Southern VA Region > Virginia",https://www.mountainproject.com/route/121846225/candy-flip,2.0,-1,Boulder,V3,1,,37.94868,-78.9134
"Shoulda Been A Cowboy","Piney Hive Boulder > Blue Ridge Rail Way Trail > Amherst County > Central & Southern VA Region > Virginia",https://www.mountainproject.com/route/118562862/shoulda-been-a-cowboy,2.0,-1,Boulder,V3,1,12,37.69846,-78.99096
"Bomb Voyage","Incredibles Boulder > Rock Point Overlook > Blue Ridge Parkway > Charlottesville vicinity > Central & Southern VA Region > Virginia",https://www.mountainproject.com/route/120239048/bomb-voyage,2.0,-1,Boulder,V3,1,7,37.93754,-78.94932
"Stair Way To Heaven","Piney Hive Boulder > Blue Ridge Rail Way Trail > Amherst County > Central & Southern VA Region > Virginia",https://www.mountainproject.com/route/118562883/stair-way-to-heaven,2.0,-1,Boulder,V3,1,12,37.69846,-78.99096
Flunky,"Spring Break Boulder > Camp Branch Trail > Breaks Bouldering > Breaks Interstate Park > Southwest Virginia (Appalachia) > Virginia",https://www.mountainproject.com/route/116757111/flunky,2.0,-1,Boulder,V3,1,9,37.27469,-82.29633
"Center Crimper Prob","Highball Boulders > McAfee's Knob > Southwest Virginia (Appalachia) > Virginia",https://www.mountainproject.com/route/118678794/center-crimper-prob,2.0,-1,Boulder,V3,1,,37.38747,-80.07134
Greypoint,"Pride Rock > Bloodroot Bouldering > Dripping Rock Bouldering > Blue Ridge Parkway > Charlottesville vicinity > Central & Southern VA Region > Virginia",https://www.mountainproject.com/route/118724947/greypoint,2.0,-1,Boulder,V3,1,12,37.92897,-78.9629
Amblypygi,"End of the Line Area > Crescent Boulders > Shenandoah & NW VA Region > Virginia",https://www.mountainproject.com/route/120510356/amblypygi,2.0,-1,Boulder,V3,1,5,39.13733,-77.84383
[Redacted],"[Redacted] > Bouldering > White Oak Canyon > Shenandoah National Park > Shenandoah & NW VA Region > Virginia",https://www.mountainproject.com/route/118664220/redacted,2.0,-1,Boulder,V3,1,,38.62307,-78.31324
Jumanji,"Jungle Block > Center Lightside Bouldering > Center Lightside > Lightside > (6) Jaybird Gorge > Guest River Gorge > Southwest Virginia (Appalachia) > Virginia",https://www.mountainproject.com/route/122191291/jumanji,2.0,-1,Boulder,V3,1,10,36.89937,-82.4186
"Late For School","Chester Boulder > 3 Eggheads > Lesesne State Forest > Charlottesville vicinity > Central & Southern VA Region > Virginia",https://www.mountainproject.com/route/122017128/late-for-school,2.0,-1,Boulder,V3,1,,37.84097,-78.97818
Noma,"Yesma Boulder > Bouldering > White Oak Canyon > Shenandoah National Park > Shenandoah & NW VA Region > Virginia",https://www.mountainproject.com/route/118656403/noma,2.0,-1,Boulder,V3,1,,38.62307,-78.31324
"Flying Circus","Neon Boulder > Bouldering > White Oak Canyon > Shenandoah National Park > Shenandoah & NW VA Region > Virginia",https://www.mountainproject.com/route/118656454/flying-circus,2.0,-1,Boulder,V3,1,,38.62307,-78.31324
"Golden Globe","Neon Boulder > Bouldering > White Oak Canyon > Shenandoah National Park > Shenandoah & NW VA Region > Virginia",https://www.mountainproject.com/route/118664572/golden-globe,2.0,-1,Boulder,V3,1,,38.62307,-78.31324
"Day Man","Always Sunny Block > Bridge Climbing (Three Amigos) > Spooky Rocks > Keelowkee Lake > HKL West > High Knob Landform > Southwest Virginia (Appalachia) > Virginia",https://www.mountainproject.com/route/121416063/day-man,2.0,-1,Boulder,V3,1,10,36.91842,-82.64315
"Down the Kuma","Kuma Area > Crescent Boulders > Shenandoah & NW VA Region > Virginia",https://www.mountainproject.com/route/120254802/down-the-kuma,2.0,-1,Boulder,V3,1,11,39.13684,-77.84439
One,"Topout Boulder > Bouldering > White Oak Canyon > Shenandoah National Park > Shenandoah & NW VA Region > Virginia",https://www.mountainproject.com/route/118656550/one,2.0,-1,Boulder,V3,1,,38.62307,-78.31324
"Silver Back","Jungle Block > Center Lightside Bouldering > Center Lightside > Lightside > (6) Jaybird Gorge > Guest River Gorge > Southwest Virginia (Appalachia) > Virginia",https://www.mountainproject.com/route/116556618/silver-back,2.0,-1,Boulder,V3,1,10,36.89937,-82.4186
"Lightning Strike","Lightning Boulder > The Buttermilks > Richmond Vicinity > Central & Southern VA Region > Virginia",https://www.mountainproject.com/route/113746552/lightning-strike,2.0,-1,Boulder,V3,1,10,37.52799,-77.48341
"Juice Jam","Juice Boulder > Widow Area > Mile 1 Boulders > (1) Mile One > Guest River Gorge > Southwest Virginia (Appalachia) > Virginia",https://www.mountainproject.com/route/116754603/juice-jam,2.0,-1,Boulder,V3,1,9,36.90072,-82.4212
Two,"Topout Boulder > Bouldering > White Oak Canyon > Shenandoah National Park > Shenandoah & NW VA Region > Virginia",https://www.mountainproject.com/route/118656555/two,2.0,-1,Boulder,V3,1,,38.62307,-78.31324
"Need a Map","East AT Trail Boulders > Dripping Rock Bouldering > Blue Ridge Parkway > Charlottesville vicinity > Central & Southern VA Region > Virginia",https://www.mountainproject.com/route/120022443/need-a-map,2.0,-1,Boulder,V3,1,15,37.93027,-78.95872
"Toast to Honor","Island Boulder > Moonstone Area > Mile 1 Boulders > (1) Mile One > Guest River Gorge > Southwest Virginia (Appalachia) > Virginia",https://www.mountainproject.com/route/119774496/toast-to-honor,2.0,-1,Boulder,V3,1,11,36.90072,-82.42117
"Put on some Slacks, Loser!","Clamber Boulder > Upper Deck > Harkening Hill > Southwest Virginia (Appalachia) > Virginia",https://www.mountainproject.com/route/116650375/put-on-some-slacks-loser,2.0,-1,Boulder,V3,1,15,37.45569,-79.62032
"Scent of Light","Spectrum Boulder > Lower Lightside Bouldering > Lower Lightside > Lightside > (6) Jaybird Gorge > Guest River Gorge > Southwest Virginia (Appalachia) > Virginia",https://www.mountainproject.com/route/116643480/scent-of-light,2.0,-1,Boulder,V3,1,12,36.89937,-82.41859
"Low Hanging Fruit","Jolly Green Giant Boulder > Waterfall Area > Mill Creek > Southwest Virginia (Appalachia) > Virginia",https://www.mountainproject.com/route/118988866/low-hanging-fruit,2.0,-1,Boulder,V3,1,,37.30244,-80.79495
"Strike a Match","Trailtop Block > Inner Circle > Harkening Hill > Southwest Virginia (Appalachia) > Virginia",https://www.mountainproject.com/route/118020464/strike-a-match,2.0,-1,Boulder,V3,1,12,37.45597,-79.61945
"Nuclear Arete","Nucleus Boulder > Inner Circle > Harkening Hill > Southwest Virginia (Appalachia) > Virginia",https://www.mountainproject.com/route/118020337/nuclear-arete,2.0,-1,Boulder,V3,1,12,37.45596,-79.61936
Centurion,"Mausoleum Boulder > Upper Lightside Bouldering > Upper Lightside > Lightside > (6) Jaybird Gorge > Guest River Gorge > Southwest Virginia (Appalachia) > Virginia",https://www.mountainproject.com/route/116715858/centurion,2.0,-1,Boulder,V3,1,10,36.89939,-82.41867
"Fall Creek Falls","Low Creek Boulder > Upper Lightside Bouldering > Upper Lightside > Lightside > (6) Jaybird Gorge > Guest River Gorge > Southwest Virginia (Appalachia) > Virginia",https://www.mountainproject.com/route/118077353/fall-creek-falls,2.0,-1,Boulder,V3,1,10,36.89937,-82.41861
"Of Course of Quartz   -----AKA----- Beef Steak  ------AKA------- Marshall's Brand New Hot Tub","Long Wall > Hemlock Grove > Bearpen Boulders > ~M.R.N.R.A. > Grayson Highlands State Park > Southwest Virginia (Appalachia) > Virginia",https://www.mountainproject.com/route/120841490/of-course-of-quartz-aka-beef-steak-aka-marshalls-brand-new-hot-tub,2.0,-1,Boulder,V3,1,12,36.62156,-81.5111
"Pearly Gates","Mausoleum Boulder > Upper Lightside Bouldering > Upper Lightside > Lightside > (6) Jaybird Gorge > Guest River Gorge > Southwest Virginia (Appalachia) > Virginia",https://www.mountainproject.com/route/116715836/pearly-gates,2.0,-1,Boulder,V3,1,10,36.89939,-82.41867
"Fun Dip","Fun Wall > Turkey Area > Cliff Mountain Boulders > HKL West > High Knob Landform > Southwest Virginia (Appalachia) > Virginia",https://www.mountainproject.com/route/117728699/fun-dip,2.0,-1,Boulder,V3,1,13,36.78811,-82.78695
"Ambush Arete","Ambush Roof > North Ridge > Burkes Garden > Southwest Virginia (Appalachia) > Virginia",https://www.mountainproject.com/route/114958011/ambush-arete,2.0,-1,Boulder,V3,1,10,37.07815,-81.30309
"Fools Gold","Gold Boulder > Main Wall (Spooky) > Spooky Rocks > Keelowkee Lake > HKL West > High Knob Landform > Southwest Virginia (Appalachia) > Virginia",https://www.mountainproject.com/route/118770287/fools-gold,2.0,-1,Boulder,V3,1,9,36.91842,-82.64318
"Hanging Beneath the Nightmare (Extended)","Walls of Time Boulder > Borderline Boulders > P.A. Byrom Park > Charlottesville vicinity > Central & Southern VA Region > Virginia",https://www.mountainproject.com/route/118664058/hanging-beneath-the-nightmare-extended,2.0,-1,Boulder,V3,1,12,38.22089,-78.6494
"Forever People","Super Block > Lower Lightside Bouldering > Lower Lightside > Lightside > (6) Jaybird Gorge > Guest River Gorge > Southwest Virginia (Appalachia) > Virginia",https://www.mountainproject.com/route/116663396/forever-people,2.0,-1,Boulder,V3,1,9,36.89937,-82.4186
"Juicy Juice","Juice Boulder > Widow Area > Mile 1 Boulders > (1) Mile One > Guest River Gorge > Southwest Virginia (Appalachia) > Virginia",https://www.mountainproject.com/route/116754612/juicy-juice,2.0,-1,Boulder,V3,1,9,36.90072,-82.4212
"Ocean (Beta) Spray","Juice Boulder > Widow Area > Mile 1 Boulders > (1) Mile One > Guest River Gorge > Southwest Virginia (Appalachia) > Virginia",https://www.mountainproject.com/route/116754620/ocean-beta-spray,2.0,-1,Boulder,V3,1,9,36.90072,-82.4212
Tongue-Tied,"Silent Boulder > Boulder Garden > Mile Two Boulders > (2) Mile Two > Guest River Gorge > Southwest Virginia (Appalachia) > Virginia",https://www.mountainproject.com/route/117894273/tongue-tied,2.0,-1,Boulder,V3,1,12,36.90031,-82.41947
"Beard Oil","Redbeard > Forge Area > Forge Mountain > Goshen Pass > Charlottesville vicinity > Central & Southern VA Region > Virginia",https://www.mountainproject.com/route/119503506/beard-oil,2.0,-1,Boulder,V3,1,8,37.93782,-79.46475
"Happy Days","Shade Boulder > Center Darkside > Darkside > (6) Jaybird Gorge > Guest River Gorge > Southwest Virginia (Appalachia) > Virginia",https://www.mountainproject.com/route/119942497/happy-days,2.0,-1,Boulder,V3,1,10,36.90567,-82.31364
"Hateful Wave","Wave Block > Center Darkside > Darkside > (6) Jaybird Gorge > Guest River Gorge > Southwest Virginia (Appalachia) > Virginia",https://www.mountainproject.com/route/118637344/hateful-wave,2.0,-1,Boulder,V3,1,10,36.90948,-82.45516
"Catch Me Outside","Catch Boulder > Wild Wood > Haw Orchard > Grayson Highlands State Park > Southwest Virginia (Appalachia) > Virginia",https://www.mountainproject.com/route/120825971/catch-me-outside,2.0,-1,Boulder,V3,1,9,36.6185,-81.48122
"Altered Beast","Mausoleum Boulder > Upper Lightside Bouldering > Upper Lightside > Lightside > (6) Jaybird Gorge > Guest River Gorge > Southwest Virginia (Appalachia) > Virginia",https://www.mountainproject.com/route/115446833/altered-beast,2.0,-1,Boulder,V3,1,10,36.89939,-82.41867
"Cripple Creek","Low Creek Boulder > Upper Lightside Bouldering > Upper Lightside > Lightside > (6) Jaybird Gorge > Guest River Gorge > Southwest Virginia (Appalachia) > Virginia",https://www.mountainproject.com/route/118077414/cripple-creek,2.0,-1,Boulder,V3,1,10,36.89937,-82.41861
"Over Seasons","Passage Boulder > Center Darkside > Darkside > (6) Jaybird Gorge > Guest River Gorge > Southwest Virginia (Appalachia) > Virginia",https://www.mountainproject.com/route/119909908/over-seasons,2.0,-1,Boulder,V3,1,11,36.90948,-82.45516
"Drowning the Shamrock","Irish Block > Lower Lightside Bouldering > Lower Lightside > Lightside > (6) Jaybird Gorge > Guest River Gorge > Southwest Virginia (Appalachia) > Virginia",https://www.mountainproject.com/route/116614708/drowning-the-shamrock,2.0,-1,Boulder,V3,1,11,36.89937,-82.4186
"Molly Chomper","Chomper Boulder > Briar Patch Boulders > Bearpen Boulders > ~M.R.N.R.A. > Grayson Highlands State Park > Southwest Virginia (Appalachia) > Virginia",https://www.mountainproject.com/route/117120619/molly-chomper,2.0,-1,Boulder,V3,1,15,36.62156,-81.51111
Fortification,"Moat Block > Moonstone Area > Mile 1 Boulders > (1) Mile One > Guest River Gorge > Southwest Virginia (Appalachia) > Virginia",https://www.mountainproject.com/route/119774685/fortification,2.0,-1,Boulder,V3,1,10,36.90072,-82.42117
"Side Bench","Side Bench Boulder > Bench Boulders > Casablanca Area > Mile Two Boulders > (2) Mile Two > Guest River Gorge > Southwest Virginia (Appalachia) > Virginia",https://www.mountainproject.com/route/117833081/side-bench,2.0,-1,Boulder,V3,1,10,36.90239,-82.41947
"Smooth Slab","Smooth Block > Foundation Boulders > Bearpen Boulders > ~M.R.N.R.A. > Grayson Highlands State Park > Southwest Virginia (Appalachia) > Virginia",https://www.mountainproject.com/route/119510896/smooth-slab,2.0,-1,Boulder,V3,1,9,36.62156,-81.51111
"Light Bringer","Light Boulder > Flowstones > Bearpen Boulders > ~M.R.N.R.A. > Grayson Highlands State Park > Southwest Virginia (Appalachia) > Virginia",https://www.mountainproject.com/route/119094238/light-bringer,2.0,-1,Boulder,V3,1,10,36.62156,-81.51111
"Very Good Arete","Very Good Block > Turtle Area > Cliff Mountain Boulders > HKL West > High Knob Landform > Southwest Virginia (Appalachia) > Virginia",https://www.mountainproject.com/route/117727952/very-good-arete,2.0,-1,Boulder,V3,1,9,36.78702,-82.78808
Decaf,"Java Boulder > Butternut Hill > Mill Creek > Southwest Virginia (Appalachia) > Virginia",https://www.mountainproject.com/route/118988180/decaf,2.0,-1,Boulder,V3,1,,37.31106,-80.79276
"Side Dish","A La Carte Block > Upper Lightside Bouldering > Upper Lightside > Lightside > (6) Jaybird Gorge > Guest River Gorge > Southwest Virginia (Appalachia) > Virginia",https://www.mountainproject.com/route/116566549/side-dish,2.0,-1,Boulder,V3,1,8,36.91865,-82.44641
"National Average","Nation Boulder > Jaybird Spur > Lower Darkside > Darkside > (6) Jaybird Gorge > Guest River Gorge > Southwest Virginia (Appalachia) > Virginia",https://www.mountainproject.com/route/118638089/national-average,2.0,-1,Boulder,V3,1,10,36.9162,-82.44558
"Paddy Wagon","Police Boulder > Around The Bend (Jasper) > Spooky Rocks > Keelowkee Lake > HKL West > High Knob Landform > Southwest Virginia (Appalachia) > Virginia",https://www.mountainproject.com/route/118769979/paddy-wagon,2.0,-1,Boulder,V3,1,18,36.91842,-82.64317
"Ten Thousand Leagues","League Boulder > Recluse Area > Bearpen Boulders > ~M.R.N.R.A. > Grayson Highlands State Park > Southwest Virginia (Appalachia) > Virginia",https://www.mountainproject.com/route/119155205/ten-thousand-leagues,2.0,-1,Boulder,V3,1,11,36.62156,-81.51111
"Palenque Left","Cockfight Boulder > Widow Area > Mile 1 Boulders > (1) Mile One > Guest River Gorge > Southwest Virginia (Appalachia) > Virginia",https://www.mountainproject.com/route/120430003/palenque-left,2.0,-1,Boulder,V3,1,12,36.90073,-82.42119
"Drop Your Weapon","Police Boulder > Around The Bend (Jasper) > Spooky Rocks > Keelowkee Lake > HKL West > High Knob Landform > Southwest Virginia (Appalachia) > Virginia",https://www.mountainproject.com/route/118752942/drop-your-weapon,2.0,-1,Boulder,V3,1,10,36.91842,-82.64317
"Fishing Line","Great Outdoors Boulder > Timber Boulders > Lower Darkside > Darkside > (6) Jaybird Gorge > Guest River Gorge > Southwest Virginia (Appalachia) > Virginia",https://www.mountainproject.com/route/118250686/fishing-line,2.0,-1,Boulder,V3,1,9,36.90949,-82.45516
"Hourglass Crack","Ironside Boulder > Main Wall (Spooky) > Spooky Rocks > Keelowkee Lake > HKL West > High Knob Landform > Southwest Virginia (Appalachia) > Virginia",https://www.mountainproject.com/route/118723278/hourglass-crack,2.0,-1,Boulder,V3,1,10,36.91842,-82.64318
"The Downclimb","Mausoleum Boulder > Upper Lightside Bouldering > Upper Lightside > Lightside > (6) Jaybird Gorge > Guest River Gorge > Southwest Virginia (Appalachia) > Virginia",https://www.mountainproject.com/route/117061086/the-downclimb,2.0,-1,Boulder,V3,1,9,36.89939,-82.41867
"Easy Gate","Gatekeeper Boulder > Lower Lightside Bouldering > Lower Lightside > Lightside > (6) Jaybird Gorge > Guest River Gorge > Southwest Virginia (Appalachia) > Virginia",https://www.mountainproject.com/route/122191449/easy-gate,2.0,-1,Boulder,V3,1,15,36.89937,-82.41859
"Elmer Fudd","Great Outdoors Boulder > Timber Boulders > Lower Darkside > Darkside > (6) Jaybird Gorge > Guest River Gorge > Southwest Virginia (Appalachia) > Virginia",https://www.mountainproject.com/route/118250636/elmer-fudd,2.0,-1,Boulder,V3,1,9,36.90949,-82.45516
"Lost World","Lost World Boulder > Right Blasters > Blaster Blocks > Keelowkee Lake > HKL West > High Knob Landform > Southwest Virginia (Appalachia) > Virginia",https://www.mountainproject.com/route/120536753/lost-world,2.0,-1,Boulder,V3,1,11,36.91775,-82.64658
"Double Trouble","Truffle Boulder > Sharp Block (Standards) > Spooky Rocks > Keelowkee Lake > HKL West > High Knob Landform > Southwest Virginia (Appalachia) > Virginia",https://www.mountainproject.com/route/118806305/double-trouble,2.0,-1,Boulder,V3,1,12,36.91842,-82.64316
"Cheap Champagne","New Year's Boulder > Afton Mountain Bouldering > Shenandoah National Park > Shenandoah & NW VA Region > Virginia",https://www.mountainproject.com/route/110385729/cheap-champagne,2.0,-1,Boulder,V3,1,20,38.0451,-78.84534
Tombslab,"Tombstone Block > Flowstones > Bearpen Boulders > ~M.R.N.R.A. > Grayson Highlands State Park > Southwest Virginia (Appalachia) > Virginia",https://www.mountainproject.com/route/120886757/tombslab,2.0,-1,Boulder,V3,1,,36.62156,-81.51111
"Tree Hug","Hooligan Boulder > Right Blasters > Blaster Blocks > Keelowkee Lake > HKL West > High Knob Landform > Southwest Virginia (Appalachia) > Virginia",https://www.mountainproject.com/route/120536627/tree-hug,2.0,-1,Boulder,V3,1,10,36.91727,-82.64656
"Boom Boom Arete","Shotgun Boulder > Upper Lightside Bouldering > Upper Lightside > Lightside > (6) Jaybird Gorge > Guest River Gorge > Southwest Virginia (Appalachia) > Virginia",https://www.mountainproject.com/route/120537145/boom-boom-arete,2.0,-1,Boulder,V3,1,10,36.89939,-82.41864
"Solid Oak Arête","Timber Boulder > Timber Boulders > Lower Darkside > Darkside > (6) Jaybird Gorge > Guest River Gorge > Southwest Virginia (Appalachia) > Virginia",https://www.mountainproject.com/route/118237264/solid-oak-arete,2.0,-1,Boulder,V3,1,12,36.90949,-82.45516
"Tit Resistance","Rock Lobster Block > Casablanca Boulders > Casablanca Area > Mile Two Boulders > (2) Mile Two > Guest River Gorge > Southwest Virginia (Appalachia) > Virginia",https://www.mountainproject.com/route/115419971/tit-resistance,2.0,-1,Boulder,V3,1,10,36.91918,-82.41947
"Cast Iron Compression","Skillet Boulder > Around The Bend (Jasper) > Spooky Rocks > Keelowkee Lake > HKL West > High Knob Landform > Southwest Virginia (Appalachia) > Virginia",https://www.mountainproject.com/route/118752128/cast-iron-compression,2.0,-1,Boulder,V3,1,11,36.91842,-82.64317
"Dry County","Whiskey Boulder > Widow Area > Mile 1 Boulders > (1) Mile One > Guest River Gorge > Southwest Virginia (Appalachia) > Virginia",https://www.mountainproject.com/route/117990880/dry-county,2.0,-1,Boulder,V3,1,9,36.90072,-82.4212
"Old Elk","Elk Boulder > Bad Boulders > (7) Jaybird Mountain > Guest River Gorge > Southwest Virginia (Appalachia) > Virginia",https://www.mountainproject.com/route/120376710/old-elk,2.0,-1,Boulder,V3,1,10,36.89932,-82.41875
"Hotsauce Stand","Thunderbolt Boulder > Gasland > Upper Darkside > Darkside > (6) Jaybird Gorge > Guest River Gorge > Southwest Virginia (Appalachia) > Virginia",https://www.mountainproject.com/route/115572277/hotsauce-stand,2.0,-1,Boulder,V3,1,10,36.89955,-82.41887
"Pressure Seal","Cellar Roof > North Ridge > Burkes Garden > Southwest Virginia (Appalachia) > Virginia",https://www.mountainproject.com/route/115146551/pressure-seal,2.0,-1,Boulder,V3,1,12,37.07854,-81.3037
"Standing Declaration","Standard Boulder > Sharp Block (Standards) > Spooky Rocks > Keelowkee Lake > HKL West > High Knob Landform > Southwest Virginia (Appalachia) > Virginia",https://www.mountainproject.com/route/118806156/standing-declaration,2.0,-1,Boulder,V3,1,11,36.91842,-82.64316
"Party Business","Short Large Block > Center Lightside Bouldering > Center Lightside > Lightside > (6) Jaybird Gorge > Guest River Gorge > Southwest Virginia (Appalachia) > Virginia",https://www.mountainproject.com/route/115420634/party-business,2.0,-1,Boulder,V3,1,9,36.89937,-82.4186
Calf-a-Nated,"Caffeine Block > Left Blasters > Blaster Blocks > Keelowkee Lake > HKL West > High Knob Landform > Southwest Virginia (Appalachia) > Virginia",https://www.mountainproject.com/route/122060739/calf-a-nated,2.0,-1,Boulder,V3,1,8,36.91727,-82.64656
"Mad Arete Left","Madness Boulder > Hinterland > Upchurch Area > Picnic Area > Grayson Highlands State Park > Southwest Virginia (Appalachia) > Virginia",https://www.mountainproject.com/route/114580454/mad-arete-left,2.0,-1,Boulder,V3,1,11,36.6122,-81.4912
Pride,"Pride Boulder > Labyrinth > HKL East > High Knob Landform > Southwest Virginia (Appalachia) > Virginia",https://www.mountainproject.com/route/122060508/pride,2.0,-1,Boulder,V3,1,9,36.91877,-82.6276
Framed,"Gallery Boulder > Center Lightside Bouldering > Center Lightside > Lightside > (6) Jaybird Gorge > Guest River Gorge > Southwest Virginia (Appalachia) > Virginia",https://www.mountainproject.com/route/114144569/framed,2.0,-1,Boulder,V3,1,15,36.89937,-82.4186
Impact,"Haunted Boulder > Upper Lightside Bouldering > Upper Lightside > Lightside > (6) Jaybird Gorge > Guest River Gorge > Southwest Virginia (Appalachia) > Virginia",https://www.mountainproject.com/route/114041457/impact,2.0,-1,Boulder,V3,1,10,36.89942,-82.41864
"Right Ventricle","Heart Boulder > Gasland > Upper Darkside > Darkside > (6) Jaybird Gorge > Guest River Gorge > Southwest Virginia (Appalachia) > Virginia",https://www.mountainproject.com/route/113886364/right-ventricle,2.0,-1,Boulder,V3,1,10,36.89935,-82.41877
"Lucky Boy","Dream Boulder > Back of Beyond > Haw Orchard > Grayson Highlands State Park > Southwest Virginia (Appalachia) > Virginia",https://www.mountainproject.com/route/113659957/lucky-boy,2.0,-1,Boulder,V3,1,13,36.62346,-81.47665
"Saddle Up","Balanced Rock > Balanced Rock Boulders > Clear Creek > HKL East > High Knob Landform > Southwest Virginia (Appalachia) > Virginia",https://www.mountainproject.com/route/113498940/saddle-up,2.0,-1,Boulder,V3,1,20,36.91903,-82.62518
"Campus Corner","Campus Roof > Balanced Rock Boulders > Clear Creek > HKL East > High Knob Landform > Southwest Virginia (Appalachia) > Virginia",https://www.mountainproject.com/route/113390812/campus-corner,2.0,-1,Boulder,V3,1,6,36.91985,-82.62518
Tombstone,"Settler Boulder > Spring Ridge Boulders > Picnic Area > Grayson Highlands State Park > Southwest Virginia (Appalachia) > Virginia",https://www.mountainproject.com/route/113228714/tombstone,2.0,-1,Boulder,V3,1,8,36.62785,-81.48208
"Bear Ape","Bear Ape Wall > Balanced Rock Boulders > Clear Creek > HKL East > High Knob Landform > Southwest Virginia (Appalachia) > Virginia",https://www.mountainproject.com/route/113499083/bear-ape,2.0,-1,Boulder,V3,1,11,36.91789,-82.62015
"A Long Time From Now","Spring Boulder > Spring Ridge Boulders > Picnic Area > Grayson Highlands State Park > Southwest Virginia (Appalachia) > Virginia",https://www.mountainproject.com/route/113228931/a-long-time-from-now,2.0,-1,Boulder,V3,1,8,36.62785,-81.48208
"Dangerous Summer (Stand)","Hemingway Boulder > Hemingway Boulders > Bearpen Boulders > ~M.R.N.R.A. > Grayson Highlands State Park > Southwest Virginia (Appalachia) > Virginia",https://www.mountainproject.com/route/113138783/dangerous-summer-stand,2.0,-1,Boulder,V3,1,8,36.62171,-81.51197
"Red Rose Life","Bouldering > Humpback Rock Picnic Area > Blue Ridge Parkway > Charlottesville vicinity > Central & Southern VA Region > Virginia",https://www.mountainproject.com/route/109896712/red-rose-life,2.0,-1,Boulder,V3,1,,37.94465,-78.92955
"Death Roof (Extension Exit)","Death Roof > Night Vale Area > Mile 3 Boulders > (3) Mile Three > Guest River Gorge > Southwest Virginia (Appalachia) > Virginia",https://www.mountainproject.com/route/112265748/death-roof-extension-exit,2.0,-1,Boulder,V3,1,16,36.8995,-82.42126
"Fire Alarm","Firehouse Boulder (Ridgeline) > The Forest > Blue Ridge Parkway > Charlottesville vicinity > Central & Southern VA Region > Virginia",https://www.mountainproject.com/route/122887185/fire-alarm,2.0,-1,Boulder,V3,1,10,37.89391,-79.04441
"Down & Out","Casino Boulder > Stock Blocks > Keelowkee Lake > HKL West > High Knob Landform > Southwest Virginia (Appalachia) > Virginia",https://www.mountainproject.com/route/123088314/down-out,2.0,-1,Boulder,V3,1,10,36.85592,-82.86416
"Teach Me How To Dougie","Crystalight Boulder > Labyrinth > HKL East > High Knob Landform > Southwest Virginia (Appalachia) > Virginia",https://www.mountainproject.com/route/109303310/teach-me-how-to-dougie,2.5,-1,Boulder,V3,1,17,36.9097,-82.6302
"Turbo Cougar","Craft Boulder > New Boneyard > Boneyard Area > Grayson Highlands State Park > Southwest Virginia (Appalachia) > Virginia",https://www.mountainproject.com/route/109458493/turbo-cougar,2.0,-1,Boulder,V3,1,12,36.61272,-81.49442
"Pray Hard","Pray Block > Pavilion Area > Flag Rock Bouldering > Flag Rock > HKL East > High Knob Landform > Southwest Virginia (Appalachia) > Virginia",https://www.mountainproject.com/route/108294266/pray-hard,2.0,-1,Boulder,V3,1,9,36.9193,-82.6269
Reign,"Royal Block > Outlaw Area > Picnic Area > Grayson Highlands State Park > Southwest Virginia (Appalachia) > Virginia",https://www.mountainproject.com/route/109606631/reign,2.0,-1,Boulder,V3,1,8,36.92023,-81.38134
"Right Highball","Highball Boulders > McAfee's Knob > Southwest Virginia (Appalachia) > Virginia",https://www.mountainproject.com/route/107933818/right-highball,2.0,-1,Boulder,V3,1,,37.38747,-80.07134
Huntsman,"Hunted Boulder > Outlaw Area > Picnic Area > Grayson Highlands State Park > Southwest Virginia (Appalachia) > Virginia",https://www.mountainproject.com/route/109639289/huntsman,2.0,-1,Boulder,V3,1,9,36.62702,-81.47885
Sanctity,"Holy Moly Boulder > Labyrinth > HKL East > High Knob Landform > Southwest Virginia (Appalachia) > Virginia",https://www.mountainproject.com/route/109304156/sanctity,2.0,-1,Boulder,V3,1,17,36.9097,-82.6302
"Terror Tantrum","Madness Boulder > Hinterland > Upchurch Area > Picnic Area > Grayson Highlands State Park > Southwest Virginia (Appalachia) > Virginia",https://www.mountainproject.com/route/109314226/terror-tantrum,2.0,-1,Boulder,V3,1,18,36.6122,-81.4912
"Space Jam","Thunder Boulders > Back of Beyond > Haw Orchard > Grayson Highlands State Park > Southwest Virginia (Appalachia) > Virginia",https://www.mountainproject.com/route/108945163/space-jam,2.0,-1,Boulder,V3,1,6,36.6235,-81.47622
Unknown,"Appetizer Boulder > Title Fight Area > Cascades Bouldering > Southwest Virginia (Appalachia) > Virginia",https://www.mountainproject.com/route/108547548/unknown,2.0,-1,Boulder,V3,1,10,37.35999,-80.58823
"Farmer's Almanac","Big Rig Boulder > Wild Wood > Haw Orchard > Grayson Highlands State Park > Southwest Virginia (Appalachia) > Virginia",https://www.mountainproject.com/route/108088609/farmers-almanac,2.0,-1,Boulder,"V3 PG13",1,20,36.6185,-81.48122
Mini-Gun,"Machine Gun Boulder > Vision Area > Mile Two Boulders > (2) Mile Two > Guest River Gorge > Southwest Virginia (Appalachia) > Virginia",https://www.mountainproject.com/route/108731720/mini-gun,2.0,-1,Boulder,V3,1,10,36.90032,-82.41947
"Buffalo Roof","Buffalo Boulder > Back of Beyond > Haw Orchard > Grayson Highlands State Park > Southwest Virginia (Appalachia) > Virginia",https://www.mountainproject.com/route/109164158/buffalo-roof,2.0,-1,Boulder,V3,1,,36.6235,-81.47622
"Black Magic (Stand)","Magic Boulder > Osborne West > Osborne Rock/Ridge > HKL East > High Knob Landform > Southwest Virginia (Appalachia) > Virginia",https://www.mountainproject.com/route/109227481/black-magic-stand,2.0,-1,Boulder,V3,1,9,36.91954,-82.62855
"Vanilla Extract","Vanilla Boulder > Labyrinth > HKL East > High Knob Landform > Southwest Virginia (Appalachia) > Virginia",https://www.mountainproject.com/route/109358770/vanilla-extract,2.0,-1,Boulder,V3,1,12,36.9097,-82.6302
"Born Broken (Left)","Rage Boulders > Right Boneyard > Boneyard Area > Grayson Highlands State Park > Southwest Virginia (Appalachia) > Virginia",https://www.mountainproject.com/route/109108413/born-broken-left,2.0,-1,Boulder,V3,1,11,36.61272,-81.49442
"Beyond Golden","Golden Gate Boulder > Back of Beyond > Haw Orchard > Grayson Highlands State Park > Southwest Virginia (Appalachia) > Virginia",https://www.mountainproject.com/route/108945143/beyond-golden,2.0,-1,Boulder,V3,1,12,36.6235,-81.47622
"Gleaming the Cube","The Cube Boulder > AVO > Blue Ridge Parkway > Charlottesville vicinity > Central & Southern VA Region > Virginia",https://www.mountainproject.com/route/107444774/gleaming-the-cube,2.0,-1,Boulder,V3,1,8,37.86878,-79.05932
"Edges to Ledges","Calamity Boulder > Back of Beyond > Haw Orchard > Grayson Highlands State Park > Southwest Virginia (Appalachia) > Virginia",https://www.mountainproject.com/route/108394421/edges-to-ledges,2.0,-1,Boulder,V3,1,11,36.6235,-81.47622
"Lock-Ness Arete","Monster Boulder > Wild Wood > Haw Orchard > Grayson Highlands State Park > Southwest Virginia (Appalachia) > Virginia",https://www.mountainproject.com/route/108042368/lock-ness-arete,2.0,-1,Boulder,V3,1,9,36.6185,-81.48122
"Don't Ask For The Water","Lower Deck > Double Decker Boulders > Ridgeline Boulders > P.A. Byrom Park > Charlottesville vicinity > Central & Southern VA Region > Virginia",https://www.mountainproject.com/route/107324235/dont-ask-for-the-water,2.0,-1,Boulder,"V3 PG13",1,12,38.22089,-78.6494
"Erector Set","Erector Boulder > Stones > Harkening Hill > Southwest Virginia (Appalachia) > Virginia",https://www.mountainproject.com/route/107425408/erector-set,2.0,-1,Boulder,V3,1,10,37.45487,-79.61831
"Counterfeit Crack","Dirty Money Boulder > Wild Wood > Haw Orchard > Grayson Highlands State Park > Southwest Virginia (Appalachia) > Virginia",https://www.mountainproject.com/route/108041802/counterfeit-crack,2.0,-1,Boulder,V3,1,9,36.6185,-81.48122
"Mad Hatter","Madness Boulder > Hinterland > Upchurch Area > Picnic Area > Grayson Highlands State Park > Southwest Virginia (Appalachia) > Virginia",https://www.mountainproject.com/route/108212325/mad-hatter,2.0,-1,Boulder,V3,1,15,36.6122,-81.4912
Lutheran,"Church Boulder > Church Boulders > Upchurch Area > Picnic Area > Grayson Highlands State Park > Southwest Virginia (Appalachia) > Virginia",https://www.mountainproject.com/route/108205110/lutheran,2.0,-1,Boulder,V3,1,9,36.6122,-81.4912
"Monday Mass (Stand)","Church Boulder > Church Boulders > Upchurch Area > Picnic Area > Grayson Highlands State Park > Southwest Virginia (Appalachia) > Virginia",https://www.mountainproject.com/route/108170336/monday-mass-stand,2.0,-1,Boulder,V3,1,8,36.6122,-81.4912
"127 minutes","500lb boulder > Stones > Harkening Hill > Southwest Virginia (Appalachia) > Virginia",https://www.mountainproject.com/route/107423070/127-minutes,2.0,-1,Boulder,V3,1,10,37.46555,-79.60949
"What the Buck","Hunting Boulder > Stones > Harkening Hill > Southwest Virginia (Appalachia) > Virginia",https://www.mountainproject.com/route/107829829/what-the-buck,2.0,-1,Boulder,V3,1,10,37.46555,-79.60949
"Miles Runs the Voodoo Down","Right Streamside Boulders > Seasonal Creek Boulders > Ridgeline Boulders > P.A. Byrom Park > Charlottesville vicinity > Central & Southern VA Region > Virginia",https://www.mountainproject.com/route/107319960/miles-runs-the-voodoo-down,2.0,-1,Boulder,"V3 PG13",1,25,38.22089,-78.6494
"Shang-Low Blow","Shanghai Boulder > 2. SLS Area > Listening Rock Trail > Grayson Highlands State Park > Southwest Virginia (Appalachia) > Virginia",https://www.mountainproject.com/route/107372096/shang-low-blow,2.0,-1,Boulder,V3,1,13,36.62279,-81.50167
"Howlin' At The Moon","Low Wolf Blocks > Luminary Area > Haw Orchard > Grayson Highlands State Park > Southwest Virginia (Appalachia) > Virginia",https://www.mountainproject.com/route/107505948/howlin-at-the-moon,2.0,-1,Boulder,V3,1,7,36.61849,-81.48122
"Judo Death Kick","Warm Up Boulder > Roadside Boulders > Atkins Bouldering > Southwest Virginia (Appalachia) > Virginia",https://www.mountainproject.com/route/106492267/judo-death-kick,2.0,-1,Boulder,V3,1,10,36.911,-81.45
"Settlers of Caton","Settler Boulder > Spring Ridge Boulders > Picnic Area > Grayson Highlands State Park > Southwest Virginia (Appalachia) > Virginia",https://www.mountainproject.com/route/107125146/settlers-of-caton,2.0,-1,Boulder,V3,1,9,36.62785,-81.48208
"Fringe Traverse","Fringe Roof > Moonlight > Listening Rock Trail > Grayson Highlands State Park > Southwest Virginia (Appalachia) > Virginia",https://www.mountainproject.com/route/107689605/fringe-traverse,2.0,-1,Boulder,V3,1,10,36.6122,-81.4912
"Rhinestone Cowboy","Rhinestone Boulder > 4. Trails End Area > Listening Rock Trail > Grayson Highlands State Park > Southwest Virginia (Appalachia) > Virginia",https://www.mountainproject.com/route/107410095/rhinestone-cowboy,2.0,-1,Boulder,V3,1,9,36.62279,-81.50167
