Route,Location,URL,"Avg Stars","Your Stars","Route Type",Rating,Pitches,Length,"Area Latitude","Area Longitude"
Gomorrah,"Sodom and Gomorrah Boulder > River of Souls > White Rock > Wyoming",https://www.mountainproject.com/route/119495769/gomorrah,4.0,-1,Boulder,V6-7,1,,43.84891,-104.13856
"Studs Build Houses","Africa Area > Cedar Mountain Boulders > Cody > Wyoming",https://www.mountainproject.com/route/106184368/studs-build-houses,3.8,-1,Boulder,V6-7,1,15,44.50741,-109.13287
"The Rose","The Rose Boulder (temporary name) > Coyote Rocks - Bouldering > Vedauwoo Bouldering > Vedauwoo > Laramie Area > Wyoming",https://www.mountainproject.com/route/106590259/the-rose,3.4,-1,Boulder,"V6-7 PG13",1,13,41.18484,-105.37826
"Press Blocks","Press Blox Boulder > Soda/Willow Lake Road > Pinedale Area > Wyoming",https://www.mountainproject.com/route/106566348/press-blocks,3.5,-1,Boulder,V6-7,1,,42.92524,-109.84762
"The Miser","The Miser Boulder > Coyote Rocks - Bouldering > Vedauwoo Bouldering > Vedauwoo > Laramie Area > Wyoming",https://www.mountainproject.com/route/111272318/the-miser,3.5,-1,Boulder,V6-7,1,8,41.18484,-105.37826
"Chocolate Hotdog","John's Tower > Upper Blair > Blair (overview) > Vedauwoo > Laramie Area > Wyoming",https://www.mountainproject.com/route/106788669/chocolate-hotdog,2.0,-1,"Trad, Boulder",V6-7,1,10,41.19678,-105.38694
"Box Car Boulder","(a) West Sector > Rock Springs Buttress > Jackson Hole > Wyoming",https://www.mountainproject.com/route/110943585/box-car-boulder,3.0,-1,"Boulder, Alpine",V6-7,1,20,43.58662,-110.86892
