Route,Location,URL,"Avg Stars","Your Stars","Route Type",Rating,Pitches,Length,"Area Latitude","Area Longitude"
Bully,"Tiger Stripe Boulder > Secret Garden > Boulders - Little Cottonwood > Little Cottonwood Canyon > Central Wasatch > Wasatch Range > Utah",https://www.mountainproject.com/route/108498753/bully,4.0,-1,Boulder,V11-12,1,18,40.57273,-111.77221
"Le Bon Bon","Direct Hit/ Le Bon Bon Area > C O H  Canyon > Burma Road > Huntington Canyon > Central Utah > Utah",https://www.mountainproject.com/route/121784723/le-bon-bon,4.0,-1,Boulder,V11-12,1,12,39.41205,-111.03548
"Unknown/Washed Away","The Wash > C O H  Canyon > Burma Road > Huntington Canyon > Central Utah > Utah",https://www.mountainproject.com/route/121784600/unknownwashed-away,4.0,-1,Boulder,V11-12,1,20,39.41028,-111.03418
"LSD Saint","North Big Bend Boulders > River Road > Southeast Utah > Utah",https://www.mountainproject.com/route/106203523/lsd-saint,4.0,-1,Boulder,"V11-12 R",1,25,38.6276,-109.4966
"Mad Circle","C Canyon Main Area > C Canyon > Central Utah > Utah",https://www.mountainproject.com/route/121750661/mad-circle,3.7,-1,Boulder,V11-12,1,13,39.60099,-110.44099
"Leapt Year","South of Chutes > White Pine Boulders > Boulders - Little Cottonwood > Little Cottonwood Canyon > Central Wasatch > Wasatch Range > Utah",https://www.mountainproject.com/route/120730440/leapt-year,3.5,-1,Boulder,V11-12,1,,40.57361,-111.69281
Ciao,"Tiger Stripe Boulder > Secret Garden > Boulders - Little Cottonwood > Little Cottonwood Canyon > Central Wasatch > Wasatch Range > Utah",https://www.mountainproject.com/route/120354849/ciao,3.0,-1,Boulder,V11-12,1,20,40.57273,-111.77221
"Fully Emancipated","Green Cave > Cave > Green Canyon Bouldering > Green Canyon > Cache Valley > Northern Wasatch > Wasatch Range > Utah",https://www.mountainproject.com/route/118762774/fully-emancipated,2.5,-1,Boulder,V11-12,1,,41.77268,-111.74736
