Route,Location,URL,"Avg Stars","Your Stars","Route Type",Rating,Pitches,Length,"Area Latitude","Area Longitude"
"Come Now, Beast","Ridiculous Linkups and Eliminates > Warm Up Area aka The Tomato Overhangs / Mack'sTraverse > Lincoln Woods > Rhode Island",https://www.mountainproject.com/route/116569304/come-now-beast,2.0,-1,Boulder,V10-11,1,,41.89772,-71.43444
"Cloud's Rest Project","Cloud's Rest Boulder > Lincoln Woods > Rhode Island",https://www.mountainproject.com/route/111404439/clouds-rest-project,2.0,-1,Boulder,V10-11,1,12,41.90189,-71.43822
"Right Comealong Project","Comealong Boulder > Northwest Area > Lincoln Woods > Rhode Island",https://www.mountainproject.com/route/111404363/right-comealong-project,2.0,-1,Boulder,V10-11,1,12,41.90272,-71.43982
"Tombstone Project","The Tombstone > Lincoln Woods > Rhode Island",https://www.mountainproject.com/route/111404458/tombstone-project,1.0,-1,Boulder,V10-11,1,,41.89477,-71.43729
"Quarry Project","The Quarry Boulder > Lincoln Woods > Rhode Island",https://www.mountainproject.com/route/111404404/quarry-project,1.0,-1,Boulder,V10-11,1,12,41.90193,-71.43656
Project?,"Cloud's Rest Boulder > Lincoln Woods > Rhode Island",https://www.mountainproject.com/route/111404453/project,1.0,-1,Boulder,V10-11,1,,41.90189,-71.43822
