Route,Location,URL,"Avg Stars","Your Stars","Route Type",Rating,Pitches,Length,"Area Latitude","Area Longitude"
"Bryce's House","Bryce's House > Hidden Leaf Boulders > Charon's Gardens > Wichita Mountains Wildlife Refuge > Oklahoma",https://www.mountainproject.com/route/121532697/bryces-house,4.0,-1,Boulder,V7-8,1,16,34.72454,-98.72086
"Learning to Fly","Purgatory > Zen Pen > Tulsa Area > Oklahoma",https://www.mountainproject.com/route/106852920/learning-to-fly,4.0,-1,Boulder,V7-8,1,20,36.1334,-96.4023
"The Lip Traverse","Guardian Boulder (AKA A-frame boulder) > Pear and Apple (Bouldering) > Charon's Gardens > Wichita Mountains Wildlife Refuge > Oklahoma",https://www.mountainproject.com/route/105986417/the-lip-traverse,4.0,-1,Boulder,V7-8,1,,34.72526,-98.73081
"Power to the People","Power Wall > Osage Hills State Park > Tulsa Area > Oklahoma",https://www.mountainproject.com/route/112485379/power-to-the-people,2.8,-1,Boulder,V7-8,1,,36.74278,-96.18162
"Cadets On Crank","The Labyrinth > Wichita Mountains Wildlife Refuge > Oklahoma",https://www.mountainproject.com/route/122035229/cadets-on-crank,3.0,-1,Boulder,V7-8,1,8,34.7108,-98.6233
"Jungle Justice","Jungle Boulders > Pear and Apple (Bouldering) > Charon's Gardens > Wichita Mountains Wildlife Refuge > Oklahoma",https://www.mountainproject.com/route/105986649/jungle-justice,3.0,-1,Boulder,V7-8,1,,34.72186,-98.73095
Project,"Stilly Willy > The Bear's Glen Main Area > The Bear's Glen > Keystone Lake > Tulsa Area > Oklahoma",https://www.mountainproject.com/route/123675338/project,2.0,-1,Boulder,V7-8,1,,36.18331,-96.26854
