Route,Location,URL,"Avg Stars","Your Stars","Route Type",Rating,Pitches,Length,"Area Latitude","Area Longitude"
"Kill by Numbers","Mine Cart Area > Left Fork > Joe's Valley > Central Utah > Utah",https://www.mountainproject.com/route/107185361/kill-by-numbers,3.7,-1,Boulder,V5,1,8,39.27542,-111.20602
"Huntsman Graffiti","Sentinel Boulder > Sentinel Area > Moe's Valley > Saint George > Southwest Utah > Utah",https://www.mountainproject.com/route/108008529/huntsman-graffiti,3.6,-1,Boulder,V5,1,16,37.06927,-113.6274
"Rug Rat","UMWA Boulder > Right Fork > Joe's Valley > Central Utah > Utah",https://www.mountainproject.com/route/106389082/rug-rat,3.6,-1,Boulder,V5,1,15,39.30349,-111.18319
"The Drum","South-West End/Pink Lady Area > Moe's Valley > Saint George > Southwest Utah > Utah",https://www.mountainproject.com/route/112482788/the-drum,3.5,-1,Boulder,V5,1,12,37.06494,-113.63155
"Frosted Flakes","The Hulk > Right Fork > Joe's Valley > Central Utah > Utah",https://www.mountainproject.com/route/105880487/frosted-flakes,3.5,-1,Boulder,V5,1,,39.32889,-111.19299
"Proppa Dyno","The Perimeter > Right Fork > Joe's Valley > Central Utah > Utah",https://www.mountainproject.com/route/107942088/proppa-dyno,3.5,-1,Boulder,V5,1,,39.3136,-111.1871
"Tom's Problem","Tom's Problem Boulder > Cabbage Patch > Boulders - Little Cottonwood > Little Cottonwood Canyon > Central Wasatch > Wasatch Range > Utah",https://www.mountainproject.com/route/110537308/toms-problem,3.5,-1,Boulder,V5,1,,40.5723,-111.76891
"Block Party","Block Top Boulder > Big Bend Bouldering Area > River Road > Southeast Utah > Utah",https://www.mountainproject.com/route/106960646/block-party,3.5,-1,Boulder,V5,1,12,38.65078,-109.48395
Gatorade,"Tang Boulder > New Joe's > Joe's Valley > Central Utah > Utah",https://www.mountainproject.com/route/107934884/gatorade,3.2,-1,Boulder,V5,1,,39.31265,-111.12039
"The Comedian","Man Size > Right Fork > Joe's Valley > Central Utah > Utah",https://www.mountainproject.com/route/107538336/the-comedian,3.1,-1,Boulder,"V5 PG13",1,15,39.28916,-111.18067
"Device Ignitor Middle","Device Ignitor Boulder > Moe's Valley > Saint George > Southwest Utah > Utah",https://www.mountainproject.com/route/106676121/device-ignitor-middle,3.1,-1,Boulder,V5,1,,37.0657,-113.63101
"Kelly's Arete","Riverside Boulders > Left Fork > Joe's Valley > Central Utah > Utah",https://www.mountainproject.com/route/105938362/kellys-arete,3.1,-1,Boulder,V5,1,15,39.27864,-111.22785
"Sichuan Peppercorn","Monkey Boy Area > Moe's Valley > Saint George > Southwest Utah > Utah",https://www.mountainproject.com/route/110661374/sichuan-peppercorn,3.0,-1,Boulder,V5,1,,37.06753,-113.63276
Contact,"88+ > New Joe's > Joe's Valley > Central Utah > Utah",https://www.mountainproject.com/route/107057814/contact,3.0,-1,Boulder,V5,1,12,39.30781,-111.11482
"Filla Void","Black and Tan > Right Fork > Joe's Valley > Central Utah > Utah",https://www.mountainproject.com/route/106318285/filla-void,3.2,-1,Boulder,V5,1,12,39.29265,-111.1814
Eurosize,"Boy Size (Provo Area) > Right Fork > Joe's Valley > Central Utah > Utah",https://www.mountainproject.com/route/107559985/eurosize,2.8,-1,Boulder,V5,1,,39.28806,-111.17621
Smoothie,"UMWA Boulder > Right Fork > Joe's Valley > Central Utah > Utah",https://www.mountainproject.com/route/106389072/smoothie,2.7,-1,Boulder,V5,1,10,39.30349,-111.18319
Isabelle's,"The Standard Overhang Boulder > Gate Boulders > Boulders - Little Cottonwood > Little Cottonwood Canyon > Central Wasatch > Wasatch Range > Utah",https://www.mountainproject.com/route/106592302/isabelles,2.8,-1,Boulder,V5,1,,40.57195,-111.75315
"Ring Toss","Ring Toss Boulder > Party Pit Area > White Pine South > White Pine Boulders > Boulders - Little Cottonwood > Little Cottonwood Canyon > Central Wasatch > Wasatch Range > Utah",https://www.mountainproject.com/route/105847389/ring-toss,3.9,-1,Boulder,"V5 X",1,16,40.5735,-111.68798
Walrus,"UMWA Boulder > Right Fork > Joe's Valley > Central Utah > Utah",https://www.mountainproject.com/route/106777315/walrus,3.0,-1,Boulder,V5,1,,39.30349,-111.18319
"I Am Sam","Sam Trap Boulder > Snowbird Boulders > Boulders - Little Cottonwood > Little Cottonwood Canyon > Central Wasatch > Wasatch Range > Utah",https://www.mountainproject.com/route/109643789/i-am-sam,3.4,-1,Boulder,V5,1,,40.57888,-111.67704
"Shadow of Death","Right Sign Area > Left Fork > Joe's Valley > Central Utah > Utah",https://www.mountainproject.com/route/106744594/shadow-of-death,3.0,-1,Boulder,V5,1,,39.27583,-111.22354
"Cue ball","Boy Size (Provo Area) > Right Fork > Joe's Valley > Central Utah > Utah",https://www.mountainproject.com/route/107183685/cue-ball,2.1,-1,Boulder,V5,1,8,39.28806,-111.17621
"Solid Toad","Tee Pee Boulder > Tee Pee Area > Moe's Valley > Saint George > Southwest Utah > Utah",https://www.mountainproject.com/route/112450872/solid-toad,2.7,-1,Boulder,V5,1,,37.06561,-113.63056
"Topus Arete","Topus Boulder > Topus Mountain > Bouldering > Ibex > West Desert > Utah",https://www.mountainproject.com/route/105992838/topus-arete,3.9,-1,Boulder,V5,1,,39.35297,-112.56316
Dustbowl,"South End > Moe's Valley > Saint George > Southwest Utah > Utah",https://www.mountainproject.com/route/108139473/dustbowl,3.0,-1,Boulder,V5,1,,37.06292,-113.63082
"Near Beers","Heat Wall > Eden > Left Fork > Joe's Valley > Central Utah > Utah",https://www.mountainproject.com/route/107338152/near-beers,2.5,-1,Boulder,V5,1,,39.27711,-111.22499
"Roll the Dice","The Closet > New Joe's > Joe's Valley > Central Utah > Utah",https://www.mountainproject.com/route/106312691/roll-the-dice,2.6,-1,Boulder,V5,1,15,39.3084,-111.11504
"Backhoe Right","Backhoe > Moe's Valley > Saint George > Southwest Utah > Utah",https://www.mountainproject.com/route/112499401/backhoe-right,2.7,-1,Boulder,V5,1,10,37.06579,-113.63105
"Dark Side of the Moon","Nerf Wall > Damn Boulders > Left Fork > Joe's Valley > Central Utah > Utah",https://www.mountainproject.com/route/109614827/dark-side-of-the-moon,3.9,-1,Boulder,V5,1,18,39.2747,-111.1865
"Warm Up Dyno","All Thumbs Boulder > Secret Garden > Boulders - Little Cottonwood > Little Cottonwood Canyon > Central Wasatch > Wasatch Range > Utah",https://www.mountainproject.com/route/110920951/warm-up-dyno,2.9,-1,Boulder,V5,1,8,40.57226,-111.7727
"Basketball Diaries","Army of Darkness Boulder > Big Bend Bouldering Area > River Road > Southeast Utah > Utah",https://www.mountainproject.com/route/106960665/basketball-diaries,3.5,-1,Boulder,V5,1,20,38.65078,-109.48395
Hammerhead,"Hammerhead Boulder > Petroglyph > Triassic > Central Utah > Utah",https://www.mountainproject.com/route/105904229/hammerhead,3.5,-1,Boulder,V5,1,18,39.33254,-110.75026
"The Cave","The Cave > Upper Boulder Field > Ogden Boulder Field > Ogden > Northern Wasatch > Wasatch Range > Utah",https://www.mountainproject.com/route/108108419/the-cave,3.5,-1,Boulder,V5,1,,41.21696,-111.92455
"Seams Easy","Farside > Far Side > Boulders - Little Cottonwood > Little Cottonwood Canyon > Central Wasatch > Wasatch Range > Utah",https://www.mountainproject.com/route/113643641/seams-easy,3.5,-1,Boulder,V5,1,12,40.57069,-111.75683
"Big Cheesy","Raiden Area > Left Fork > Joe's Valley > Central Utah > Utah",https://www.mountainproject.com/route/108983014/big-cheesy,2.8,-1,Boulder,V5,1,10,39.2818,-111.23203
"Fortune Cookie","Small Chinese Boulder > Chinese Boulders > White Pine North > White Pine Boulders > Boulders - Little Cottonwood > Little Cottonwood Canyon > Central Wasatch > Wasatch Range > Utah",https://www.mountainproject.com/route/109108794/fortune-cookie,3.0,-1,Boulder,V5,1,14,40.575,-111.689
"Some Get Two Fingers","Daisy Boulder > Land of a Thousand Boulders > Triassic > Central Utah > Utah",https://www.mountainproject.com/route/106046570/some-get-two-fingers,3.3,-1,Boulder,V5,1,,39.33698,-110.74301
"Busted Up","Sector Boulder Area > Land of a Thousand Boulders > Triassic > Central Utah > Utah",https://www.mountainproject.com/route/106046545/busted-up,3.2,-1,Boulder,V5,1,18,39.33695,-110.74343
Thighmaster,"Thighmaster > Right Fork > Joe's Valley > Central Utah > Utah",https://www.mountainproject.com/route/107517022/thighmaster,2.3,-1,Boulder,V5,1,12,39.28194,-111.17537
"Angel Wings","Monkey Boy Area > Moe's Valley > Saint George > Southwest Utah > Utah",https://www.mountainproject.com/route/112524550/angel-wings,2.8,-1,Boulder,V5,1,,37.06753,-113.63276
"The Furnace","Green Cave > Cave > Green Canyon Bouldering > Green Canyon > Cache Valley > Northern Wasatch > Wasatch Range > Utah",https://www.mountainproject.com/route/113691342/the-furnace,3.6,-1,Boulder,V5,1,10,41.77268,-111.74736
"Sunburst Arete","Black Roof Boulders > Party Pit Area > White Pine South > White Pine Boulders > Boulders - Little Cottonwood > Little Cottonwood Canyon > Central Wasatch > Wasatch Range > Utah",https://www.mountainproject.com/route/111903430/sunburst-arete,3.6,-1,Boulder,V5,1,10,40.57355,-111.688
Squawk,"Tee Pee Boulder > Tee Pee Area > Moe's Valley > Saint George > Southwest Utah > Utah",https://www.mountainproject.com/route/112482125/squawk,2.6,-1,Boulder,V5,1,8,37.06561,-113.63056
Antaeus,"The Hulk > Right Fork > Joe's Valley > Central Utah > Utah",https://www.mountainproject.com/route/108123226/antaeus,3.1,-1,Boulder,V5,1,20,39.32889,-111.19299
Blender,"Anarchy > New Joe's > Joe's Valley > Central Utah > Utah",https://www.mountainproject.com/route/108146823/blender,2.2,-1,Boulder,V5,1,,39.30712,-111.11441
"Army of Darkness","Army of Darkness Boulder > Big Bend Bouldering Area > River Road > Southeast Utah > Utah",https://www.mountainproject.com/route/106960681/army-of-darkness,3.7,-1,Boulder,V5,1,15,38.65078,-109.48395
Spruce,"Oil Pump Area > Right Fork > Joe's Valley > Central Utah > Utah",https://www.mountainproject.com/route/109018771/spruce,3.4,-1,Boulder,V5,1,14,39.34542,-111.20707
Knight,"Warm Point > Bouldering > Ibex > West Desert > Utah",https://www.mountainproject.com/route/116701016/knight,3.9,-1,Boulder,V5,1,15,38.8636,-113.4411
"The Grim Reacher","Chaos Boulder > Big Bend Bouldering Area > River Road > Southeast Utah > Utah",https://www.mountainproject.com/route/106135578/the-grim-reacher,3.6,-1,Boulder,V5,1,25,38.65058,-109.48477
"Underwhere Left","Ripple > Tee Pee Area > Moe's Valley > Saint George > Southwest Utah > Utah",https://www.mountainproject.com/route/107013732/underwhere-left,3.0,-1,Boulder,V5,1,,37.0657,-113.63044
"My Arete","Daisy Boulder > Land of a Thousand Boulders > Triassic > Central Utah > Utah",https://www.mountainproject.com/route/118621801/my-arete,3.9,-1,Boulder,"V5 PG13",1,15,39.33698,-110.74301
"The Bad","Gravity Boulder > Land of a Thousand Boulders > Triassic > Central Utah > Utah",https://www.mountainproject.com/route/106066800/the-bad,3.3,-1,Boulder,V5,1,20,39.33605,-110.74023
Yéego,"1. Begay Boulder > A. 1st Roadside Pullout > 1. Roadside Boulders > Big Water Boulders > Glen Canyon > South Central Utah > Utah",https://www.mountainproject.com/route/112228891/yeego,3.8,-1,Boulder,V5,1,20,37.06746,-111.60834
"White Streak","1. White Streak Boulder > C. White Streak Area > 1. Roadside Boulders > Big Water Boulders > Glen Canyon > South Central Utah > Utah",https://www.mountainproject.com/route/112235149/white-streak,4.0,-1,Boulder,V5,1,14,37.06805,-111.60746
"Thumbknown Destiny","Boy Scout Cave > Pioneer Park > Saint George > Southwest Utah > Utah",https://www.mountainproject.com/route/118192500/thumbknown-destiny,3.6,-1,Boulder,V5,1,,37.11549,-113.57761
"Guillotine Dream","Guillotine Dream Boulder > The Wash > Garth Rocks > Saint George > Southwest Utah > Utah",https://www.mountainproject.com/route/107245773/guillotine-dream,4.0,-1,Boulder,"V5 PG13",1,,37.0465,-113.5164
"Between Two Worlds","The Flu > Right Fork > Joe's Valley > Central Utah > Utah",https://www.mountainproject.com/route/117780398/between-two-worlds,2.8,-1,Boulder,V5,1,,39.30035,-111.17682
Mavericks,"Big Rocks > South Central Utah > Utah",https://www.mountainproject.com/route/121931681/mavericks,4.0,-1,Boulder,V5,1,20,38.35575,-111.62614
"LDS Girls","The Saloon > Axe Handle Canyon > Central Utah > Utah",https://www.mountainproject.com/route/119876100/lds-girls,4.0,-1,Boulder,V5,1,15,39.40471,-111.68157
"Moose Saddle","Twin Lakes > Brighton Boulders > Brighton Area > Big Cottonwood Canyon > Central Wasatch > Wasatch Range > Utah",https://www.mountainproject.com/route/117675016/moose-saddle,4.0,-1,"Boulder, Alpine","V5 PG13",1,18,40.5946,-111.60339
Gibby,"Kung Fu Theatre > Right Fork > Joe's Valley > Central Utah > Utah",https://www.mountainproject.com/route/116378139/gibby,4.0,-1,Boulder,V5,1,15,39.31356,-111.18238
"A Great Day for Freedom","Road Boulder > Land of a Thousand Boulders > Triassic > Central Utah > Utah",https://www.mountainproject.com/route/117649029/a-great-day-for-freedom,4.0,-1,Boulder,V5,1,,39.3367,-110.743
"Trial By Stone","The Rest Home > Cedar Canyon > Cedar City > Southwest Utah > Utah",https://www.mountainproject.com/route/115967681/trial-by-stone,4.0,-1,"Sport, Boulder","5.12b V5",2,120,37.6245,-112.93198
"Power Clean","Temp Holding Area > Cottonwood Springs Bouldering > Saint George > Southwest Utah > Utah",https://www.mountainproject.com/route/120975708/power-clean,4.0,-1,Boulder,V5,1,15,37.27788,-113.51836
"Warrior Two","Temp Holding Area > Cottonwood Springs Bouldering > Saint George > Southwest Utah > Utah",https://www.mountainproject.com/route/121270770/warrior-two,4.0,-1,Boulder,V5,1,17,37.27788,-113.51836
Dentugrip,"The Mayan > Mayan Boulders > Price Canyon > Central Utah > Utah",https://www.mountainproject.com/route/121000541/dentugrip,4.0,-1,Boulder,V5,1,15,39.78146,-110.92518
"Medicine Man","Bright Side Boulders > 3. The Bright Side of the Moon > 3. The Moon > Big Water Boulders > Glen Canyon > South Central Utah > Utah",https://www.mountainproject.com/route/119782691/medicine-man,4.0,-1,Boulder,V5,1,15,37.09982,-111.64979
"A Boulderer's Marathon","Marathon Boulder > 4. Jupiter Boulder Area > 2. Jupiter Area > Big Water Boulders > Glen Canyon > South Central Utah > Utah",https://www.mountainproject.com/route/112272361/a-boulderers-marathon,4.0,-1,Boulder,V5,1,45,37.07811,-111.62641
"Sack Lunch","Sack Lunch > Diamond Fork Canyon > Spanish Fork Canyon > Southern Wasatch > Wasatch Range > Utah",https://www.mountainproject.com/route/113253051/sack-lunch,4.0,-1,Boulder,V5,1,16,40.0806,-111.40385
"Fat Crack","Crackhouse > Southeast Utah > Utah",https://www.mountainproject.com/route/123462292/fat-crack,4.0,-1,"Trad, Boulder","5.12 V5",1,,38.58924,-109.69932
"The Sleeper","House Boulder > American Fork Canyon > Southern Wasatch > Wasatch Range > Utah",https://www.mountainproject.com/route/107686985/the-sleeper,2.8,-1,Boulder,V5,1,13,40.44441,-111.70069
"Concussed / Jormungandr Stand","Lizard Head > Boulders - Little Cottonwood > Little Cottonwood Canyon > Central Wasatch > Wasatch Range > Utah",https://www.mountainproject.com/route/119000634/concussed-jormungandr-stand,3.7,-1,Boulder,V5,1,15,40.57364,-111.75931
Slasher,"Stone Garden > Bouldering in Uintas > Uinta Mountains > Northeast Utah > Utah",https://www.mountainproject.com/route/122772846/slasher,3.6,-1,"Boulder, Alpine",V5,1,8,40.74849,-110.87853
"Plata o Plomo","The Great Divide > White Pine TH > Boulders - Little Cottonwood > Little Cottonwood Canyon > Central Wasatch > Wasatch Range > Utah",https://www.mountainproject.com/route/119257642/plata-o-plomo,3.3,-1,Boulder,V5,1,,40.57855,-111.68125
"The Sagebrush Shuffle","The Campground > Three Peaks > Cedar City > Southwest Utah > Utah",https://www.mountainproject.com/route/111901199/the-sagebrush-shuffle,3.6,-1,Boulder,V5,1,20,37.76016,-113.18573
Mowgli,"Self Service > New Joe's > Joe's Valley > Central Utah > Utah",https://www.mountainproject.com/route/110269837/mowgli,2.7,-1,Boulder,V5,1,10,39.30661,-111.11463
"Earth and Wind","Little Rock Canyon Boulders > Southern Wasatch > Wasatch Range > Utah",https://www.mountainproject.com/route/108741453/earth-and-wind,3.3,-1,Boulder,V5,1,12,40.28631,-111.62835
"Vitruvian Man","Warm-Up Area > Right Fork > Joe's Valley > Central Utah > Utah",https://www.mountainproject.com/route/115452939/vitruvian-man,3.1,-1,Boulder,V5,1,12,39.29932,-111.18218
"Full Mindy","Citizen Dildo Boulder > Warm-up Area > White Pine South > White Pine Boulders > Boulders - Little Cottonwood > Little Cottonwood Canyon > Central Wasatch > Wasatch Range > Utah",https://www.mountainproject.com/route/109636630/full-mindy,2.9,-1,Boulder,V5,1,,40.57388,-111.69012
"Toehook Traverse","Toehook Area > Pioneer Park > Saint George > Southwest Utah > Utah",https://www.mountainproject.com/route/106723208/toehook-traverse,3.2,-1,Boulder,V5,1,,37.11689,-113.57733
"The Globe Traverse","The Globe > Zion Bouldering > Zion National Park > Southwest Utah > Utah",https://www.mountainproject.com/route/115140072/the-globe-traverse,3.5,-1,Boulder,V5,1,,37.20223,-112.98896
"Treasure Island","Upper Milly > Brighton Boulders > Brighton Area > Big Cottonwood Canyon > Central Wasatch > Wasatch Range > Utah",https://www.mountainproject.com/route/119840116/treasure-island,3.5,-1,"Boulder, Alpine",V5,1,,40.59851,-111.58501
"Iron Butterfly","7 Mile Marker > Left Fork > Joe's Valley > Central Utah > Utah",https://www.mountainproject.com/route/117108593/iron-butterfly,3.0,-1,Boulder,V5,1,15,39.28061,-111.23033
"Air Freshener","Cherry Creek Boulders > Cherry Creek Canyon > Cache Valley > Northern Wasatch > Wasatch Range > Utah",https://www.mountainproject.com/route/118022800/air-freshener,3.4,-1,Boulder,V5,1,15,41.9246,-111.7412
"Bob's Arete","The Wasatch Resort > Boulders - Little Cottonwood > Little Cottonwood Canyon > Central Wasatch > Wasatch Range > Utah",https://www.mountainproject.com/route/118687709/bobs-arete,3.3,-1,Boulder,V5,1,15,40.56959,-111.76613
"The Blob","The Thing 1 > Red Monster Area > Bouldering > Ibex > West Desert > Utah",https://www.mountainproject.com/route/120454445/the-blob,3.3,-1,Boulder,"V5 PG13",1,13,38.9918,-113.3883
"Chip Butty","All Thumbs Boulder > Secret Garden > Boulders - Little Cottonwood > Little Cottonwood Canyon > Central Wasatch > Wasatch Range > Utah",https://www.mountainproject.com/route/112823477/chip-butty,2.8,-1,Boulder,V5,1,15,40.57226,-111.7727
Honeycomb,"Blunder Boulder > Warm-up Area > White Pine South > White Pine Boulders > Boulders - Little Cottonwood > Little Cottonwood Canyon > Central Wasatch > Wasatch Range > Utah",https://www.mountainproject.com/route/117325746/honeycomb,3.5,-1,Boulder,V5,1,18,40.57347,-111.69051
"Shut Your Dog Up","Cul-de-sac Boulder > North Ogden Bouldering > North Ogden > Ogden > Northern Wasatch > Wasatch Range > Utah",https://www.mountainproject.com/route/120717436/shut-your-dog-up,3.3,-1,Boulder,V5,1,15,41.27521,-111.94753
"Beauty Mark","The Mayan > Mayan Boulders > Price Canyon > Central Utah > Utah",https://www.mountainproject.com/route/121000492/beauty-mark,3.5,-1,Boulder,V5,1,15,39.78146,-110.92518
"The Power of Copenhagen","The Power of Copenhagen > Jump for Jesus Area > 1. The Moon > 3. The Moon > Big Water Boulders > Glen Canyon > South Central Utah > Utah",https://www.mountainproject.com/route/113717749/the-power-of-copenhagen,3.5,-1,Boulder,V5,1,15,37.09517,-111.64401
Karate,"Citizen Dildo Boulder > Warm-up Area > White Pine South > White Pine Boulders > Boulders - Little Cottonwood > Little Cottonwood Canyon > Central Wasatch > Wasatch Range > Utah",https://www.mountainproject.com/route/118930352/karate,2.6,-1,Boulder,V5,1,10,40.57388,-111.69012
"The Mudslinger's Deicide","Dixie Cave > Pioneer Park > Saint George > Southwest Utah > Utah",https://www.mountainproject.com/route/123523786/the-mudslingers-deicide,3.5,-1,Boulder,V5,1,20,37.11576,-113.57925
"The Poor","Boy Size (Provo Area) > Right Fork > Joe's Valley > Central Utah > Utah",https://www.mountainproject.com/route/107183691/the-poor,2.1,-1,Boulder,V5,1,11,39.28806,-111.17621
"Riverside Arete - Right Variation","Shivers Boulder > The Riverside > Boulders - Little Cottonwood > Little Cottonwood Canyon > Central Wasatch > Wasatch Range > Utah",https://www.mountainproject.com/route/109655744/riverside-arete-right-variation,3.1,-1,Boulder,V5,1,15,40.57134,-111.75712
"The Shining","The Hulk > Right Fork > Joe's Valley > Central Utah > Utah",https://www.mountainproject.com/route/106852691/the-shining,2.8,-1,Boulder,V5,1,15,39.32889,-111.19299
"Handsome Blunderstone","Inception > Snowbird Boulders > Boulders - Little Cottonwood > Little Cottonwood Canyon > Central Wasatch > Wasatch Range > Utah",https://www.mountainproject.com/route/118932327/handsome-blunderstone,2.7,-1,Boulder,V5,1,12,40.57894,-111.67649
"Campus Problem","Tiger Stripe Boulder > Secret Garden > Boulders - Little Cottonwood > Little Cottonwood Canyon > Central Wasatch > Wasatch Range > Utah",https://www.mountainproject.com/route/118008961/campus-problem,3.1,-1,Boulder,V5,1,15,40.57273,-111.77221
Cattleguard,"Swamp Boulders > Boulders - Little Cottonwood > Little Cottonwood Canyon > Central Wasatch > Wasatch Range > Utah",https://www.mountainproject.com/route/120687404/cattleguard,3.3,-1,Boulder,V5,1,20,40.57076,-111.75079
"Tower Two","Sunny's Boulders > Bouldering > Ibex > West Desert > Utah",https://www.mountainproject.com/route/118275162/tower-two,3.0,-1,Boulder,V5,1,,38.95958,-113.33762
"Washed Up Extension","The Wash Boulder > Big Bend Bouldering Area > River Road > Southeast Utah > Utah",https://www.mountainproject.com/route/112807600/washed-up-extension,3.0,-1,Boulder,V5,1,10,38.65106,-109.48391
"O Face","The Perimeter > Right Fork > Joe's Valley > Central Utah > Utah",https://www.mountainproject.com/route/108051617/o-face,3.2,-1,Boulder,V5,1,15,39.3136,-111.1871
"Matt Problem","The Wasatch Resort > Boulders - Little Cottonwood > Little Cottonwood Canyon > Central Wasatch > Wasatch Range > Utah",https://www.mountainproject.com/route/120470407/matt-problem,3.2,-1,Boulder,V5,1,,40.56959,-111.76613
"Wedding Suite","Dallas Boulder > Junk Yard > Garth Rocks > Saint George > Southwest Utah > Utah",https://www.mountainproject.com/route/110194822/wedding-suite,3.2,-1,Boulder,V5,1,,37.04082,-113.52496
"Meat Hooks","Main Attraction Boulder > Central Parking Area > Garth Rocks > Saint George > Southwest Utah > Utah",https://www.mountainproject.com/route/110071015/meat-hooks,3.2,-1,Boulder,V5,1,,37.0471,-113.51566
"Unknown Destany","Boy Scout Cave > Pioneer Park > Saint George > Southwest Utah > Utah",https://www.mountainproject.com/route/109971461/unknown-destany,2.9,-1,Boulder,V5,1,15,37.11549,-113.57761
"Star Gazer","Campfire Boulder > Petroglyph > Triassic > Central Utah > Utah",https://www.mountainproject.com/route/108720982/star-gazer,3.3,-1,Boulder,V5,1,,39.33237,-110.7505
"Blast Off","Pocket Boulder > Bouldering > Rock Canyon > Southern Wasatch > Wasatch Range > Utah",https://www.mountainproject.com/route/108311062/blast-off,2.8,-1,Boulder,V5,1,10,40.2653,-111.6197
"Whiskey Breath","South-West End/Pink Lady Area > Moe's Valley > Saint George > Southwest Utah > Utah",https://www.mountainproject.com/route/118602002/whiskey-breath,3.0,-1,Boulder,V5,1,,37.06494,-113.63155
"Tape Up","Green Valley Gap > Saint George > Southwest Utah > Utah",https://www.mountainproject.com/route/105787632/tape-up,3.1,-1,Boulder,"5.11 V5",1,20,37.08852,-113.63779
Stellar,"The Asteroid > Bouldering > Hobble Creek Canyon > Southern Wasatch > Wasatch Range > Utah",https://www.mountainproject.com/route/108376680/stellar,3.0,-1,Boulder,V5,1,15,40.18432,-111.46522
Superfluous,"Superfluous Boulder > Price Canyon > Central Utah > Utah",https://www.mountainproject.com/route/113140781/superfluous,2.8,-1,Boulder,V5,1,12,39.7723,-110.922
"Busch League","Cherry Creek Boulders > Cherry Creek Canyon > Cache Valley > Northern Wasatch > Wasatch Range > Utah",https://www.mountainproject.com/route/110973103/busch-league,2.8,-1,Boulder,V5,1,20,41.9246,-111.7412
"Christmas Pterodactyl","Turtle Boulder > Mario Land > Moe's Valley > Saint George > Southwest Utah > Utah",https://www.mountainproject.com/route/120177541/christmas-pterodactyl,3.0,-1,Boulder,V5,1,,37.07838,-113.63025
"Toy Collector","The Thing II > Red Monster Area > Bouldering > Ibex > West Desert > Utah",https://www.mountainproject.com/route/114055459/toy-collector,3.0,-1,Boulder,V5,1,,38.99167,-113.38834
"One Eyed Willy (direct)","Pack Rat Boulder > Sentinel Area > Moe's Valley > Saint George > Southwest Utah > Utah",https://www.mountainproject.com/route/112470890/one-eyed-willy-direct,2.6,-1,Boulder,V5,1,,37.06941,-113.62741
"Unknown Direct","Mike's Face Boulder > Party Pit Area > White Pine South > White Pine Boulders > Boulders - Little Cottonwood > Little Cottonwood Canyon > Central Wasatch > Wasatch Range > Utah",https://www.mountainproject.com/route/119286310/unknown-direct,2.8,-1,Boulder,V5,1,15,40.57448,-111.68626
"5% Tint","The Flu > Right Fork > Joe's Valley > Central Utah > Utah",https://www.mountainproject.com/route/118041884/5-tint,2.6,-1,Boulder,V5,1,,39.30035,-111.17682
"Ringer Direct","Farside > Far Side > Boulders - Little Cottonwood > Little Cottonwood Canyon > Central Wasatch > Wasatch Range > Utah",https://www.mountainproject.com/route/120502059/ringer-direct,3.0,-1,Boulder,V5,1,,40.57069,-111.75683
"Finding Friction","Black Rocks Boulders > Black Rocks > Saint George > Southwest Utah > Utah",https://www.mountainproject.com/route/112511004/finding-friction,3.0,-1,Boulder,V5,1,8,37.15516,-113.6076
V5,"Lone Boulder > Red Monster Area > Bouldering > Ibex > West Desert > Utah",https://www.mountainproject.com/route/118172586/v5,2.9,-1,Boulder,V5,1,8,38.9912,-113.38815
"One Leg Wonder","Jarem's Boulder > Cedar City > Southwest Utah > Utah",https://www.mountainproject.com/route/106770562/one-leg-wonder,3.0,-1,Boulder,V5,1,,37.6425,-113.0517
"Lance’s slab","5 Mile Boulders > Boulders - Little Cottonwood > Little Cottonwood Canyon > Central Wasatch > Wasatch Range > Utah",https://www.mountainproject.com/route/116813502/lances-slab,2.9,-1,Boulder,V5,1,11,40.57223,-111.75618
"Left Anviloid","Anvil > Sentinel Area > Moe's Valley > Saint George > Southwest Utah > Utah",https://www.mountainproject.com/route/118268485/left-anviloid,2.5,-1,Boulder,V5,1,7,37.06905,-113.62756
"Full Value Hillbilly","Mega Marvels > The Wash > Swett Hills > Cedar City > Southwest Utah > Utah",https://www.mountainproject.com/route/116980873/full-value-hillbilly,3.0,-1,Boulder,V5,1,15,37.64483,-113.27127
"Happy Thoughts (aka The Couch)","The Couch > Springfield > Bunker Creek > Brian Head > Southwest Utah > Utah",https://www.mountainproject.com/route/115324273/happy-thoughts-aka-the-couch,3.0,-1,Boulder,V5,1,8,37.70717,-112.68806
"Trackhoe Traverse","Backhoe > Moe's Valley > Saint George > Southwest Utah > Utah",https://www.mountainproject.com/route/114079897/trackhoe-traverse,2.6,-1,Boulder,V5,1,,37.06579,-113.63105
"Imposter Syndrome","South End > Moe's Valley > Saint George > Southwest Utah > Utah",https://www.mountainproject.com/route/120231636/imposter-syndrome,3.0,-1,Boulder,V5,1,25,37.06292,-113.63082
"Dough Boy","South End > Moe's Valley > Saint George > Southwest Utah > Utah",https://www.mountainproject.com/route/120160374/dough-boy,3.0,-1,Boulder,V5,1,,37.06292,-113.63082
"Chickenhead Arete","Coffee Girl Boulder > East Gate Boulders > Gate Boulders > Boulders - Little Cottonwood > Little Cottonwood Canyon > Central Wasatch > Wasatch Range > Utah",https://www.mountainproject.com/route/119619674/chickenhead-arete,3.0,-1,Boulder,V5,1,20,40.57198,-111.7518
Arete,"The Buzz Boulder > Buzz Boulders > Boulders - Little Cottonwood > Little Cottonwood Canyon > Central Wasatch > Wasatch Range > Utah",https://www.mountainproject.com/route/120544903/arete,3.4,-1,Boulder,V5,1,15,40.5712,-111.75548
"Lucky Penny","The 5.78 Boulder > South Side Boulders > Dry Creek > Southern Wasatch > Wasatch Range > Utah",https://www.mountainproject.com/route/118590874/lucky-penny,3.3,-1,Boulder,V5,1,15,40.48437,-111.74695
Cuticle,"The Red Monster > Red Monster Area > Bouldering > Ibex > West Desert > Utah",https://www.mountainproject.com/route/120454658/cuticle,3.0,-1,Boulder,V5,1,8,40.72623,-111.85767
[Redacted],"The Saloon > Axe Handle Canyon > Central Utah > Utah",https://www.mountainproject.com/route/107102098/redacted,3.0,-1,Boulder,V5,1,15,39.40471,-111.68157
"Monkey Hug","Cherry Creek Boulders > Cherry Creek Canyon > Cache Valley > Northern Wasatch > Wasatch Range > Utah",https://www.mountainproject.com/route/107223383/monkey-hug,2.8,-1,Boulder,V5,1,10,41.9246,-111.7412
"Yoyo C Yoyo","Boy Size (Provo Area) > Right Fork > Joe's Valley > Central Utah > Utah",https://www.mountainproject.com/route/122353598/yoyo-c-yoyo,2.0,-1,Boulder,V5,1,,39.28806,-111.17621
"Beaver Head","Crimpin Connies > White Pine TH > Boulders - Little Cottonwood > Little Cottonwood Canyon > Central Wasatch > Wasatch Range > Utah",https://www.mountainproject.com/route/119257452/beaver-head,2.5,-1,Boulder,V5,1,,40.57775,-111.68001
Quesadilla,"Tequila Boulder > Party Pit Area > White Pine South > White Pine Boulders > Boulders - Little Cottonwood > Little Cottonwood Canyon > Central Wasatch > Wasatch Range > Utah",https://www.mountainproject.com/route/118842651/quesadilla,3.0,-1,Boulder,V5,1,12,40.57256,-111.68855
"Bell Memorial Arete","Swamp Boulders > Boulders - Little Cottonwood > Little Cottonwood Canyon > Central Wasatch > Wasatch Range > Utah",https://www.mountainproject.com/route/119619783/bell-memorial-arete,3.0,-1,Boulder,V5,1,15,40.57076,-111.75079
"All Black Everything","Outer Limits > Right Fork > Joe's Valley > Central Utah > Utah",https://www.mountainproject.com/route/117826997/all-black-everything,3.0,-1,Boulder,V5,1,8,39.31641,-111.18417
"Righty Anviloid","Anvil > Sentinel Area > Moe's Valley > Saint George > Southwest Utah > Utah",https://www.mountainproject.com/route/118268500/righty-anviloid,2.3,-1,Boulder,V5,1,7,37.06905,-113.62756
"Anywhere but Blanding","Blanding Boulders > Blanding > Southeast Utah > Utah",https://www.mountainproject.com/route/111859977/anywhere-but-blanding,3.0,-1,Boulder,V5,1,,37.57356,-109.5574
"Cave Route Direct","Little Bear Canyon > Huntington Canyon > Central Utah > Utah",https://www.mountainproject.com/route/116561691/cave-route-direct,3.0,-1,Boulder,V5,1,10,39.37177,-111.06084
"Christ is Born","Rastafarian/Christ is Born Area > Price Canyon > Central Utah > Utah",https://www.mountainproject.com/route/119024844/christ-is-born,3.0,-1,Boulder,V5,1,10,39.77911,-110.9271
Wrinkles,"Turtlehead Boulder > Price Canyon > Central Utah > Utah",https://www.mountainproject.com/route/119150176/wrinkles,3.0,-1,Boulder,V5,1,10,39.78037,-110.92582
"Stripper Traverse","Eon Blue Zone > Triassic > Central Utah > Utah",https://www.mountainproject.com/route/113987767/stripper-traverse,3.0,-1,Boulder,V5,1,15,39.3264,-110.75047
"Forbidden Doughnut","Downtown > Springfield > Bunker Creek > Brian Head > Southwest Utah > Utah",https://www.mountainproject.com/route/115324488/forbidden-doughnut,3.0,-1,Boulder,V5,1,10,37.70729,-112.68904
"Double Tap","Parking Area > New Joe's > Joe's Valley > Central Utah > Utah",https://www.mountainproject.com/route/109590400/double-tap,3.0,-1,Boulder,"V5 PG13",1,20,39.31063,-111.12032
"Mossflower Munchies","Iron Mine boulder > Iron Mine > Cedar City > Southwest Utah > Utah",https://www.mountainproject.com/route/111936855/mossflower-munchies,3.0,-1,Boulder,V5,1,20,37.65622,-113.31803
"Hooks Sit","Tank Boulder > Tank Canyon > American Fork Canyon > Southern Wasatch > Wasatch Range > Utah",https://www.mountainproject.com/route/109649262/hooks-sit,3.0,-1,Boulder,V5,1,,40.4469,-111.6881
Slytherin,"Quick Stop Boulder > Central Parking Area > Garth Rocks > Saint George > Southwest Utah > Utah",https://www.mountainproject.com/route/110088228/slytherin,3.0,-1,Boulder,V5,1,,37.04704,-113.5157
"Cyclical Sun","Cyclical Boulder > Party Pit Area > White Pine South > White Pine Boulders > Boulders - Little Cottonwood > Little Cottonwood Canyon > Central Wasatch > Wasatch Range > Utah",https://www.mountainproject.com/route/122519848/cyclical-sun,3.0,-1,Boulder,V5,1,,40.57351,-111.68717
"Boone's Problem","Shivers Boulder > The Riverside > Boulders - Little Cottonwood > Little Cottonwood Canyon > Central Wasatch > Wasatch Range > Utah",https://www.mountainproject.com/route/119883044/boones-problem,3.0,-1,Boulder,V5,1,12,40.57134,-111.75712
"Easy Money","Pipe Dream Trail Boulders > Moab Rim Area > Southeast Utah > Utah",https://www.mountainproject.com/route/121052508/easy-money,3.0,-1,Boulder,V5,1,12,38.5528,-109.53863
Minocqua,"Shadows > Boulders - Little Cottonwood > Little Cottonwood Canyon > Central Wasatch > Wasatch Range > Utah",https://www.mountainproject.com/route/118774894/minocqua,3.0,-1,Boulder,V5,1,13,40.56852,-111.72008
"Easy Peasy","Farside > Far Side > Boulders - Little Cottonwood > Little Cottonwood Canyon > Central Wasatch > Wasatch Range > Utah",https://www.mountainproject.com/route/117905495/easy-peasy,3.0,-1,Boulder,V5,1,12,40.57069,-111.75683
"World Pool","Moon Rock > Boulders - Little Cottonwood > Little Cottonwood Canyon > Central Wasatch > Wasatch Range > Utah",https://www.mountainproject.com/route/121741454/world-pool,2.5,-1,Boulder,"V5 PG13",1,25,40.57109,-111.75245
"Knob Snob","The Perimeter > Right Fork > Joe's Valley > Central Utah > Utah",https://www.mountainproject.com/route/112220793/knob-snob,3.0,-1,Boulder,V5,1,,39.3136,-111.1871
Stonehenge,"Australian Boulder > American Fork Canyon > Southern Wasatch > Wasatch Range > Utah",https://www.mountainproject.com/route/119232896/stonehenge,3.0,-1,Boulder,V5,1,15,40.4682,-111.65475
"Padded Room Dyno","The Padded Room Area > Moe's Valley > Saint George > Southwest Utah > Utah",https://www.mountainproject.com/route/118293987/padded-room-dyno,3.0,-1,Boulder,"V5 PG13",1,15,37.068,-113.62783
"Johnny's slab","Shothole Boulder > Buzz Boulders > Boulders - Little Cottonwood > Little Cottonwood Canyon > Central Wasatch > Wasatch Range > Utah",https://www.mountainproject.com/route/119878792/johnnys-slab,4.0,-1,Boulder,V5,1,18,40.57131,-111.7548
Blackjack,"Beach/Meatbag > Moe's Valley > Saint George > Southwest Utah > Utah",https://www.mountainproject.com/route/122035119/blackjack,2.7,-1,Boulder,V5,1,,37.06398,-113.63438
"David Carradine","The Cone Bouldering > Swett Hills > Cedar City > Southwest Utah > Utah",https://www.mountainproject.com/route/121977751/david-carradine,3.0,-1,Boulder,"V5 R",1,15,37.63609,-113.27498
"Unknown Arete","White Pine Chutes > White Pine Boulders > Boulders - Little Cottonwood > Little Cottonwood Canyon > Central Wasatch > Wasatch Range > Utah",https://www.mountainproject.com/route/117095357/unknown-arete,3.0,-1,Boulder,V5,1,12,40.57529,-111.69487
"Ira's Roof","Boulder House > Day Canyon > Potash Road > Southeast Utah > Utah",https://www.mountainproject.com/route/119968303/iras-roof,3.0,-1,Boulder,V5,1,20,38.56962,-109.66486
"Stevie's Arete","The Golden Boulders > Boulders - Little Cottonwood > Little Cottonwood Canyon > Central Wasatch > Wasatch Range > Utah",https://www.mountainproject.com/route/121641038/stevies-arete,3.0,-1,Boulder,V5,1,12,40.57245,-111.75558
"Brown SDS Direct","Big Horn Beaver > Big Bend Bouldering Area > River Road > Southeast Utah > Utah",https://www.mountainproject.com/route/120598407/brown-sds-direct,3.0,-1,Boulder,V5,1,15,38.65076,-109.48535
"Please Don't Squeeze the Sharma Stand","Don't Squeeze the Sharma Boulder > Mayan Boulders > Price Canyon > Central Utah > Utah",https://www.mountainproject.com/route/119138587/please-dont-squeeze-the-sharma-stand,3.5,-1,Boulder,V5,1,10,39.78126,-110.92558
"Cactus Jack","The Cone Bouldering > Swett Hills > Cedar City > Southwest Utah > Utah",https://www.mountainproject.com/route/118653312/cactus-jack,3.0,-1,Boulder,V5,1,12,37.63609,-113.27498
Unknown,"Triangle Boulder > Andy's Wash > Triassic > Central Utah > Utah",https://www.mountainproject.com/route/121519991/unknown,3.0,-1,Boulder,V5,1,12,39.32767,-110.74739
"Boston Girls","The Saloon > Axe Handle Canyon > Central Utah > Utah",https://www.mountainproject.com/route/119869529/boston-girls,3.0,-1,Boulder,V5,1,15,39.40471,-111.68157
"Glass Sloper","Spirit Walker Cave > Upper Boulder Field > Ogden Boulder Field > Ogden > Northern Wasatch > Wasatch Range > Utah",https://www.mountainproject.com/route/111333327/glass-sloper,3.0,-1,Boulder,V5,1,,41.21752,-111.92429
"Pure Abstraction","Delta Peoples Spring > Bouldering > Ibex > West Desert > Utah",https://www.mountainproject.com/route/116810080/pure-abstraction,3.0,-1,Boulder,V5,1,12,39.18084,-113.45377
"Lazy Off","Eon Blue Zone > Triassic > Central Utah > Utah",https://www.mountainproject.com/route/120039314/lazy-off,3.0,-1,Boulder,V5,1,,39.3264,-110.75047
"Moonrise Kingdom","The Crackity Project > Upper Jones Valley > Moe's Valley > Saint George > Southwest Utah > Utah",https://www.mountainproject.com/route/118590610/moonrise-kingdom,3.0,-1,Boulder,"V5 R",1,30,37.06522,-113.63456
I.C.,"Eon Blue Zone > Triassic > Central Utah > Utah",https://www.mountainproject.com/route/120039224/ic,3.0,-1,Boulder,V5,1,,39.3264,-110.75047
"The God Slap","Rasta Wall > Pioneer Park > Saint George > Southwest Utah > Utah",https://www.mountainproject.com/route/118940790/the-god-slap,3.0,-1,Boulder,V5,1,16,37.11557,-113.57791
"Texas Heart Shot","The Power of Copenhagen > Jump for Jesus Area > 1. The Moon > 3. The Moon > Big Water Boulders > Glen Canyon > South Central Utah > Utah",https://www.mountainproject.com/route/119882903/texas-heart-shot,3.0,-1,Boulder,V5,1,15,37.09517,-111.64401
"One of the best, last, unclimbable climbs","Graveside Boulder > Graveside Matter Wall > Cedar Canyon > Cedar City > Southwest Utah > Utah",https://www.mountainproject.com/route/118703324/one-of-the-best-last-unclimbable-climbs,3.0,-1,Boulder,V5,1,18,37.61602,-112.93205
Neanderhole,"White Harlem > The Wash > Swett Hills > Cedar City > Southwest Utah > Utah",https://www.mountainproject.com/route/118779871/neanderhole,3.0,-1,Boulder,V5,1,15,37.64608,-113.27449
"Gary Coleman","White Harlem > The Wash > Swett Hills > Cedar City > Southwest Utah > Utah",https://www.mountainproject.com/route/118613171/gary-coleman,3.0,-1,Boulder,V5,1,12,37.64608,-113.27449
"Captain Hammer's Hammer","The Overlooker > Upper Jones Valley > Moe's Valley > Saint George > Southwest Utah > Utah",https://www.mountainproject.com/route/118590493/captain-hammers-hammer,3.0,-1,Boulder,"V5 R",1,,37.06454,-113.63549
"Unknown V5","East End Boulder > Land of a Thousand Boulders > Triassic > Central Utah > Utah",https://www.mountainproject.com/route/120092514/unknown-v5,3.0,-1,Boulder,V5,1,,39.33694,-110.74162
IHOg,"The Lab > The Wash > Swett Hills > Cedar City > Southwest Utah > Utah",https://www.mountainproject.com/route/118708592/ihog,3.0,-1,Boulder,V5,1,15,37.64581,-113.28248
"Gods Hand","Wave Boulder > Right Fork > Joe's Valley > Central Utah > Utah",https://www.mountainproject.com/route/110335864/gods-hand,3.0,-1,Boulder,"V5 PG13",1,14,39.33238,-111.19645
"Don't Break Your Promise","Pine Valley Bouldering > Pine Valley > Saint George > Southwest Utah > Utah",https://www.mountainproject.com/route/112800657/dont-break-your-promise,3.0,-1,Boulder,V5,1,10,37.67524,-113.78099
"Moons of Uranus","Uranus Boulder > 3.Uranus Area > 4. The Thirsty Dogs > Big Water Boulders > Glen Canyon > South Central Utah > Utah",https://www.mountainproject.com/route/114227110/moons-of-uranus,3.0,-1,Boulder,V5,1,14,37.08696,-111.5821
"Kopavi Traverse","Roof Boulder > The Roof Area > D. 2nd Roadside Pullout > 1. Roadside Boulders > Big Water Boulders > Glen Canyon > South Central Utah > Utah",https://www.mountainproject.com/route/112189815/kopavi-traverse,2.8,-1,Boulder,V5,1,20,37.06825,-111.60575
"Cow Pies Direct","North CRC > Cap Rock City > Grand Staircase > South Central Utah > Utah",https://www.mountainproject.com/route/110225388/cow-pies-direct,3.0,-1,Boulder,V5,1,13,37.16642,-111.91273
Iconoclast,"Martyr Boulder > The Wash > Garth Rocks > Saint George > Southwest Utah > Utah",https://www.mountainproject.com/route/110106500/iconoclast,3.0,-1,Boulder,V5,1,,37.04607,-113.51651
"the cube","The Notch > West Nephi Boulders > Nephi > Central Utah > Utah",https://www.mountainproject.com/route/107064155/the-cube,3.0,-1,Boulder,V5,1,,39.65401,-112.06942
"The Chode","The Chode > Corral Crags > Ibex > West Desert > Utah",https://www.mountainproject.com/route/108424351/the-chode,3.0,-1,"Sport, Boulder","5.12b V5",1,25,38.98635,-113.39131
Azkaban,"Table Top Boulder > Scattered Boulders Area > Garth Rocks > Saint George > Southwest Utah > Utah",https://www.mountainproject.com/route/110106185/azkaban,3.0,-1,Boulder,V5,1,,37.04889,-113.51212
"Butter Toes","Petrified Boulder > Scattered Boulders Area > Garth Rocks > Saint George > Southwest Utah > Utah",https://www.mountainproject.com/route/110088624/butter-toes,3.0,-1,Boulder,V5,1,,37.04762,-113.5133
"Cannoli Bee","Counter Clockwork > Right Fork > Joe's Valley > Central Utah > Utah",https://www.mountainproject.com/route/123368287/cannoli-bee,3.0,-1,Boulder,V5,1,11,39.30561,-111.18392
"Tape Worm","The Sandbox > Left Fork > Joe's Valley > Central Utah > Utah",https://www.mountainproject.com/route/108100336/tape-worm,2.6,-1,Boulder,V5,1,12,39.27821,-111.22632
Salad,"Fat Albert Boulder > Cabbage Patch > Boulders - Little Cottonwood > Little Cottonwood Canyon > Central Wasatch > Wasatch Range > Utah",https://www.mountainproject.com/route/117259657/salad,2.0,-1,Boulder,V5,1,8,40.57213,-111.76975
"The Conqueror","Pack Rat Boulder > Sentinel Area > Moe's Valley > Saint George > Southwest Utah > Utah",https://www.mountainproject.com/route/116704983/the-conqueror,2.2,-1,Boulder,V5,1,,37.06941,-113.62741
"Bored Stiff","Fat Grips Boulder > Secret Garden > Boulders - Little Cottonwood > Little Cottonwood Canyon > Central Wasatch > Wasatch Range > Utah",https://www.mountainproject.com/route/109439302/bored-stiff,2.5,-1,Boulder,V5,1,10,40.5728,-111.7719
"Jack's Arete","Ripple > Tee Pee Area > Moe's Valley > Saint George > Southwest Utah > Utah",https://www.mountainproject.com/route/114079866/jacks-arete,2.3,-1,Boulder,V5,1,,37.0657,-113.63044
"Tahoe Pocket","Tahoe Simulator > Brighton Boulders > Brighton Area > Big Cottonwood Canyon > Central Wasatch > Wasatch Range > Utah",https://www.mountainproject.com/route/120546776/tahoe-pocket,2.8,-1,Boulder,V5,1,15,40.58974,-111.58718
"Boone's Bane","Boone's Bane Boulders > Cabbage Patch > Boulders - Little Cottonwood > Little Cottonwood Canyon > Central Wasatch > Wasatch Range > Utah",https://www.mountainproject.com/route/114271881/boones-bane,2.6,-1,Boulder,V5,1,6,40.57218,-111.76973
"Bowling Shoes","Buoux Area > Right Fork > Joe's Valley > Central Utah > Utah",https://www.mountainproject.com/route/121564010/bowling-shoes,3.0,-1,Boulder,V5,1,12,39.30718,-111.18428
"Blue Shift","Lens Flare > Boulders - Little Cottonwood > Little Cottonwood Canyon > Central Wasatch > Wasatch Range > Utah",https://www.mountainproject.com/route/118775779/blue-shift,2.8,-1,Boulder,V5,1,10,40.57157,-111.73405
Titian,"Raiden Area > Left Fork > Joe's Valley > Central Utah > Utah",https://www.mountainproject.com/route/118875588/titian,2.6,-1,Boulder,V5,1,15,39.2818,-111.23203
"Tiger Shark","Man Size > Right Fork > Joe's Valley > Central Utah > Utah",https://www.mountainproject.com/route/122495142/tiger-shark,2.8,-1,Boulder,V5,1,15,39.28916,-111.18067
"Turtle Bomb","Turtle Boulder > Mario Land > Moe's Valley > Saint George > Southwest Utah > Utah",https://www.mountainproject.com/route/120177562/turtle-bomb,2.7,-1,Boulder,V5,1,,37.07838,-113.63025
"Kyram's Problem","The Asteroid > Bouldering > Hobble Creek Canyon > Southern Wasatch > Wasatch Range > Utah",https://www.mountainproject.com/route/108466293/kyrams-problem,2.7,-1,Boulder,V5,1,15,40.18432,-111.46522
"Blind Spot Campus","Tanners Flat North > Boulders - Little Cottonwood > Little Cottonwood Canyon > Central Wasatch > Wasatch Range > Utah",https://www.mountainproject.com/route/118771707/blind-spot-campus,2.5,-1,Boulder,V5,1,12,40.57089,-111.7029
"Unknown Arete","Mine Cart Area > Left Fork > Joe's Valley > Central Utah > Utah",https://www.mountainproject.com/route/121639608/unknown-arete,2.5,-1,Boulder,V5,1,8,39.27542,-111.20602
"Rub My Butt","The Block > Secret Garden > Boulders - Little Cottonwood > Little Cottonwood Canyon > Central Wasatch > Wasatch Range > Utah",https://www.mountainproject.com/route/111333794/rub-my-butt,2.3,-1,Boulder,V5,1,,40.57259,-111.7721
Epidemic,"The Flu > Right Fork > Joe's Valley > Central Utah > Utah",https://www.mountainproject.com/route/117780402/epidemic,1.9,-1,Boulder,V5,1,,39.30035,-111.17682
Cuticle,"Cuticle > Red Monster Area > Bouldering > Ibex > West Desert > Utah",https://www.mountainproject.com/route/120454713/cuticle,2.7,-1,Boulder,V5,1,8,38.9923,-113.38829
"Sloping seconds","The Bowling Ball > North Wash Bouldering > Bowling Alley > Cedar Canyon > Cedar City > Southwest Utah > Utah",https://www.mountainproject.com/route/106558588/sloping-seconds,2.8,-1,Boulder,V5,1,15,37.6723,-113.037
"no hug","Little Rock Canyon Boulders > Southern Wasatch > Wasatch Range > Utah",https://www.mountainproject.com/route/107062618/no-hug,2.5,-1,Boulder,V5,1,,40.28631,-111.62835
"Ring Worm","The Sandbox > Left Fork > Joe's Valley > Central Utah > Utah",https://www.mountainproject.com/route/108100329/ring-worm,2.3,-1,Boulder,V5,1,10,39.27821,-111.22632
"East Face Traverse","House Boulder > American Fork Canyon > Southern Wasatch > Wasatch Range > Utah",https://www.mountainproject.com/route/118070144/east-face-traverse,2.5,-1,Boulder,V5,1,15,40.44441,-111.70069
"Tooth Traverse","The Tooth > Lower Boulder Field > Ogden Boulder Field > Ogden > Northern Wasatch > Wasatch Range > Utah",https://www.mountainproject.com/route/108077536/tooth-traverse,2.4,-1,Boulder,V5,1,,41.22003,-111.92833
Rubadubba,"Lower Hillside > Right Fork > Joe's Valley > Central Utah > Utah",https://www.mountainproject.com/route/108137702/rubadubba,2.1,-1,Boulder,V5,1,,39.32766,-111.19052
Lucky,"Alzheimer's Boulder > Far Side > Boulders - Little Cottonwood > Little Cottonwood Canyon > Central Wasatch > Wasatch Range > Utah",https://www.mountainproject.com/route/118667441/lucky,2.5,-1,Boulder,V5,1,15,40.57067,-111.75613
Green,"The Wasatch Resort > Boulders - Little Cottonwood > Little Cottonwood Canyon > Central Wasatch > Wasatch Range > Utah",https://www.mountainproject.com/route/121601906/green,2.5,-1,Boulder,V5,1,25,40.56959,-111.76613
Bilbo,"Mammoth Boulder > Gate Boulders > Boulders - Little Cottonwood > Little Cottonwood Canyon > Central Wasatch > Wasatch Range > Utah",https://www.mountainproject.com/route/115415831/bilbo,2.5,-1,Boulder,V5,1,8,40.57255,-111.75288
Bellafonte,"Big Boy Area > Moe's Valley > Saint George > Southwest Utah > Utah",https://www.mountainproject.com/route/121948601/bellafonte,2.4,-1,Boulder,V5,1,,37.06953,-113.63394
"Air Jordan Run Start","Air Jordan Boulder > Boulders - Little Cottonwood > Little Cottonwood Canyon > Central Wasatch > Wasatch Range > Utah",https://www.mountainproject.com/route/122615259/air-jordan-run-start,2.5,-1,Boulder,V5,1,12,40.57194,-111.74712
"Unknown Arete","Ledge C Boulders > Kane Springs Canyon > Southeast Utah > Utah",https://www.mountainproject.com/route/114082975/unknown-arete,2.5,-1,Boulder,V5,1,13,38.4796,-109.60089
Barney,"Flintstones > Cart Bridge Boulders > Flaming Gorge > Northeast Utah > Utah",https://www.mountainproject.com/route/113020368/barney,2.5,-1,Boulder,V5,1,,40.9109,-109.43654
Deception,"Restroom Boulder > Parking Lot Area > Boulders - Little Cottonwood > Little Cottonwood Canyon > Central Wasatch > Wasatch Range > Utah",https://www.mountainproject.com/route/107867617/deception,2.0,-1,Boulder,V5,1,9,40.57245,-111.77451
"Turd Crimper","Chip and Dale > New Joe's > Joe's Valley > Central Utah > Utah",https://www.mountainproject.com/route/121557556/turd-crimper,2.3,-1,Boulder,V5,1,,39.30838,-111.11474
"Misty Flip","Citizen Dildo Boulder > Warm-up Area > White Pine South > White Pine Boulders > Boulders - Little Cottonwood > Little Cottonwood Canyon > Central Wasatch > Wasatch Range > Utah",https://www.mountainproject.com/route/118930324/misty-flip,2.3,-1,Boulder,V5,1,8,40.57388,-111.69012
"Kiki Wow","Man Size > Right Fork > Joe's Valley > Central Utah > Utah",https://www.mountainproject.com/route/111716719/kiki-wow,2.5,-1,Boulder,V5,1,,39.28916,-111.18067
"Gygi Traverse","Cliffside Boulder > Lower Boulder Field > Ogden Boulder Field > Ogden > Northern Wasatch > Wasatch Range > Utah",https://www.mountainproject.com/route/108263003/gygi-traverse,2.6,-1,Boulder,V5,1,,41.21859,-111.92808
"Lizard King","Crack Boulder > Left Fork > Joe's Valley > Central Utah > Utah",https://www.mountainproject.com/route/112476260/lizard-king,2.2,-1,Boulder,V5,1,,39.27402,-111.19141
"Baby's Got Bigger Biceps","Baby's Got Biceps Boulder > Price Canyon > Central Utah > Utah",https://www.mountainproject.com/route/107869610/babys-got-bigger-biceps,2.0,-1,Boulder,V5,1,9,39.78091,-110.92513
"Undercling Problem (aka Underclingaring)","White Pine Chutes > White Pine Boulders > Boulders - Little Cottonwood > Little Cottonwood Canyon > Central Wasatch > Wasatch Range > Utah",https://www.mountainproject.com/route/118593630/undercling-problem-aka-underclingaring,2.2,-1,Boulder,V5,1,9,40.57529,-111.69487
Rightball,"House Boulder > American Fork Canyon > Southern Wasatch > Wasatch Range > Utah",https://www.mountainproject.com/route/107686851/rightball,2.2,-1,Boulder,V5,1,13,40.44441,-111.70069
"A War WIth Nature","Minute Man > Right Fork > Joe's Valley > Central Utah > Utah",https://www.mountainproject.com/route/108982887/a-war-with-nature,1.9,-1,Boulder,V5,1,10,39.32674,-111.19088
"Cheap Thrills Direct","South-West End/Pink Lady Area > Moe's Valley > Saint George > Southwest Utah > Utah",https://www.mountainproject.com/route/118044037/cheap-thrills-direct,1.5,-1,Boulder,V5,1,10,37.06494,-113.63155
"Timber right","Farside > Far Side > Boulders - Little Cottonwood > Little Cottonwood Canyon > Central Wasatch > Wasatch Range > Utah",https://www.mountainproject.com/route/121603901/timber-right,2.0,-1,Boulder,"V5 PG13",1,8,40.57069,-111.75683
"Pocket Rocket","Message of Violence Boulder > Central Area > White Pine North > White Pine Boulders > Boulders - Little Cottonwood > Little Cottonwood Canyon > Central Wasatch > Wasatch Range > Utah",https://www.mountainproject.com/route/121539047/pocket-rocket,2.0,-1,Boulder,V5,1,10,40.57734,-111.68891
S'Notrail,"South-West End/Pink Lady Area > Moe's Valley > Saint George > Southwest Utah > Utah",https://www.mountainproject.com/route/114080027/snotrail,2.0,-1,Boulder,V5,1,,37.06494,-113.63155
"Iron Sisters","Heaven's Forge > Fallen Angel Bouldering > Knightland Bouldering > Knightland > Left Hand Fork > Blacksmith Fork Canyon > Cache Valley > Northern Wasatch > Wasatch Range > Utah",https://www.mountainproject.com/route/114408329/iron-sisters,2.0,-1,Boulder,V5,1,9,41.65521,-111.69401
"Von Shtupp","3. Blazing Saddles Boulder > A. 1st Roadside Pullout > 1. Roadside Boulders > Big Water Boulders > Glen Canyon > South Central Utah > Utah",https://www.mountainproject.com/route/113102710/von-shtupp,2.0,-1,Boulder,V5,1,15,37.06806,-111.6082
"SW Direct","Flannigan Boulder > Cedar Slide Bouldering > Cedar Canyon > Cedar City > Southwest Utah > Utah",https://www.mountainproject.com/route/107107879/sw-direct,2.0,-1,Boulder,V5,1,,37.61602,-112.93205
Sleastak,"Moose Boulders > White Pine South > White Pine Boulders > Boulders - Little Cottonwood > Little Cottonwood Canyon > Central Wasatch > Wasatch Range > Utah",https://www.mountainproject.com/route/119735083/sleastak,2.2,-1,Boulder,V5,1,,40.57332,-111.68608
"Snake Pit","The Perimeter > Right Fork > Joe's Valley > Central Utah > Utah",https://www.mountainproject.com/route/111226102/snake-pit,1.3,-1,Boulder,V5,1,12,39.3136,-111.1871
"Smooth Only","Bonezone Boulders > Brighton Boulders > Brighton Area > Big Cottonwood Canyon > Central Wasatch > Wasatch Range > Utah",https://www.mountainproject.com/route/123084382/smooth-only,1.8,-1,Boulder,V5,1,12,40.59678,-111.58775
"Busy Wizard V5","Toadstool > Mario Land > Moe's Valley > Saint George > Southwest Utah > Utah",https://www.mountainproject.com/route/112524335/busy-wizard-v5,2.0,-1,Boulder,V5,1,15,37.07794,-113.6307
"Ten Dollar Founding Father","Nurse Pilbow Boulder > South Cukoo's > 5. The Cukoo's Nest > A. 1st Roadside Pullout > 1. Roadside Boulders > Big Water Boulders > Glen Canyon > South Central Utah > Utah",https://www.mountainproject.com/route/112235131/ten-dollar-founding-father,2.0,-1,Boulder,V5,1,15,37.06854,-111.60818
"NBA Blues","Ring Toss Boulder > Party Pit Area > White Pine South > White Pine Boulders > Boulders - Little Cottonwood > Little Cottonwood Canyon > Central Wasatch > Wasatch Range > Utah",https://www.mountainproject.com/route/122664477/nba-blues,2.0,-1,Boulder,V5,1,10,40.5735,-111.68798
"Hidden Dragon","Pocket Boulder > Bouldering > Rock Canyon > Southern Wasatch > Wasatch Range > Utah",https://www.mountainproject.com/route/109463543/hidden-dragon,2.0,-1,Boulder,V5,1,11,40.2653,-111.6197
"Petite Syrah","Lost and Found > Boulders - Little Cottonwood > Little Cottonwood Canyon > Central Wasatch > Wasatch Range > Utah",https://www.mountainproject.com/route/118789180/petite-syrah,2.0,-1,Boulder,V5,1,10,40.57205,-111.7473
"Moe's With The Hoes","Backhoe > Moe's Valley > Saint George > Southwest Utah > Utah",https://www.mountainproject.com/route/122080917/moes-with-the-hoes,2.3,-1,Boulder,V5,1,,37.06579,-113.63105
"Bitches Bail","The Hulk > Right Fork > Joe's Valley > Central Utah > Utah",https://www.mountainproject.com/route/119210170/bitches-bail,2.0,-1,Boulder,"V5 PG13",1,,39.32889,-111.19299
"Creature of Habit","The Wasatch Resort > Boulders - Little Cottonwood > Little Cottonwood Canyon > Central Wasatch > Wasatch Range > Utah",https://www.mountainproject.com/route/119346965/creature-of-habit,2.0,-1,Boulder,V5,1,8,40.56959,-111.76613
"The Minch Wide Start","Cynthia's Boulder > Central Area > White Pine North > White Pine Boulders > Boulders - Little Cottonwood > Little Cottonwood Canyon > Central Wasatch > Wasatch Range > Utah",https://www.mountainproject.com/route/121340908/the-minch-wide-start,2.3,-1,Boulder,V5,1,10,40.57695,-111.68806
"Low Steaks","The Bullwinkle Boulder > South Side Boulders > Dry Creek > Southern Wasatch > Wasatch Range > Utah",https://www.mountainproject.com/route/123046924/low-steaks,2.0,-1,Boulder,V5,1,,40.48414,-111.7473
"Next Gen","Beach/Meatbag > Moe's Valley > Saint George > Southwest Utah > Utah",https://www.mountainproject.com/route/116385645/next-gen,2.0,-1,Boulder,V5,1,12,37.06398,-113.63438
"Treeble People","UMWA Boulder > Right Fork > Joe's Valley > Central Utah > Utah",https://www.mountainproject.com/route/122142343/treeble-people,2.0,-1,Boulder,V5,1,15,39.30349,-111.18319
"Bull Rider","South-West End/Pink Lady Area > Moe's Valley > Saint George > Southwest Utah > Utah",https://www.mountainproject.com/route/121896263/bull-rider,2.0,-1,Boulder,V5,1,40,37.06494,-113.63155
Taddy,".E.N.M > Lower Boulder Field > Ogden Boulder Field > Ogden > Northern Wasatch > Wasatch Range > Utah",https://www.mountainproject.com/route/118322848/taddy,2.0,-1,Boulder,V5,1,12,41.22156,-111.9272
"Cool Kids Club","Campsite 7 Bouldering > Green Canyon Bouldering > Green Canyon > Cache Valley > Northern Wasatch > Wasatch Range > Utah",https://www.mountainproject.com/route/122978432/cool-kids-club,1.3,-1,Boulder,V5,1,12,41.77157,-111.74427
"The Melon","The Warm Up Boulder > Red Monster Area > Bouldering > Ibex > West Desert > Utah",https://www.mountainproject.com/route/122185731/the-melon,1.7,-1,Boulder,V5,1,7,38.99187,-113.38838
"Gonzo Nose","Gonzo Boulder > Guardsman > Wasatch Back > Wasatch Range > Utah",https://www.mountainproject.com/route/121381398/gonzo-nose,2.0,-1,Boulder,V5,1,12,40.59548,-111.54842
"Hollow Flyer","South-West End/Pink Lady Area > Moe's Valley > Saint George > Southwest Utah > Utah",https://www.mountainproject.com/route/112512568/hollow-flyer,2.0,-1,Boulder,V5,1,,37.06494,-113.63155
"Something Saucy","Up the Hill > East Gate Boulders > Gate Boulders > Boulders - Little Cottonwood > Little Cottonwood Canyon > Central Wasatch > Wasatch Range > Utah",https://www.mountainproject.com/route/119619733/something-saucy,2.0,-1,Boulder,V5,1,10,40.5724,-111.7519
"The Bear Jew","Loose Boulders > Upper Jones Valley > Moe's Valley > Saint George > Southwest Utah > Utah",https://www.mountainproject.com/route/118590931/the-bear-jew,2.0,-1,Boulder,V5,1,25,37.0653,-113.63456
Flapper,"Dark Boulder > The Land That Time Forgot > Triassic > Central Utah > Utah",https://www.mountainproject.com/route/116619573/flapper,2.0,-1,Boulder,V5,1,,39.32814,-110.75314
"Draco Sephius Border","The Asteroid > Springfield > Bunker Creek > Brian Head > Southwest Utah > Utah",https://www.mountainproject.com/route/119226800/draco-sephius-border,2.0,-1,Boulder,V5,1,18,37.70466,-112.67936
Unknown,"West Cat Daddy > Golden Ladle > Triassic > Central Utah > Utah",https://www.mountainproject.com/route/121747245/unknown,2.0,-1,Boulder,V5,1,8,39.33365,-110.73904
Jones,"The Crackity Project > Upper Jones Valley > Moe's Valley > Saint George > Southwest Utah > Utah",https://www.mountainproject.com/route/118590647/jones,2.0,-1,Boulder,"V5 PG13",1,,37.06522,-113.63456
"Bottle Rocket","The Overlooker > Upper Jones Valley > Moe's Valley > Saint George > Southwest Utah > Utah",https://www.mountainproject.com/route/118590451/bottle-rocket,2.0,-1,Boulder,"V5 R",1,30,37.06454,-113.63549
"Lady Tremaine","Spirit Walker Cave > Upper Boulder Field > Ogden Boulder Field > Ogden > Northern Wasatch > Wasatch Range > Utah",https://www.mountainproject.com/route/111333615/lady-tremaine,2.0,-1,Boulder,V5,1,,41.21752,-111.92429
Rifter,"Loose Boulders > Upper Jones Valley > Moe's Valley > Saint George > Southwest Utah > Utah",https://www.mountainproject.com/route/118590915/rifter,2.0,-1,Boulder,"V5 R",1,25,37.0653,-113.63456
"Crab King","Snowshoe Hill boulder (Catherine Pass) > Boulders - Little Cottonwood > Little Cottonwood Canyon > Central Wasatch > Wasatch Range > Utah",https://www.mountainproject.com/route/122805653/crab-king,2.0,-1,Boulder,V5,1,15,40.58155,-111.60256
"Miss Bennett","Top of the Hill > The Mound > Swett Hills > Cedar City > Southwest Utah > Utah",https://www.mountainproject.com/route/118706154/miss-bennett,2.0,-1,Boulder,V5,1,14,37.66694,-113.26472
"Pharaoh's Demise","Genesis Boulders > Brighton Boulders > Brighton Area > Big Cottonwood Canyon > Central Wasatch > Wasatch Range > Utah",https://www.mountainproject.com/route/122835225/pharaohs-demise,2.0,-1,Boulder,V5,1,15,40.58948,-111.59126
"Down N' Dirty","Crazy Boulder > Land of a Thousand Boulders > Triassic > Central Utah > Utah",https://www.mountainproject.com/route/106362298/down-n-dirty,2.0,-1,Boulder,V5,1,25,39.33698,-110.74286
"Bear Hug","Broken Heart Boulder > Scattered Boulders Area > Garth Rocks > Saint George > Southwest Utah > Utah",https://www.mountainproject.com/route/110105988/bear-hug,2.0,-1,Boulder,V5,1,,37.04769,-113.51248
Oblivious,"7 Mile Marker > Left Fork > Joe's Valley > Central Utah > Utah",https://www.mountainproject.com/route/118045322/oblivious,1.8,-1,Boulder,V5,1,7,39.28061,-111.23033
DUH,"Hidden Forest > Boulders - Little Cottonwood > Little Cottonwood Canyon > Central Wasatch > Wasatch Range > Utah",https://www.mountainproject.com/route/119424248/duh,1.9,-1,Boulder,V5,1,,40.57014,-111.73974
"The Danger 5","Danger 5 Boulder > Junk Yard > Garth Rocks > Saint George > Southwest Utah > Utah",https://www.mountainproject.com/route/110209263/the-danger-5,1.7,-1,Boulder,V5,1,,37.04123,-113.52442
"Heel Hook Mastery","Sparks Wall > Indian Creek > Southeast Utah > Utah",https://www.mountainproject.com/route/114358678/heel-hook-mastery,1.5,-1,Boulder,"5.8 V5 R",1,20,38.04022,-109.59149
"Slow Loris","Man Size > Right Fork > Joe's Valley > Central Utah > Utah",https://www.mountainproject.com/route/114227609/slow-loris,1.5,-1,Boulder,V5,1,,39.28916,-111.18067
"La Rose et le Joes","Man Size > Right Fork > Joe's Valley > Central Utah > Utah",https://www.mountainproject.com/route/114150837/la-rose-et-le-joes,1.5,-1,Boulder,V5,1,12,39.28916,-111.18067
"Alt Right","Boy Size (Provo Area) > Right Fork > Joe's Valley > Central Utah > Utah",https://www.mountainproject.com/route/112780013/alt-right,1.5,-1,Boulder,V5,1,12,39.28806,-111.17621
"Funk Haus","Bonezone Boulders > Brighton Boulders > Brighton Area > Big Cottonwood Canyon > Central Wasatch > Wasatch Range > Utah",https://www.mountainproject.com/route/123084423/funk-haus,1.8,-1,Boulder,V5,1,12,40.59678,-111.58775
Bollo,"The Convent > Pioneer Park > Saint George > Southwest Utah > Utah",https://www.mountainproject.com/route/113836772/bollo,1.5,-1,Boulder,"V5 PG13",1,20,37.11536,-113.57725
"cable grind","Cable Grind Boulder > New Joe's > Joe's Valley > Central Utah > Utah",https://www.mountainproject.com/route/107061393/cable-grind,1.5,-1,Boulder,V5,1,,39.30961,-111.11551
"Tree Straddler","The Great Divide > White Pine TH > Boulders - Little Cottonwood > Little Cottonwood Canyon > Central Wasatch > Wasatch Range > Utah",https://www.mountainproject.com/route/119257656/tree-straddler,1.0,-1,Boulder,V5,1,,40.57855,-111.68125
Kools,"Ragnarock > The Wash > Swett Hills > Cedar City > Southwest Utah > Utah",https://www.mountainproject.com/route/117701315/kools,1.0,-1,Boulder,V5,1,10,37.64602,-113.27377
"Right Bulge","Other boulders > Shark's Tooth Area > Outer Canyon > Boulders - Little Cottonwood > Little Cottonwood Canyon > Central Wasatch > Wasatch Range > Utah",https://www.mountainproject.com/route/105802150/right-bulge,1.8,-1,Boulder,V5,1,15,40.5805,-111.789
"Bongo Drum","Farside > Far Side > Boulders - Little Cottonwood > Little Cottonwood Canyon > Central Wasatch > Wasatch Range > Utah",https://www.mountainproject.com/route/119143250/bongo-drum,1.0,-1,Boulder,V5,1,7,40.57069,-111.75683
"Unknown Roof","The Wasatch Resort > Boulders - Little Cottonwood > Little Cottonwood Canyon > Central Wasatch > Wasatch Range > Utah",https://www.mountainproject.com/route/122423119/unknown-roof,1.0,-1,Boulder,"V5 PG13",1,7,40.56959,-111.76613
"Moss Crack","The Wasatch Resort > Boulders - Little Cottonwood > Little Cottonwood Canyon > Central Wasatch > Wasatch Range > Utah",https://www.mountainproject.com/route/118727084/moss-crack,1.0,-1,Boulder,V5,1,12,40.56959,-111.76613
"The Worm","Big Boy Area > Moe's Valley > Saint George > Southwest Utah > Utah",https://www.mountainproject.com/route/121948638/the-worm,1.0,-1,Boulder,V5,1,,37.06953,-113.63394
"Beedrill Direct","Black Rocks Boulders > Black Rocks > Saint George > Southwest Utah > Utah",https://www.mountainproject.com/route/123659820/beedrill-direct,3.0,-1,Boulder,V5,1,12,37.15516,-113.6076
"Luke diamond","Monkey Boy Area > Moe's Valley > Saint George > Southwest Utah > Utah",https://www.mountainproject.com/route/123792924/luke-diamond,2.5,-1,Boulder,V5,1,14,37.06753,-113.63276
Regulators,"Record Deal Boulder > Mario Land > Moe's Valley > Saint George > Southwest Utah > Utah",https://www.mountainproject.com/route/123859210/regulators,3.0,-1,Boulder,V5,1,15,37.07653,-113.63141
"Backhoe Right / Middle Link Up Variation (A.K.A. Wompa Stopma)","Backhoe > Moe's Valley > Saint George > Southwest Utah > Utah",https://www.mountainproject.com/route/123926663/backhoe-right-middle-link-up-variation-aka-wompa-stopma,2.3,-1,Boulder,V5,1,10,37.06579,-113.63105
"Shorter Traverse","The Black Box > Big Bend Bouldering Area > River Road > Southeast Utah > Utah",https://www.mountainproject.com/route/123952264/shorter-traverse,2.8,-1,Boulder,V5,1,20,38.65078,-109.48395
"Rock Around","The DOJO Area > Big Cottonwood Canyon > Central Wasatch > Wasatch Range > Utah",https://www.mountainproject.com/route/124060892/rock-around,1.7,-1,Boulder,V5,1,14,40.62254,-111.74984
"City of Enoch","Snowmelt Vale > Oquirrh Mountains > West Desert > Utah",https://www.mountainproject.com/route/124102093/city-of-enoch,4.0,-1,Boulder,V5,1,8,40.47802,-112.02839
Draino,"Schoolroom Talus > Ogden Boulder Field > Ogden > Northern Wasatch > Wasatch Range > Utah",https://www.mountainproject.com/route/124108442/draino,3.0,-1,Boulder,V5,1,10,41.21964,-111.92581
"One Tree Tall","Dairy Canyon > Right Fork > Joe's Valley > Central Utah > Utah",https://www.mountainproject.com/route/124324575/one-tree-tall,4.0,-1,Boulder,V5,1,18,39.3721,-111.22236
Kneeling,"Subdivided Boulders > Spring Canyon > Central Utah > Utah",https://www.mountainproject.com/route/124408702/kneeling,3.0,-1,Boulder,V5,1,15,39.68419,-110.86488
Rambler,"The Big Boulder > North Side Boulders > Dry Creek > Southern Wasatch > Wasatch Range > Utah",https://www.mountainproject.com/route/124454965/rambler,3.0,-1,Boulder,V5,1,14,40.48726,-111.74827
"Crawling out of the Whales Mouth","The Big Boulder > North Side Boulders > Dry Creek > Southern Wasatch > Wasatch Range > Utah",https://www.mountainproject.com/route/124454984/crawling-out-of-the-whales-mouth,2.0,-1,Boulder,V5,1,14,40.48726,-111.74827
"Choss and Awe","The Notch > West Nephi Boulders > Nephi > Central Utah > Utah",https://www.mountainproject.com/route/124474576/choss-and-awe,2.0,-1,Boulder,V5,1,18,39.65401,-112.06942
"Cleveland, Ethan","Little Rock Canyon Boulders > Southern Wasatch > Wasatch Range > Utah",https://www.mountainproject.com/route/124476092/cleveland-ethan,4.0,-1,Boulder,V5,2,,40.28631,-111.62835
Pipa,"The Notch > West Nephi Boulders > Nephi > Central Utah > Utah",https://www.mountainproject.com/route/124511613/pipa,4.0,-1,Boulder,V5,1,11,39.65401,-112.06942
"Cherry on Top","Cherry Creek Boulders > Cherry Creek Canyon > Cache Valley > Northern Wasatch > Wasatch Range > Utah",https://www.mountainproject.com/route/124671485/cherry-on-top,3.0,-1,Boulder,V5,1,15,41.9246,-111.7412
"Sesame Street Smarts","Stone Garden > Uinta Mountains > Northeast Utah > Utah",https://www.mountainproject.com/route/124849680/sesame-street-smarts,3.0,-1,Boulder,V5,1,,40.74985,-110.87912
"Persistently Weak Slayer","Avalanche Boulder > White Pine North > White Pine Boulders > Boulders - Little Cottonwood > Little Cottonwood Canyon > Central Wasatch > Wasatch Range > Utah",https://www.mountainproject.com/route/124939147/persistently-weak-slayer,3.0,-1,Boulder,V5,1,6,40.57568,-111.68935
"Orange Crush","The Notch > West Nephi Boulders > Nephi > Central Utah > Utah",https://www.mountainproject.com/route/125036744/orange-crush,3.0,-1,Boulder,V5,1,,39.65401,-112.06942
"Everest (aka Sagarmatha)","8 Mile Area > Left Fork > Joe's Valley > Central Utah > Utah",https://www.mountainproject.com/route/125141442/everest-aka-sagarmatha,3.7,-1,Boulder,V5,1,10,39.27472,-111.21383
"Fucoidal Girdle Traverse","Fucoidal Quartzite > Logan Canyon > Cache Valley > Northern Wasatch > Wasatch Range > Utah",https://www.mountainproject.com/route/125179941/fucoidal-girdle-traverse,3.0,-1,Boulder,V5,1,500,41.78063,-111.64374
"Sharp Shooter","Mine Cart Area > Left Fork > Joe's Valley > Central Utah > Utah",https://www.mountainproject.com/route/125195471/sharp-shooter,2.8,-1,Boulder,V5,1,10,39.27542,-111.20602
"Jed's Jr.","Bike Trail Boulder > Green Canyon Bouldering > Green Canyon > Cache Valley > Northern Wasatch > Wasatch Range > Utah",https://www.mountainproject.com/route/125196182/jeds-jr,3.0,-1,Boulder,V5,1,16,41.77139,-111.74463
"Preaching to the Choir Sit","Mine Cart Area > Left Fork > Joe's Valley > Central Utah > Utah",https://www.mountainproject.com/route/125410007/preaching-to-the-choir-sit,2.0,-1,Boulder,V5,1,10,39.27542,-111.20602
Drunkula,"Army of Darkness Boulder > Big Bend Bouldering Area > River Road > Southeast Utah > Utah",https://www.mountainproject.com/route/125451724/drunkula,3.0,-1,Boulder,V5,1,10,38.65078,-109.48395
"Domestic Precision","Browse > Saint George > Southwest Utah > Utah",https://www.mountainproject.com/route/125513425/domestic-precision,2.0,-1,Boulder,V5,1,,37.34934,-113.32363
ASAP,"Browse > Saint George > Southwest Utah > Utah",https://www.mountainproject.com/route/125513473/asap,2.0,-1,Boulder,V5,1,,37.34934,-113.32363
Squirt,"Grandma's Hideout > Cottonwood Springs Bouldering > Saint George > Southwest Utah > Utah",https://www.mountainproject.com/route/125733721/squirt,4.0,-1,Boulder,V5,1,10,37.3023,-113.50867
Alific,"Raiden Area > Left Fork > Joe's Valley > Central Utah > Utah",https://www.mountainproject.com/route/125751018/alific,3.0,-1,Boulder,V5,1,10,39.2818,-111.23203
"The Gorn Crack","The Gorn > Upper Boulder Field > Ogden Boulder Field > Ogden > Northern Wasatch > Wasatch Range > Utah",https://www.mountainproject.com/route/124117341/the-gorn-crack,2.0,-1,Boulder,V5,1,,41.2166,-111.92459
