Route,Location,URL,"Avg Stars","Your Stars","Route Type",Rating,Pitches,Length,"Area Latitude","Area Longitude"
"True Grit","True Grit Boulder > Contact Station Boulders > Contact Station Area > Grayson Highlands State Park > Southwest Virginia (Appalachia) > Virginia",https://www.mountainproject.com/route/106483563/true-grit,3.3,-1,Boulder,V5,1,10,36.61245,-81.48093
"Front Man","A.V.P. Boulder > A.V.P. Boulders > Boneyard Area > Grayson Highlands State Park > Southwest Virginia (Appalachia) > Virginia",https://www.mountainproject.com/route/106564590/front-man,3.8,-1,Boulder,V5,1,,36.61324,-81.49537
"Gumby Traverse","Gumby > The Forest > Blue Ridge Parkway > Charlottesville vicinity > Central & Southern VA Region > Virginia",https://www.mountainproject.com/route/120064324/gumby-traverse,3.3,-1,Boulder,V5,1,20,37.89468,-79.0483
"Justice for All","Casablanca Boulder > Casablanca Boulders > Casablanca Area > Mile Two Boulders > (2) Mile Two > Guest River Gorge > Southwest Virginia (Appalachia) > Virginia",https://www.mountainproject.com/route/115388795/justice-for-all,4.0,-1,Boulder,V5,1,18,36.91291,-82.44043
"Finite Element Analysis (FEA)","Finite Element Boulder > Finite Element Area > McAfee's Knob > Southwest Virginia (Appalachia) > Virginia",https://www.mountainproject.com/route/107087708/finite-element-analysis-fea,4.0,-1,Boulder,V5,1,12,37.39199,-80.03616
"Ambi-turner (stand)","Zoolander Boulder > Samurai Area > Mile Two Boulders > (2) Mile Two > Guest River Gorge > Southwest Virginia (Appalachia) > Virginia",https://www.mountainproject.com/route/109895210/ambi-turner-stand,4.0,-1,Boulder,V5,1,9,36.90032,-82.41947
"Palm Control","Chicken Breast Boulder > The Beach > Mill Creek > Southwest Virginia (Appalachia) > Virginia",https://www.mountainproject.com/route/118988014/palm-control,4.0,-1,Boulder,V5,1,,37.31345,-80.79462
"Trail Wolf","Trail Wolf Boulder > Camp Branch Trail > Breaks Bouldering > Breaks Interstate Park > Southwest Virginia (Appalachia) > Virginia",https://www.mountainproject.com/route/114142914/trail-wolf,4.0,-1,Boulder,V5,1,15,37.12844,-82.41344
"Holy Roller","Prayer Boulder > Samurai Area > Mile Two Boulders > (2) Mile Two > Guest River Gorge > Southwest Virginia (Appalachia) > Virginia",https://www.mountainproject.com/route/116978277/holy-roller,4.0,-1,Boulder,V5,1,20,36.89963,-82.42016
"Slippery When Wet","Nnelg Boulder > Nnelg > Mill Creek > Southwest Virginia (Appalachia) > Virginia",https://www.mountainproject.com/route/118989100/slippery-when-wet,4.0,-1,Boulder,V5,1,,37.31013,-80.79722
"Distant Lands","Far Cry Boulder > Left Blasters > Blaster Blocks > Keelowkee Lake > HKL West > High Knob Landform > Southwest Virginia (Appalachia) > Virginia",https://www.mountainproject.com/route/121283262/distant-lands,4.0,-1,Boulder,V5,1,10,36.91727,-82.64656
Fang,"Shark Fin Boulder > Center Lightside Bouldering > Center Lightside > Lightside > (6) Jaybird Gorge > Guest River Gorge > Southwest Virginia (Appalachia) > Virginia",https://www.mountainproject.com/route/115327395/fang,4.0,-1,Boulder,V5,1,14,36.89937,-82.41859
"El Horrendo","Horrendo Boulder > Right Blasters > Blaster Blocks > Keelowkee Lake > HKL West > High Knob Landform > Southwest Virginia (Appalachia) > Virginia",https://www.mountainproject.com/route/120536976/el-horrendo,4.0,-1,Boulder,V5,1,12,36.91727,-82.64657
Bouldergasm,"Bouldergasm > Stones > Harkening Hill > Southwest Virginia (Appalachia) > Virginia",https://www.mountainproject.com/route/107421978/bouldergasm,4.0,-1,Boulder,V5,1,18,37.46555,-79.60949
"New Kids On The Block","The Juicebox Boulder > The Buttermilks > Richmond Vicinity > Central & Southern VA Region > Virginia",https://www.mountainproject.com/route/122103115/new-kids-on-the-block,2.3,-1,Boulder,V5,1,18,37.52969,-77.48441
"Slope Surfer Direct","Buzzard Rocks > Elizabeth Furnace > Shenandoah & NW VA Region > Virginia",https://www.mountainproject.com/route/120535330/slope-surfer-direct,4.0,-1,Boulder,V5,1,10,38.9422,-78.3017
"Gypsy Woman","Hollow Point Boulder > The Buttermilks > Richmond Vicinity > Central & Southern VA Region > Virginia",https://www.mountainproject.com/route/120166615/gypsy-woman,3.5,-1,Boulder,V5,1,12,37.52971,-77.4865
"Unplanned Parenthood","Hells Belly Boulders > Wintergreen > Charlottesville vicinity > Central & Southern VA Region > Virginia",https://www.mountainproject.com/route/118160219/unplanned-parenthood,2.5,-1,Boulder,V5,1,18,37.90548,-78.93689
"The Freaking One (aka The Gnashing)","Baroness Boulder > Upper Deck > Harkening Hill > Southwest Virginia (Appalachia) > Virginia",https://www.mountainproject.com/route/116116119/the-freaking-one-aka-the-gnashing,4.0,-1,Boulder,V5,1,20,37.4558,-79.62027
"Orb Weaver","Royal Boulder > Stones > Harkening Hill > Southwest Virginia (Appalachia) > Virginia",https://www.mountainproject.com/route/116101478/orb-weaver,4.0,-1,Boulder,V5,1,15,37.46555,-79.60949
"Stained Glass","Pentagon Boulder > Casablanca Boulders > Casablanca Area > Mile Two Boulders > (2) Mile Two > Guest River Gorge > Southwest Virginia (Appalachia) > Virginia",https://www.mountainproject.com/route/115388779/stained-glass,4.0,-1,Boulder,V5,1,18,36.90657,-82.41947
"Any Beans Necessary","Beans & Rice Boulder > Devil's Marbleyard > Southwest Virginia (Appalachia) > Virginia",https://www.mountainproject.com/route/114061099/any-beans-necessary,4.0,-1,Boulder,V5,1,10,37.58136,-79.47177
"Drought of Luck","Drought Boulder > Boulder Garden > Mile Two Boulders > (2) Mile Two > Guest River Gorge > Southwest Virginia (Appalachia) > Virginia",https://www.mountainproject.com/route/121416397/drought-of-luck,4.0,-1,Boulder,V5,1,13,36.9003,-82.41947
"Midnight Frightening","Center Stage Boulder > Center Lightside Bouldering > Center Lightside > Lightside > (6) Jaybird Gorge > Guest River Gorge > Southwest Virginia (Appalachia) > Virginia",https://www.mountainproject.com/route/115420749/midnight-frightening,4.0,-1,Boulder,V5,1,18,36.89937,-82.4186
"High Strangeness","Shotgun Boulder > Upper Lightside Bouldering > Upper Lightside > Lightside > (6) Jaybird Gorge > Guest River Gorge > Southwest Virginia (Appalachia) > Virginia",https://www.mountainproject.com/route/120537247/high-strangeness,4.0,-1,Boulder,V5,1,15,36.89939,-82.41864
"Dream Work","Teamwork Boulder > Back Blasters > Blaster Blocks > Keelowkee Lake > HKL West > High Knob Landform > Southwest Virginia (Appalachia) > Virginia",https://www.mountainproject.com/route/121559994/dream-work,4.0,-1,Boulder,V5,1,11,36.91727,-82.64656
"Power Nap","Sleepy Boulder > Lower Lightside Bouldering > Lower Lightside > Lightside > (6) Jaybird Gorge > Guest River Gorge > Southwest Virginia (Appalachia) > Virginia",https://www.mountainproject.com/route/116643410/power-nap,4.0,-1,Boulder,V5,1,9,36.89937,-82.4186
"Wampus Cat","Wampus Boulder > Wampus Area > (7) Jaybird Mountain > Guest River Gorge > Southwest Virginia (Appalachia) > Virginia",https://www.mountainproject.com/route/122004400/wampus-cat,4.0,-1,Boulder,V5,1,25,36.89932,-82.41875
"Sheng Chi","Feng Shui Boulder > Center Darkside > Darkside > (6) Jaybird Gorge > Guest River Gorge > Southwest Virginia (Appalachia) > Virginia",https://www.mountainproject.com/route/118904988/sheng-chi,4.0,-1,Boulder,V5,1,13,36.90948,-82.45516
Collective,"Collective Boulder > Hemingway Boulders > Bearpen Boulders > ~M.R.N.R.A. > Grayson Highlands State Park > Southwest Virginia (Appalachia) > Virginia",https://www.mountainproject.com/route/112542744/collective,4.0,-1,Boulder,V5,1,13,36.62212,-81.51111
"Spice of Life","Spice Boulder > Mile 3 Boulders > (3) Mile Three > Guest River Gorge > Southwest Virginia (Appalachia) > Virginia",https://www.mountainproject.com/route/112266015/spice-of-life,4.0,-1,Boulder,"V5 PG13",1,20,36.9069,-82.41964
"Shoot for the Moon","Moonstone Boulder > Moonstone Area > Mile 1 Boulders > (1) Mile One > Guest River Gorge > Southwest Virginia (Appalachia) > Virginia",https://www.mountainproject.com/route/123097452/shoot-for-the-moon,4.0,-1,Boulder,V5,1,25,36.90071,-82.42116
"Sandy Slap","Spray Boulder > Main Boulder Area > Main Boulderfield Area > Bluefield Boulders > Southwest Virginia (Appalachia) > Virginia",https://www.mountainproject.com/route/106585590/sandy-slap,4.0,-1,Boulder,V5,1,9,36.65847,-81.53778
"Strength In Numbers","Front Wall > 1. Overlook Area > Listening Rock Trail > Grayson Highlands State Park > Southwest Virginia (Appalachia) > Virginia",https://www.mountainproject.com/route/107282573/strength-in-numbers,3.5,-1,Boulder,V5,1,15,36.62279,-81.50167
Geriasstrick,"Geriatric Boulder > Stones > Harkening Hill > Southwest Virginia (Appalachia) > Virginia",https://www.mountainproject.com/route/107422246/geriasstrick,3.7,-1,Boulder,V5,1,15,37.45621,-79.62003
"Never Have I Ever","Equinox Boulder > Luminary Area > Haw Orchard > Grayson Highlands State Park > Southwest Virginia (Appalachia) > Virginia",https://www.mountainproject.com/route/107496463/never-have-i-ever,3.7,-1,Boulder,V5,1,19,36.6185,-81.48122
"Blue Suede","Bouldering > Humpback Rock Picnic Area > Blue Ridge Parkway > Charlottesville vicinity > Central & Southern VA Region > Virginia",https://www.mountainproject.com/route/109896707/blue-suede,3.7,-1,Boulder,V5,1,,37.94465,-78.92955
"Flight or Fright","The Seance Area > AVO > Blue Ridge Parkway > Charlottesville vicinity > Central & Southern VA Region > Virginia",https://www.mountainproject.com/route/108089831/flight-or-fright,3.7,-1,Boulder,V5,1,25,37.53545,-79.49932
"Cupola Press","Cupola Boulder > Middle Boneyard > Boneyard Area > Grayson Highlands State Park > Southwest Virginia (Appalachia) > Virginia",https://www.mountainproject.com/route/106699542/cupola-press,3.5,-1,Boulder,V5,1,10,36.61184,-81.50138
"Holy Shitake","Mushroom Boulder > The Forest > Blue Ridge Parkway > Charlottesville vicinity > Central & Southern VA Region > Virginia",https://www.mountainproject.com/route/118812942/holy-shitake,3.1,-1,Boulder,V5,1,12,37.89244,-79.04531
"Gotta Really Want It","Big Boy > The Forest > Blue Ridge Parkway > Charlottesville vicinity > Central & Southern VA Region > Virginia",https://www.mountainproject.com/route/119697152/gotta-really-want-it,2.9,-1,Boulder,V5,1,17,37.89461,-79.04896
Yogi,"Bears Den Boulders > DC & Northern VA Region > Virginia",https://www.mountainproject.com/route/118705378/yogi,3.5,-1,Boulder,"V5 PG13",1,10,39.11193,-77.85641
"Bargain Bin Extension","Best Boulder In Charlottesville > Charlottesville vicinity > Central & Southern VA Region > Virginia",https://www.mountainproject.com/route/118689995/bargain-bin-extension,3.5,-1,Boulder,V5,1,20,38.02979,-78.55793
"Every Rose has its thorn","Poison Boulder > Bear cave area > Bouldering > Old Rag > Shenandoah National Park > Shenandoah & NW VA Region > Virginia",https://www.mountainproject.com/route/114010018/every-rose-has-its-thorn,3.5,-1,Boulder,V5,1,,38.55144,-78.303
"Moss Man","Jolly Green Giant Boulder > Waterfall Area > Mill Creek > Southwest Virginia (Appalachia) > Virginia",https://www.mountainproject.com/route/118988823/moss-man,3.5,-1,Boulder,V5,1,,37.30244,-80.79495
Knuckles,"Sega Roof Boulder > Genesis > Mill Creek > Southwest Virginia (Appalachia) > Virginia",https://www.mountainproject.com/route/119047149/knuckles,3.5,-1,Boulder,V5,1,12,37.30864,-80.79403
"Older and Boulder","Bouldergasm > Stones > Harkening Hill > Southwest Virginia (Appalachia) > Virginia",https://www.mountainproject.com/route/107421965/older-and-boulder,3.5,-1,Boulder,V5,1,15,37.46555,-79.60949
"Athos Arete","Olympus Boulder > Picnic Area Boulders > Picnic Area > Grayson Highlands State Park > Southwest Virginia (Appalachia) > Virginia",https://www.mountainproject.com/route/106802314/athos-arete,3.1,-1,Boulder,V5,1,20,36.62727,-81.48103
"Pilo Erection","Erector Boulder > Stones > Harkening Hill > Southwest Virginia (Appalachia) > Virginia",https://www.mountainproject.com/route/107422016/pilo-erection,3.3,-1,Boulder,V5,1,15,37.45487,-79.61831
"Top Shelf At Wal-Mart","Best Boulder In Charlottesville > Charlottesville vicinity > Central & Southern VA Region > Virginia",https://www.mountainproject.com/route/118117475/top-shelf-at-wal-mart,3.2,-1,Boulder,V5,1,15,38.02979,-78.55793
"Dry Hump","Slasher Boulder > The Cove > Richmond Vicinity > Central & Southern VA Region > Virginia",https://www.mountainproject.com/route/116965998/dry-hump,3.1,-1,Boulder,V5,1,12,37.53056,-77.47189
"Black Dog's Tail","Led Zeppelin Boulders > DC & Northern VA Region > Virginia",https://www.mountainproject.com/route/120658401/black-dogs-tail,3.1,-1,Boulder,V5,1,,38.90998,-77.09965
"Threat Level Midnight","Cascadia > Cascadia Area > Cascades Bouldering > Southwest Virginia (Appalachia) > Virginia",https://www.mountainproject.com/route/107459409/threat-level-midnight,3.0,-1,Boulder,V5,1,13,37.35375,-80.59888
"Rite of Passage","Passage Boulder > Center Darkside > Darkside > (6) Jaybird Gorge > Guest River Gorge > Southwest Virginia (Appalachia) > Virginia",https://www.mountainproject.com/route/119897536/rite-of-passage,3.0,-1,Boulder,V5,1,10,36.90948,-82.45516
"Athos RIght","Olympus Boulder > Picnic Area Boulders > Picnic Area > Grayson Highlands State Park > Southwest Virginia (Appalachia) > Virginia",https://www.mountainproject.com/route/106873730/athos-right,3.0,-1,Boulder,V5,1,20,36.62727,-81.48103
Tech-Tonic,"True Grit Boulder > Contact Station Boulders > Contact Station Area > Grayson Highlands State Park > Southwest Virginia (Appalachia) > Virginia",https://www.mountainproject.com/route/106693351/tech-tonic,2.5,-1,Boulder,V5,1,9,36.61245,-81.48093
"Amherst County Superfund Site","Trail side bouldering > Blue Ridge Rail Way Trail > Amherst County > Central & Southern VA Region > Virginia",https://www.mountainproject.com/route/120084645/amherst-county-superfund-site,3.0,-1,Boulder,V5,1,,37.69803,-79.00532
"Ja Rule","Big Brother > Lewis Larus Park > Richmond Vicinity > Central & Southern VA Region > Virginia",https://www.mountainproject.com/route/116373680/ja-rule,3.0,-1,Boulder,V5,1,15,37.54659,-77.56279
",The Hole Shebang","Passage Boulder > Center Darkside > Darkside > (6) Jaybird Gorge > Guest River Gorge > Southwest Virginia (Appalachia) > Virginia",https://www.mountainproject.com/route/119925747/the-hole-shebang,3.0,-1,Boulder,V5,1,30,36.90948,-82.45516
"Edge Of The World","Edge Of The World > The Corridor & Beyond > McAfee's Knob > Southwest Virginia (Appalachia) > Virginia",https://www.mountainproject.com/route/107086612/edge-of-the-world,3.0,-1,Boulder,V5,1,15,37.3801,-80.0898
"Up The Prow (Dyno)","Springfield Bouldering (Hooes Rd) > DC & Northern VA Region > Virginia",https://www.mountainproject.com/route/118679092/up-the-prow-dyno,3.0,-1,Boulder,V5,1,8,38.7615,-77.2077
"Splash Zone","Aqua Boulder (Ridgeline) > The Forest > Blue Ridge Parkway > Charlottesville vicinity > Central & Southern VA Region > Virginia",https://www.mountainproject.com/route/118789421/splash-zone,2.8,-1,Boulder,V5,1,12,37.90618,-79.03509
Espresso,"Java Boulder > Butternut Hill > Mill Creek > Southwest Virginia (Appalachia) > Virginia",https://www.mountainproject.com/route/118988198/espresso,3.0,-1,Boulder,V5,1,,37.31106,-80.79276
"Otter Roof","Otter Roof > Otter Boulders > Casablanca Area > Mile Two Boulders > (2) Mile Two > Guest River Gorge > Southwest Virginia (Appalachia) > Virginia",https://www.mountainproject.com/route/117894708/otter-roof,3.0,-1,Boulder,V5,1,12,36.90447,-82.42728
Recurve,"Great Outdoors Boulder > Timber Boulders > Lower Darkside > Darkside > (6) Jaybird Gorge > Guest River Gorge > Southwest Virginia (Appalachia) > Virginia",https://www.mountainproject.com/route/118240471/recurve,3.0,-1,Boulder,V5,1,11,36.90949,-82.45516
"Zero Dark Thirty","Darkside Boulder > Center Darkside > Darkside > (6) Jaybird Gorge > Guest River Gorge > Southwest Virginia (Appalachia) > Virginia",https://www.mountainproject.com/route/118885098/zero-dark-thirty,3.0,-1,Boulder,V5,1,12,36.90949,-82.45517
"Turkish Delight","Turkish Boulder > Left Blasters > Blaster Blocks > Keelowkee Lake > HKL West > High Knob Landform > Southwest Virginia (Appalachia) > Virginia",https://www.mountainproject.com/route/122060721/turkish-delight,3.0,-1,Boulder,V5,1,8,36.91727,-82.64656
"Footwork 101","Right Corridor > The Corridor & Beyond > McAfee's Knob > Southwest Virginia (Appalachia) > Virginia",https://www.mountainproject.com/route/107087478/footwork-101,3.0,-1,Boulder,V5,1,,37.3801,-80.0898
"Star Chaser Arête","Wilson Creek Boulder > Wilson Creek Trail Area > Campground Area > Grayson Highlands State Park > Southwest Virginia (Appalachia) > Virginia",https://www.mountainproject.com/route/107142901/star-chaser-arete,3.0,-1,Boulder,V5,1,13,36.6122,-81.4912
"Mince Meat","Meat Boulder > Upper Deck > Harkening Hill > Southwest Virginia (Appalachia) > Virginia",https://www.mountainproject.com/route/107453801/mince-meat,3.0,-1,Boulder,V5,1,,37.4555,-79.6196
"Foot Fire","Geriatric Boulder > Stones > Harkening Hill > Southwest Virginia (Appalachia) > Virginia",https://www.mountainproject.com/route/107422252/foot-fire,3.0,-1,Boulder,V5,1,16,37.45621,-79.62003
Tigerside,"Tiger-Side Boulder > 1. Overlook Area > Listening Rock Trail > Grayson Highlands State Park > Southwest Virginia (Appalachia) > Virginia",https://www.mountainproject.com/route/107382129/tigerside,2.7,-1,Boulder,V5,1,15,36.62243,-81.50213
Piasa,"Middle Dragon > Dragon Boulders > McAfee's Knob > Southwest Virginia (Appalachia) > Virginia",https://www.mountainproject.com/route/107369189/piasa,2.7,-1,Boulder,V5,1,10,37.3801,-80.0898
"50 Cent","Big Brother > Lewis Larus Park > Richmond Vicinity > Central & Southern VA Region > Virginia",https://www.mountainproject.com/route/116373651/50-cent,2.6,-1,Boulder,V5,1,,37.54659,-77.56279
"Deadpoint Traverse","The Egg Boulder > The Buttermilks > Richmond Vicinity > Central & Southern VA Region > Virginia",https://www.mountainproject.com/route/118131893/deadpoint-traverse,2.3,-1,Boulder,V5,1,10,37.52715,-77.48036
Dobediggindeepdoe,"Johns Rest Boulders > Rapidan Wildlife Management Area > Shenandoah & NW VA Region > Virginia",https://www.mountainproject.com/route/121569531/dobediggindeepdoe,3.0,-1,Boulder,V5,1,10,38.38423,-78.46195
"Slab Justice Warrior Defies Gravity","The Other Side > Crescent Boulders > Shenandoah & NW VA Region > Virginia",https://www.mountainproject.com/route/120947045/slab-justice-warrior-defies-gravity,3.0,-1,Boulder,V5,1,8,39.13639,-77.84273
"Greaser Linkup","Greenstonia (Ridgeline) > The Forest > Blue Ridge Parkway > Charlottesville vicinity > Central & Southern VA Region > Virginia",https://www.mountainproject.com/route/121332392/greaser-linkup,3.0,-1,Boulder,V5,1,12,37.53765,-77.45088
"Green Linkup","Greenstonia (Ridgeline) > The Forest > Blue Ridge Parkway > Charlottesville vicinity > Central & Southern VA Region > Virginia",https://www.mountainproject.com/route/120022482/green-linkup,3.0,-1,Boulder,V5,1,,37.53765,-77.45088
"Green Knee","Aqua Boulder (Ridgeline) > The Forest > Blue Ridge Parkway > Charlottesville vicinity > Central & Southern VA Region > Virginia",https://www.mountainproject.com/route/120433932/green-knee,2.5,-1,Boulder,V5,1,7,37.90618,-79.03509
"Green Toe","Aqua Boulder (Ridgeline) > The Forest > Blue Ridge Parkway > Charlottesville vicinity > Central & Southern VA Region > Virginia",https://www.mountainproject.com/route/120433909/green-toe,3.0,-1,Boulder,V5,1,10,37.90618,-79.03509
"Bloody Chunk","Chunk Boulder > Upper Deck > Harkening Hill > Southwest Virginia (Appalachia) > Virginia",https://www.mountainproject.com/route/120021179/bloody-chunk,3.0,-1,Boulder,V5,1,,37.45784,-79.61726
"Feast or Famine","Swallow Boulder > Hinterland > Upchurch Area > Picnic Area > Grayson Highlands State Park > Southwest Virginia (Appalachia) > Virginia",https://www.mountainproject.com/route/116848089/feast-or-famine,3.0,-1,Boulder,V5,1,10,36.6122,-81.4912
"Vlad the Inhaler","Veiny Boulder > Upper Deck > Harkening Hill > Southwest Virginia (Appalachia) > Virginia",https://www.mountainproject.com/route/116249361/vlad-the-inhaler,3.0,-1,Boulder,V5,1,12,37.45587,-79.61969
Trigonometry,"Challenger Boulder > Challenger Area > (7) Jaybird Mountain > Guest River Gorge > Southwest Virginia (Appalachia) > Virginia",https://www.mountainproject.com/route/120285483/trigonometry,3.0,-1,Boulder,V5,1,11,36.89932,-82.41876
"Ghouls & Goblins","Halloween Boulder > Philly Blocks > Keelowkee Lake > HKL West > High Knob Landform > Southwest Virginia (Appalachia) > Virginia",https://www.mountainproject.com/route/119839803/ghouls-goblins,3.0,-1,Boulder,V5,1,10,36.85827,-82.90421
"Full Spectrum","Spectrum Boulder > Lower Lightside Bouldering > Lower Lightside > Lightside > (6) Jaybird Gorge > Guest River Gorge > Southwest Virginia (Appalachia) > Virginia",https://www.mountainproject.com/route/116643472/full-spectrum,3.0,-1,Boulder,V5,1,14,36.89937,-82.41859
"Billy Jason","Bad Boulder > Bad Boulders > (7) Jaybird Mountain > Guest River Gorge > Southwest Virginia (Appalachia) > Virginia",https://www.mountainproject.com/route/120022865/billy-jason,3.0,-1,Boulder,V5,1,10,36.89933,-82.41876
"The Hive Dyno","Hive Boulder > 1. Overlook Area > Listening Rock Trail > Grayson Highlands State Park > Southwest Virginia (Appalachia) > Virginia",https://www.mountainproject.com/route/111887041/the-hive-dyno,3.0,-1,Boulder,V5,1,12,36.62238,-81.50243
"Department of Defense","Pentagon Boulder > Casablanca Boulders > Casablanca Area > Mile Two Boulders > (2) Mile Two > Guest River Gorge > Southwest Virginia (Appalachia) > Virginia",https://www.mountainproject.com/route/117895669/department-of-defense,3.0,-1,Boulder,V5,1,12,36.90657,-82.41947
".The Plague","Joyful Boulder > Gasland > Upper Darkside > Darkside > (6) Jaybird Gorge > Guest River Gorge > Southwest Virginia (Appalachia) > Virginia",https://www.mountainproject.com/route/118687247/the-plague,3.0,-1,Boulder,V5,1,11,36.89935,-82.41877
"Bootlegger Brawl","Bootlegger Boulder > Boulder Garden > Mile Two Boulders > (2) Mile Two > Guest River Gorge > Southwest Virginia (Appalachia) > Virginia",https://www.mountainproject.com/route/121246839/bootlegger-brawl,3.0,-1,Boulder,V5,1,9,36.9003,-82.41947
"Justice House","Casablanca Boulder > Casablanca Boulders > Casablanca Area > Mile Two Boulders > (2) Mile Two > Guest River Gorge > Southwest Virginia (Appalachia) > Virginia",https://www.mountainproject.com/route/115420460/justice-house,3.0,-1,Boulder,V5,1,18,36.91291,-82.44043
"Blade & Bow","Island Boulder > Moonstone Area > Mile 1 Boulders > (1) Mile One > Guest River Gorge > Southwest Virginia (Appalachia) > Virginia",https://www.mountainproject.com/route/119774374/blade-bow,3.0,-1,Boulder,V5,1,11,36.90072,-82.42117
Waterworld,"Waterworld Boulder > Flowstones > Bearpen Boulders > ~M.R.N.R.A. > Grayson Highlands State Park > Southwest Virginia (Appalachia) > Virginia",https://www.mountainproject.com/route/120886797/waterworld,3.0,-1,Boulder,V5,1,,36.62156,-81.51111
".The Citadel","Madness Boulder > Hinterland > Upchurch Area > Picnic Area > Grayson Highlands State Park > Southwest Virginia (Appalachia) > Virginia",https://www.mountainproject.com/route/116848081/the-citadel,3.0,-1,Boulder,V5,1,10,36.6122,-81.4912
Kazooie,"Banjo-Kazooie Boulder > Devil's Marbleyard > Southwest Virginia (Appalachia) > Virginia",https://www.mountainproject.com/route/114061193/kazooie,3.0,-1,Boulder,V5,1,20,37.58149,-79.47164
Terraform,"Boss Boulder > Lost world > Mill Creek > Southwest Virginia (Appalachia) > Virginia",https://www.mountainproject.com/route/119047029/terraform,3.0,-1,Boulder,V5,1,,37.30308,-80.79896
"Renewable Energy","Recharge Boulder > Stones > Harkening Hill > Southwest Virginia (Appalachia) > Virginia",https://www.mountainproject.com/route/116086442/renewable-energy,3.0,-1,Boulder,V5,1,10,37.45563,-79.61989
"Wish you Well","Center Stage Boulder > Center Lightside Bouldering > Center Lightside > Lightside > (6) Jaybird Gorge > Guest River Gorge > Southwest Virginia (Appalachia) > Virginia",https://www.mountainproject.com/route/115341352/wish-you-well,3.0,-1,Boulder,V5,1,20,36.89937,-82.4186
"Mountain Maelstrom","Chomper Boulder > Briar Patch Boulders > Bearpen Boulders > ~M.R.N.R.A. > Grayson Highlands State Park > Southwest Virginia (Appalachia) > Virginia",https://www.mountainproject.com/route/117120731/mountain-maelstrom,3.0,-1,Boulder,V5,1,12,36.62156,-81.51111
"Imperial Arete","Caterpillar Roof > Moonstone Area > Mile 1 Boulders > (1) Mile One > Guest River Gorge > Southwest Virginia (Appalachia) > Virginia",https://www.mountainproject.com/route/119566240/imperial-arete,3.0,-1,Boulder,V5,1,10,36.90072,-82.42117
Schoolhouse,"Chomper Boulder > Briar Patch Boulders > Bearpen Boulders > ~M.R.N.R.A. > Grayson Highlands State Park > Southwest Virginia (Appalachia) > Virginia",https://www.mountainproject.com/route/117120750/schoolhouse,3.0,-1,Boulder,V5,1,12,36.62156,-81.51111
Stalactite,"Bat Cave Boulder > Waterfall Area > Mill Creek > Southwest Virginia (Appalachia) > Virginia",https://www.mountainproject.com/route/118989059/stalactite,3.0,-1,Boulder,V5,1,,37.30392,-80.79461
"Cloak Stand","Evil Boulder > Main Wall (Spooky) > Spooky Rocks > Keelowkee Lake > HKL West > High Knob Landform > Southwest Virginia (Appalachia) > Virginia",https://www.mountainproject.com/route/118732102/cloak-stand,3.0,-1,Boulder,V5,1,13,36.91842,-82.64318
"Jasper Crack","Jasper Boulder > Around The Bend (Jasper) > Spooky Rocks > Keelowkee Lake > HKL West > High Knob Landform > Southwest Virginia (Appalachia) > Virginia",https://www.mountainproject.com/route/118752749/jasper-crack,3.0,-1,Boulder,V5,1,12,36.91842,-82.64317
"Push comes to Shove","Pressure Roof > Upper Lightside Bouldering > Upper Lightside > Lightside > (6) Jaybird Gorge > Guest River Gorge > Southwest Virginia (Appalachia) > Virginia",https://www.mountainproject.com/route/119975346/push-comes-to-shove,3.0,-1,Boulder,V5,1,10,36.89937,-82.41859
"Black & Tan","Teamwork Boulder > Back Blasters > Blaster Blocks > Keelowkee Lake > HKL West > High Knob Landform > Southwest Virginia (Appalachia) > Virginia",https://www.mountainproject.com/route/121560069/black-tan,3.0,-1,Boulder,V5,1,11,36.91727,-82.64656
Fogstalker,"Ambush Roof > North Ridge > Burkes Garden > Southwest Virginia (Appalachia) > Virginia",https://www.mountainproject.com/route/114958036/fogstalker,3.0,-1,Boulder,V5,1,10,37.07815,-81.30309
Tuition,"Learning Boulder > Flowstones > Bearpen Boulders > ~M.R.N.R.A. > Grayson Highlands State Park > Southwest Virginia (Appalachia) > Virginia",https://www.mountainproject.com/route/119212884/tuition,3.0,-1,Boulder,V5,1,9,36.62156,-81.51111
"The Scoop","Roadside Boulder > Left Boneyard > Boneyard Area > Grayson Highlands State Park > Southwest Virginia (Appalachia) > Virginia",https://www.mountainproject.com/route/113629192/the-scoop,3.0,-1,Boulder,V5,1,11,36.61272,-81.49442
"Turtle Head","Turtle Boulder > Turtle Area > Cliff Mountain Boulders > HKL West > High Knob Landform > Southwest Virginia (Appalachia) > Virginia",https://www.mountainproject.com/route/117727981/turtle-head,3.0,-1,Boulder,V5,1,10,36.78702,-82.78808
"Flow Arete","Flowstone Boulder > Flowstones > Bearpen Boulders > ~M.R.N.R.A. > Grayson Highlands State Park > Southwest Virginia (Appalachia) > Virginia",https://www.mountainproject.com/route/119114335/flow-arete,3.0,-1,Boulder,V5,1,10,36.62156,-81.51111
Proj,"Recharge Boulder > Stones > Harkening Hill > Southwest Virginia (Appalachia) > Virginia",https://www.mountainproject.com/route/116090349/proj,3.0,-1,Boulder,V5,1,15,37.45563,-79.61989
"Pocket Regulation","Standard Boulder > Sharp Block (Standards) > Spooky Rocks > Keelowkee Lake > HKL West > High Knob Landform > Southwest Virginia (Appalachia) > Virginia",https://www.mountainproject.com/route/118806274/pocket-regulation,3.0,-1,Boulder,V5,1,13,36.91842,-82.64316
"Hear no Evil (Stand)","Devil's Roof > Devil's Boulders > HKL West > High Knob Landform > Southwest Virginia (Appalachia) > Virginia",https://www.mountainproject.com/route/115159584/hear-no-evil-stand,3.0,-1,Boulder,V5,1,8,36.9193,-82.6269
"Slim Jim","Snack Roof > Devil's Boulders > HKL West > High Knob Landform > Southwest Virginia (Appalachia) > Virginia",https://www.mountainproject.com/route/115159440/slim-jim,3.0,-1,Boulder,V5,1,14,36.9193,-82.6269
"Drop It Like It's Hot","Firehouse Boulder (Ridgeline) > The Forest > Blue Ridge Parkway > Charlottesville vicinity > Central & Southern VA Region > Virginia",https://www.mountainproject.com/route/122887122/drop-it-like-its-hot,2.3,-1,Boulder,V5,1,10,37.89391,-79.04441
"Tony the Tiger","Siberian Boulder > Wild Wood > Haw Orchard > Grayson Highlands State Park > Southwest Virginia (Appalachia) > Virginia",https://www.mountainproject.com/route/112861548/tony-the-tiger,3.0,-1,Boulder,V5,1,,36.6185,-81.48122
Cayuse,"Pegasus Boulder > Gasland > Upper Darkside > Darkside > (6) Jaybird Gorge > Guest River Gorge > Southwest Virginia (Appalachia) > Virginia",https://www.mountainproject.com/route/113897345/cayuse,3.0,-1,Boulder,V5,1,17,36.89935,-82.41877
"Night Vision","Vision Boulder > Vision Area > Mile Two Boulders > (2) Mile Two > Guest River Gorge > Southwest Virginia (Appalachia) > Virginia",https://www.mountainproject.com/route/112340463/night-vision,3.0,-1,Boulder,V5,1,11,36.9,-82.41781
Crackalachia,"Crackalachia Boulder > Rapids Boulders > Mile Two Boulders > (2) Mile Two > Guest River Gorge > Southwest Virginia (Appalachia) > Virginia",https://www.mountainproject.com/route/112395676/crackalachia,3.0,-1,Boulder,V5,1,10,36.8995,-82.41878
Jäger,"Hunted Boulder > Outlaw Area > Picnic Area > Grayson Highlands State Park > Southwest Virginia (Appalachia) > Virginia",https://www.mountainproject.com/route/109639316/jager,3.0,-1,Boulder,V5,1,10,36.62702,-81.47885
"Humble Pie Direct","Humble Pie Boulder > Fantasia Boulders > Casablanca Area > Mile Two Boulders > (2) Mile Two > Guest River Gorge > Southwest Virginia (Appalachia) > Virginia",https://www.mountainproject.com/route/109933182/humble-pie-direct,3.0,-1,Boulder,V5,1,9,36.37206,-81.88869
"Mad Max","Madness Boulder > Hinterland > Upchurch Area > Picnic Area > Grayson Highlands State Park > Southwest Virginia (Appalachia) > Virginia",https://www.mountainproject.com/route/108179239/mad-max,3.0,-1,Boulder,V5,1,10,36.6122,-81.4912
"Transpiration (direct)","Water Boulder > Alchemy Area > Contact Station Area > Grayson Highlands State Park > Southwest Virginia (Appalachia) > Virginia",https://www.mountainproject.com/route/108146594/transpiration-direct,3.0,-1,Boulder,V5,1,10,36.61245,-81.48092
"Shantay You Stay","New Beginnings Boulder > New Beginnings Area > Mile Two Boulders > (2) Mile Two > Guest River Gorge > Southwest Virginia (Appalachia) > Virginia",https://www.mountainproject.com/route/108744018/shantay-you-stay,3.0,-1,Boulder,V5,1,12,36.90032,-82.41947
"Zombie Hand","Zombie Boulder > Forbidden Area > Flag Rock Bouldering > Flag Rock > HKL East > High Knob Landform > Southwest Virginia (Appalachia) > Virginia",https://www.mountainproject.com/route/109638990/zombie-hand,3.0,-1,Boulder,V5,1,11,36.91627,-82.62868
"Inner Shrine","Tabernacle Roof > Wild Wood > Haw Orchard > Grayson Highlands State Park > Southwest Virginia (Appalachia) > Virginia",https://www.mountainproject.com/route/108037511/inner-shrine,3.0,-1,Boulder,V5,1,12,36.6185,-81.48122
Crucible,"Big Rig Boulder > Wild Wood > Haw Orchard > Grayson Highlands State Park > Southwest Virginia (Appalachia) > Virginia",https://www.mountainproject.com/route/107931780/crucible,3.0,-1,Boulder,V5,1,20,36.6185,-81.48122
"Golden Gate","Paradise Boulder > Paradise Peak > Rhododendron Gap Bouldering > ~M.R.N.R.A. > Grayson Highlands State Park > Southwest Virginia (Appalachia) > Virginia",https://www.mountainproject.com/route/108020936/golden-gate,3.0,-1,Boulder,V5,1,9,36.6122,-81.4912
Wildside,"Bombora Boulder > Back of Beyond > Haw Orchard > Grayson Highlands State Park > Southwest Virginia (Appalachia) > Virginia",https://www.mountainproject.com/route/108390305/wildside,3.0,-1,Boulder,V5,1,10,36.6235,-81.47622
"Hang Ten Dyno","Bombora Boulder > Back of Beyond > Haw Orchard > Grayson Highlands State Park > Southwest Virginia (Appalachia) > Virginia",https://www.mountainproject.com/route/108390287/hang-ten-dyno,3.0,-1,Boulder,V5,1,12,36.6235,-81.47622
"Class Five","Rapid Boulder > Rapids Boulders > Mile Two Boulders > (2) Mile Two > Guest River Gorge > Southwest Virginia (Appalachia) > Virginia",https://www.mountainproject.com/route/108698395/class-five,3.0,-1,Boulder,V5,1,11,36.90032,-82.41947
"Golden Hour","Golden Shield > Labyrinth > HKL East > High Knob Landform > Southwest Virginia (Appalachia) > Virginia",https://www.mountainproject.com/route/108348546/golden-hour,3.0,-1,Boulder,V5,1,14,36.9097,-82.6302
Underking,"Underking Boulder > Ginseng > Moonlight > Listening Rock Trail > Grayson Highlands State Park > Southwest Virginia (Appalachia) > Virginia",https://www.mountainproject.com/route/107468800/underking,3.0,-1,Boulder,V5,1,15,36.6122,-81.4912
"Tipping Point","Tipping Block > Stones > Harkening Hill > Southwest Virginia (Appalachia) > Virginia",https://www.mountainproject.com/route/107438289/tipping-point,3.0,-1,Boulder,V5,1,9,37.45317,-79.61745
Palomino,"Palomino Boulder > Rhododendron Peak > Rhododendron Gap Bouldering > ~M.R.N.R.A. > Grayson Highlands State Park > Southwest Virginia (Appalachia) > Virginia",https://www.mountainproject.com/route/108021847/palomino,3.0,-1,Boulder,V5,1,13,36.6122,-81.4912
"Alka-Line Arête","Buttercup Boulder > Roadside Boulders > Atkins Bouldering > Southwest Virginia (Appalachia) > Virginia",https://www.mountainproject.com/route/106912386/alka-line-arete,3.0,-1,Boulder,V5,1,11,36.911,-81.45
"Forcing the Hark","Burlstain Boulder > Stones > Harkening Hill > Southwest Virginia (Appalachia) > Virginia",https://www.mountainproject.com/route/107427404/forcing-the-hark,3.0,-1,Boulder,V5,1,10,37.46555,-79.60949
"Ties That Bind","Last Stop Boulder > Deer Stand Boulders > P.A. Byrom Park > Charlottesville vicinity > Central & Southern VA Region > Virginia",https://www.mountainproject.com/route/107319237/ties-that-bind,3.0,-1,Boulder,V5,1,10,38.22089,-78.6494
"Captain Planet","Planet Boulder > Campground Boulders > Campground Area > Grayson Highlands State Park > Southwest Virginia (Appalachia) > Virginia",https://www.mountainproject.com/route/107071891/captain-planet,3.0,-1,Boulder,V5,1,15,36.6122,-81.4912
"Tournament of Champions","Buttercup Boulder > Roadside Boulders > Atkins Bouldering > Southwest Virginia (Appalachia) > Virginia",https://www.mountainproject.com/route/106912302/tournament-of-champions,3.0,-1,Boulder,V5,1,11,36.911,-81.45
"Sheila's Traverse","Buttercup Boulder > Roadside Boulders > Atkins Bouldering > Southwest Virginia (Appalachia) > Virginia",https://www.mountainproject.com/route/106912400/sheilas-traverse,3.0,-1,Boulder,V5,1,30,36.911,-81.45
Minima,"Minima Wall > Main Boulder Area > Main Boulderfield Area > Bluefield Boulders > Southwest Virginia (Appalachia) > Virginia",https://www.mountainproject.com/route/106590804/minima,3.0,-1,Boulder,V5,1,10,36.65847,-81.53778
"Black Night","Blackbird Boulder > Stock Blocks > Keelowkee Lake > HKL West > High Knob Landform > Southwest Virginia (Appalachia) > Virginia",https://www.mountainproject.com/route/123445461/black-night,3.0,-1,Boulder,V5,1,12,36.85592,-82.86416
"Pop Punk","Big 20 Boulder > Stock Blocks > Keelowkee Lake > HKL West > High Knob Landform > Southwest Virginia (Appalachia) > Virginia",https://www.mountainproject.com/route/123445626/pop-punk,3.0,-1,Boulder,V5,1,14,36.85592,-82.86416
"A-1 Sauce","Ninja Boulder > Medusa Area > - Private Property- Old House Boulders > Bluefield Boulders > Southwest Virginia (Appalachia) > Virginia",https://www.mountainproject.com/route/123449076/a-1-sauce,3.0,-1,Boulder,V5,1,11,36.65846,-81.53778
"Friendly Advice","Medusa Boulder > Medusa Area > - Private Property- Old House Boulders > Bluefield Boulders > Southwest Virginia (Appalachia) > Virginia",https://www.mountainproject.com/route/123449163/friendly-advice,3.0,-1,Boulder,V5,1,13,36.65846,-81.53778
Found,"Lost Boulder > Belle Isle > Richmond Vicinity > Central & Southern VA Region > Virginia",https://www.mountainproject.com/route/123530479/found,3.0,-1,Boulder,V5,1,10,37.52957,-77.45388
"Johnny Get Your Gun","Crooked Road Boulder > Boneyard Area > Grayson Highlands State Park > Southwest Virginia (Appalachia) > Virginia",https://www.mountainproject.com/route/107198452/johnny-get-your-gun,2.8,-1,Boulder,V5,1,18,36.6122,-81.4912
"I take the low road","Crossroads > The Forest > Blue Ridge Parkway > Charlottesville vicinity > Central & Southern VA Region > Virginia",https://www.mountainproject.com/route/118813769/i-take-the-low-road,2.6,-1,Boulder,V5,1,12,37.89525,-79.04718
"Davie Jones' Locker","Forest Hill Park > Richmond Vicinity > Central & Southern VA Region > Virginia",https://www.mountainproject.com/route/109860919/davie-jones-locker,2.0,-1,Boulder,V5,1,8,37.51727,-77.47092
"Don't Smite Me","Golightly Boulder > Pyramid Area > Cascades Bouldering > Southwest Virginia (Appalachia) > Virginia",https://www.mountainproject.com/route/107507022/dont-smite-me,2.7,-1,Boulder,V5,1,12,37.35735,-80.59121
Trainspotting,"Whileaway Boulder > The Buttermilks > Richmond Vicinity > Central & Southern VA Region > Virginia",https://www.mountainproject.com/route/120004274/trainspotting,2.6,-1,Boulder,V5,1,12,37.52552,-77.45422
"Radish Spirit","White Rock Roof > Southwest Virginia (Appalachia) > Virginia",https://www.mountainproject.com/route/119478975/radish-spirit,2.4,-1,Boulder,V5,1,12,37.40084,-80.65744
"Casual Tees'.","A.V.P. Boulder > A.V.P. Boulders > Boneyard Area > Grayson Highlands State Park > Southwest Virginia (Appalachia) > Virginia",https://www.mountainproject.com/route/106480961/casual-tees,2.8,-1,Boulder,V5,1,15,36.61324,-81.49537
"Relish The Moment","Picnic Boulder > Picnic Boulder & Block > Picnic Area Boulders > Picnic Area > Grayson Highlands State Park > Southwest Virginia (Appalachia) > Virginia",https://www.mountainproject.com/route/107145732/relish-the-moment,2.3,-1,Boulder,V5,1,13,36.62523,-81.48157
"Big Boy SDS","Big Boy > The Forest > Blue Ridge Parkway > Charlottesville vicinity > Central & Southern VA Region > Virginia",https://www.mountainproject.com/route/119697339/big-boy-sds,2.3,-1,Boulder,V5,1,17,37.89461,-79.04896
"The long road home","Crossroads > The Forest > Blue Ridge Parkway > Charlottesville vicinity > Central & Southern VA Region > Virginia",https://www.mountainproject.com/route/118813797/the-long-road-home,2.4,-1,Boulder,V5,1,12,37.89525,-79.04718
"Blue Light Special","Best Boulder In Charlottesville > Charlottesville vicinity > Central & Southern VA Region > Virginia",https://www.mountainproject.com/route/120015043/blue-light-special,2.5,-1,Boulder,V5,1,,38.02979,-78.55793
Buckra,"Incredibles Boulder > Rock Point Overlook > Blue Ridge Parkway > Charlottesville vicinity > Central & Southern VA Region > Virginia",https://www.mountainproject.com/route/120238984/buckra,2.9,-1,Boulder,V5,1,8,37.93754,-78.94932
"Is Sick","Lower Hawksbill Boulder > Central District > Shenandoah National Park > Shenandoah & NW VA Region > Virginia",https://www.mountainproject.com/route/117526959/is-sick,2.5,-1,Boulder,V5,1,15,38.557,-78.38412
Manhattan,"Manhattan Boulder > Bouldering > White Oak Canyon > Shenandoah National Park > Shenandoah & NW VA Region > Virginia",https://www.mountainproject.com/route/118664508/manhattan,2.5,-1,Boulder,V5,1,,38.62307,-78.31324
"Handle With Care","Jungle Block > Center Lightside Bouldering > Center Lightside > Lightside > (6) Jaybird Gorge > Guest River Gorge > Southwest Virginia (Appalachia) > Virginia",https://www.mountainproject.com/route/115420694/handle-with-care,2.5,-1,Boulder,V5,1,15,36.89937,-82.4186
"See no Evil (Stand)","Devil's Roof > Devil's Boulders > HKL West > High Knob Landform > Southwest Virginia (Appalachia) > Virginia",https://www.mountainproject.com/route/115159558/see-no-evil-stand,2.5,-1,Boulder,V5,1,8,36.9193,-82.6269
"Dicey Punters","Vendetta Boulder > The Cove > Richmond Vicinity > Central & Southern VA Region > Virginia",https://www.mountainproject.com/route/116960154/dicey-punters,2.0,-1,Boulder,V5,1,9,37.53056,-77.47189
"Planet Hopping","12.2 Wormhole Boulder > Blue Ridge Parkway > Charlottesville vicinity > Central & Southern VA Region > Virginia",https://www.mountainproject.com/route/119607700/planet-hopping,2.0,-1,Boulder,V5,1,,37.91906,-78.96854
"Wing-Man Sit","A.V.P. Boulder > A.V.P. Boulders > Boneyard Area > Grayson Highlands State Park > Southwest Virginia (Appalachia) > Virginia",https://www.mountainproject.com/route/109027703/wing-man-sit,2.0,-1,Boulder,V5,1,13,36.61324,-81.49537
"Like Kissing Your Sister","Best Boulder In Charlottesville > Charlottesville vicinity > Central & Southern VA Region > Virginia",https://www.mountainproject.com/route/118117492/like-kissing-your-sister,2.0,-1,Boulder,V5,1,15,38.02979,-78.55793
"Two Lip","Tulip Boulder > Shadow Cast Area > Cascades Bouldering > Southwest Virginia (Appalachia) > Virginia",https://www.mountainproject.com/route/107551871/two-lip,2.0,-1,Boulder,V5,1,9,37.35505,-80.59643
Roots,"Plant World Boulder > The Buttermilks > Richmond Vicinity > Central & Southern VA Region > Virginia",https://www.mountainproject.com/route/112462878/roots,1.8,-1,Boulder,V5,1,8,37.52366,-77.46649
"Flying Dutchman","Forest Hill Park > Richmond Vicinity > Central & Southern VA Region > Virginia",https://www.mountainproject.com/route/109948991/flying-dutchman,1.3,-1,Boulder,V5,1,10,37.51727,-77.47092
"Crik Crawlin Y'all","White Rock Roof > Southwest Virginia (Appalachia) > Virginia",https://www.mountainproject.com/route/120214908/crik-crawlin-yall,2.0,-1,Boulder,V5,1,,37.40084,-80.65744
"Ed's Arete Right","Highball Boulders > McAfee's Knob > Southwest Virginia (Appalachia) > Virginia",https://www.mountainproject.com/route/107084467/eds-arete-right,2.0,-1,Boulder,V5,1,20,37.38747,-80.07134
"Saves The Day","Hero Boulder > A.V.P. Boulders > Boneyard Area > Grayson Highlands State Park > Southwest Virginia (Appalachia) > Virginia",https://www.mountainproject.com/route/107262407/saves-the-day,2.0,-1,Boulder,V5,1,,36.61283,-81.49647
"Devil's Kitchen Traverse","Devil's Kitchen > Devil's Kitchen > McAfee's Knob > Southwest Virginia (Appalachia) > Virginia",https://www.mountainproject.com/route/107087748/devils-kitchen-traverse,2.0,-1,Boulder,V5,1,12,37.39143,-80.03722
"Clandestine Service","Clandestine Block > Cascadia Area > Cascades Bouldering > Southwest Virginia (Appalachia) > Virginia",https://www.mountainproject.com/route/107531131/clandestine-service,2.0,-1,Boulder,V5,1,8,37.35369,-80.59625
"Blunt Force Trauma","Underking Boulder > Ginseng > Moonlight > Listening Rock Trail > Grayson Highlands State Park > Southwest Virginia (Appalachia) > Virginia",https://www.mountainproject.com/route/107468722/blunt-force-trauma,2.0,-1,Boulder,V5,1,9,36.6122,-81.4912
"Paul Bunyan (Stand)","Wave Boulder > Stones > Harkening Hill > Southwest Virginia (Appalachia) > Virginia",https://www.mountainproject.com/route/107489616/paul-bunyan-stand,2.0,-1,Boulder,V5,1,10,37.45672,-79.61802
Maverick,"Hero Wall > Drop Area (Horseshoe Area) > Atkins Bouldering > Southwest Virginia (Appalachia) > Virginia",https://www.mountainproject.com/route/106980176/maverick,2.0,-1,Boulder,V5,1,,36.911,-81.45
"Wall Street","Left Fin > Streetside Fins > Picnic Area Boulders > Picnic Area > Grayson Highlands State Park > Southwest Virginia (Appalachia) > Virginia",https://www.mountainproject.com/route/107115174/wall-street,1.9,-1,Boulder,V5,1,7,36.62523,-81.48157
"Hellen Smirren","Cross Country Trail Boulders > DC & Northern VA Region > Virginia",https://www.mountainproject.com/route/108459479/hellen-smirren,2.3,-1,Boulder,V5,1,12,38.72644,-77.21585
"No Fall Zone!","The Biker Area > The Buttermilks > Richmond Vicinity > Central & Southern VA Region > Virginia",https://www.mountainproject.com/route/118244051/no-fall-zone,2.0,-1,Boulder,"V5 X",1,25,37.52666,-77.48041
"TRex Arms","Whileaway Boulder > The Buttermilks > Richmond Vicinity > Central & Southern VA Region > Virginia",https://www.mountainproject.com/route/120011181/trex-arms,2.0,-1,Boulder,V5,1,10,37.52552,-77.45422
Spinosaurus,"Cross Country Trail Boulders > DC & Northern VA Region > Virginia",https://www.mountainproject.com/route/122978981/spinosaurus,2.0,-1,Boulder,V5,1,,38.72644,-77.21585
"Don't Slip","Fence Boulder > The Buttermilks > Richmond Vicinity > Central & Southern VA Region > Virginia",https://www.mountainproject.com/route/121845283/dont-slip,2.0,-1,Boulder,V5,1,12,37.52714,-77.48131
"Break Down","Towers Right > Towers/Lodges > Breaks Interstate Park > Southwest Virginia (Appalachia) > Virginia",https://www.mountainproject.com/route/114033903/break-down,2.0,-1,"Sport, Boulder","5.10a V5",1,55,37.15903,-82.40324
"Slightly Slighted","Greenstonia (Ridgeline) > The Forest > Blue Ridge Parkway > Charlottesville vicinity > Central & Southern VA Region > Virginia",https://www.mountainproject.com/route/120084600/slightly-slighted,2.0,-1,Boulder,V5,1,,37.53765,-77.45088
"The Shell","The Shell > Fire Road > Bouldering > Old Rag > Shenandoah National Park > Shenandoah & NW VA Region > Virginia",https://www.mountainproject.com/route/118750765/the-shell,2.0,-1,Boulder,V5,1,,38.54667,-78.34019
"Savage Prince","Portal Area > Crescent Boulders > Shenandoah & NW VA Region > Virginia",https://www.mountainproject.com/route/120255083/savage-prince,2.0,-1,Boulder,V5,1,10,39.137,-77.84403
"Teenage Dirtbag","Mushroom Area (Ridgeline) > The Forest > Blue Ridge Parkway > Charlottesville vicinity > Central & Southern VA Region > Virginia",https://www.mountainproject.com/route/121824435/teenage-dirtbag,2.5,-1,Boulder,V5,1,,37.89618,-79.04509
"Parting the Red Sea","Copper Streak Boulder > Pyramid Area > Cascades Bouldering > Southwest Virginia (Appalachia) > Virginia",https://www.mountainproject.com/route/120095058/parting-the-red-sea,2.0,-1,Boulder,"V5 PG13",1,14,37.35566,-80.59558
"Consider the Following","Fishbowl > Down the Gully Area > Forge Mountain > Goshen Pass > Charlottesville vicinity > Central & Southern VA Region > Virginia",https://www.mountainproject.com/route/119492744/consider-the-following,2.0,-1,Boulder,V5,1,18,37.93871,-79.45969
"Jungle Justice","Jungle Block > Center Lightside Bouldering > Center Lightside > Lightside > (6) Jaybird Gorge > Guest River Gorge > Southwest Virginia (Appalachia) > Virginia",https://www.mountainproject.com/route/116566580/jungle-justice,2.0,-1,Boulder,V5,1,10,36.89937,-82.4186
".The Bully","Ultra Boulder > Gasland > Upper Darkside > Darkside > (6) Jaybird Gorge > Guest River Gorge > Southwest Virginia (Appalachia) > Virginia",https://www.mountainproject.com/route/118645040/the-bully,2.0,-1,Boulder,V5,1,11,36.89935,-82.41877
"Slab Problem","Slab Boulder > Bouldering > White Oak Canyon > Shenandoah National Park > Shenandoah & NW VA Region > Virginia",https://www.mountainproject.com/route/118658181/slab-problem,2.0,-1,Boulder,V5,1,,38.62307,-78.31324
"Mantle Problem","Mantle Boulder > Bouldering > White Oak Canyon > Shenandoah National Park > Shenandoah & NW VA Region > Virginia",https://www.mountainproject.com/route/118658206/mantle-problem,2.0,-1,Boulder,V5,1,,38.62307,-78.31324
"The Landscaper","Estate Boulder > Moonstone Area > Mile 1 Boulders > (1) Mile One > Guest River Gorge > Southwest Virginia (Appalachia) > Virginia",https://www.mountainproject.com/route/119861897/the-landscaper,2.0,-1,Boulder,V5,1,10,36.90072,-82.42117
Edgelord,"Crackalachia Boulder > Rapids Boulders > Mile Two Boulders > (2) Mile Two > Guest River Gorge > Southwest Virginia (Appalachia) > Virginia",https://www.mountainproject.com/route/121416502/edgelord,2.0,-1,Boulder,V5,1,8,36.8995,-82.41878
Chivalry,"Spectrum Boulder > Lower Lightside Bouldering > Lower Lightside > Lightside > (6) Jaybird Gorge > Guest River Gorge > Southwest Virginia (Appalachia) > Virginia",https://www.mountainproject.com/route/116669179/chivalry,2.0,-1,Boulder,V5,1,10,36.89937,-82.41859
"Roadside Arete","Roadside Boulder > Thunder Ridge (Mile 74.1) > Blue Ridge Parkway > Charlottesville vicinity > Central & Southern VA Region > Virginia",https://www.mountainproject.com/route/120611632/roadside-arete,2.0,-1,Boulder,V5,1,12,37.54328,-79.48384
"Rites (Var 2)","Dead Boulder > Left Blasters > Blaster Blocks > Keelowkee Lake > HKL West > High Knob Landform > Southwest Virginia (Appalachia) > Virginia",https://www.mountainproject.com/route/122060843/rites-var-2,2.0,-1,Boulder,V5,1,9,36.91727,-82.64656
"Kitten Mittens","Always Sunny Block > Bridge Climbing (Three Amigos) > Spooky Rocks > Keelowkee Lake > HKL West > High Knob Landform > Southwest Virginia (Appalachia) > Virginia",https://www.mountainproject.com/route/121416055/kitten-mittens,2.0,-1,Boulder,V5,1,8,36.91842,-82.64315
"Hot Enchilada","Thunderbolt Boulder > Gasland > Upper Darkside > Darkside > (6) Jaybird Gorge > Guest River Gorge > Southwest Virginia (Appalachia) > Virginia",https://www.mountainproject.com/route/115572305/hot-enchilada,2.0,-1,Boulder,V5,1,13,36.89955,-82.41887
"Porch Swing","Chomper Boulder > Briar Patch Boulders > Bearpen Boulders > ~M.R.N.R.A. > Grayson Highlands State Park > Southwest Virginia (Appalachia) > Virginia",https://www.mountainproject.com/route/117120717/porch-swing,2.0,-1,Boulder,V5,1,15,36.62156,-81.51111
Smitten,"Always Sunny Block > Bridge Climbing (Three Amigos) > Spooky Rocks > Keelowkee Lake > HKL West > High Knob Landform > Southwest Virginia (Appalachia) > Virginia",https://www.mountainproject.com/route/121416039/smitten,2.0,-1,Boulder,V5,1,6,36.91842,-82.64315
"Captains Funk","Pirate Ship > Boulder Garden > Mile Two Boulders > (2) Mile Two > Guest River Gorge > Southwest Virginia (Appalachia) > Virginia",https://www.mountainproject.com/route/117833521/captains-funk,2.0,-1,Boulder,V5,1,10,36.9003,-82.41946
Abyss,"Abyss Block > Top Gun Area > Cliff Mountain Boulders > HKL West > High Knob Landform > Southwest Virginia (Appalachia) > Virginia",https://www.mountainproject.com/route/117728467/abyss,2.0,-1,Boulder,V5,1,9,36.78794,-82.7874
"Meat Hook","Meat Boulder > Main Wall (Spooky) > Spooky Rocks > Keelowkee Lake > HKL West > High Knob Landform > Southwest Virginia (Appalachia) > Virginia",https://www.mountainproject.com/route/119839601/meat-hook,2.0,-1,Boulder,V5,1,10,36.91842,-82.64318
"Roly Poly","Roly-Poly Roof > Night Vale Area > Mile 3 Boulders > (3) Mile Three > Guest River Gorge > Southwest Virginia (Appalachia) > Virginia",https://www.mountainproject.com/route/116200444/roly-poly,2.0,-1,Boulder,V5,1,7,36.90059,-82.41878
"Irish Car Bomb","Irish Block > Lower Lightside Bouldering > Lower Lightside > Lightside > (6) Jaybird Gorge > Guest River Gorge > Southwest Virginia (Appalachia) > Virginia",https://www.mountainproject.com/route/116614641/irish-car-bomb,2.0,-1,Boulder,V5,1,11,36.89937,-82.4186
Salanewt,"Newtonmander Boulder > Butternut Hill > Mill Creek > Southwest Virginia (Appalachia) > Virginia",https://www.mountainproject.com/route/118988249/salanewt,2.0,-1,Boulder,V5,1,,37.31106,-80.79157
"Road Warrior","Waterworld Boulder > Flowstones > Bearpen Boulders > ~M.R.N.R.A. > Grayson Highlands State Park > Southwest Virginia (Appalachia) > Virginia",https://www.mountainproject.com/route/120886774/road-warrior,2.0,-1,Boulder,V5,1,10,36.62156,-81.51111
Thinister,"Pentagon Boulder > Casablanca Boulders > Casablanca Area > Mile Two Boulders > (2) Mile Two > Guest River Gorge > Southwest Virginia (Appalachia) > Virginia",https://www.mountainproject.com/route/115420313/thinister,2.0,-1,Boulder,V5,1,16,36.90657,-82.41947
"Dirty Bird","Turkey Boulder > Turkey Area > Cliff Mountain Boulders > HKL West > High Knob Landform > Southwest Virginia (Appalachia) > Virginia",https://www.mountainproject.com/route/117728358/dirty-bird,2.0,-1,Boulder,V5,1,15,36.78811,-82.78695
"All's Well that Ends Well","Center Stage Boulder > Center Lightside Bouldering > Center Lightside > Lightside > (6) Jaybird Gorge > Guest River Gorge > Southwest Virginia (Appalachia) > Virginia",https://www.mountainproject.com/route/115341368/alls-well-that-ends-well,2.0,-1,Boulder,V5,1,20,36.89937,-82.4186
Leviathan,"Abyss Block > Top Gun Area > Cliff Mountain Boulders > HKL West > High Knob Landform > Southwest Virginia (Appalachia) > Virginia",https://www.mountainproject.com/route/117728489/leviathan,2.0,-1,Boulder,V5,1,9,36.78794,-82.7874
"Strange Times","Strange Block > Main Wall (Spooky) > Spooky Rocks > Keelowkee Lake > HKL West > High Knob Landform > Southwest Virginia (Appalachia) > Virginia",https://www.mountainproject.com/route/118732192/strange-times,2.0,-1,Boulder,V5,1,9,36.91842,-82.64318
"List of Days","List Boulder > Main Wall (Spooky) > Spooky Rocks > Keelowkee Lake > HKL West > High Knob Landform > Southwest Virginia (Appalachia) > Virginia",https://www.mountainproject.com/route/118779656/list-of-days,2.0,-1,Boulder,V5,1,17,36.91842,-82.64318
"Cretan Bull","Myth Boulder > Upper Lightside Bouldering > Upper Lightside > Lightside > (6) Jaybird Gorge > Guest River Gorge > Southwest Virginia (Appalachia) > Virginia",https://www.mountainproject.com/route/115446815/cretan-bull,2.0,-1,Boulder,V5,1,15,36.89937,-82.41866
Influential,"Influence Roof > Flowstones > Bearpen Boulders > ~M.R.N.R.A. > Grayson Highlands State Park > Southwest Virginia (Appalachia) > Virginia",https://www.mountainproject.com/route/119114221/influential,2.0,-1,Boulder,V5,1,10,36.62156,-81.51111
"Under Pressure","Gemstone Boulder > Foundation Boulders > Bearpen Boulders > ~M.R.N.R.A. > Grayson Highlands State Park > Southwest Virginia (Appalachia) > Virginia",https://www.mountainproject.com/route/119155623/under-pressure,2.0,-1,Boulder,V5,1,10,36.62156,-81.51111
"List of Demands","List Boulder > Main Wall (Spooky) > Spooky Rocks > Keelowkee Lake > HKL West > High Knob Landform > Southwest Virginia (Appalachia) > Virginia",https://www.mountainproject.com/route/118722255/list-of-demands,2.0,-1,Boulder,V5,1,15,36.91842,-82.64318
"Super Trooper","Police Boulder > Around The Bend (Jasper) > Spooky Rocks > Keelowkee Lake > HKL West > High Knob Landform > Southwest Virginia (Appalachia) > Virginia",https://www.mountainproject.com/route/118752867/super-trooper,2.0,-1,Boulder,V5,1,10,36.91842,-82.64317
Bar-Knee,"Dinosaur Boulder > Wild Wood > Haw Orchard > Grayson Highlands State Park > Southwest Virginia (Appalachia) > Virginia",https://www.mountainproject.com/route/120716560/bar-knee,2.0,-1,Boulder,V5,1,10,36.6185,-81.48122
"Silver Platter","Silver Block > Main Wall (Spooky) > Spooky Rocks > Keelowkee Lake > HKL West > High Knob Landform > Southwest Virginia (Appalachia) > Virginia",https://www.mountainproject.com/route/118770278/silver-platter,2.0,-1,Boulder,V5,1,9,36.91842,-82.64318
"Standing Commandment","Standard Boulder > Sharp Block (Standards) > Spooky Rocks > Keelowkee Lake > HKL West > High Knob Landform > Southwest Virginia (Appalachia) > Virginia",https://www.mountainproject.com/route/118806265/standing-commandment,2.0,-1,Boulder,V5,1,12,36.91842,-82.64316
"Mowgli Traverse","Jungle Block > Center Lightside Bouldering > Center Lightside > Lightside > (6) Jaybird Gorge > Guest River Gorge > Southwest Virginia (Appalachia) > Virginia",https://www.mountainproject.com/route/122191383/mowgli-traverse,2.0,-1,Boulder,V5,1,20,36.89937,-82.4186
"Humpty Dumpty","Gumby > The Forest > Blue Ridge Parkway > Charlottesville vicinity > Central & Southern VA Region > Virginia",https://www.mountainproject.com/route/122632373/humpty-dumpty,2.0,-1,Boulder,V5,1,10,37.89468,-79.0483
"In a Van","Farley Roof > Casablanca Boulders > Casablanca Area > Mile Two Boulders > (2) Mile Two > Guest River Gorge > Southwest Virginia (Appalachia) > Virginia",https://www.mountainproject.com/route/115420347/in-a-van,2.0,-1,Boulder,V5,1,7,36.90239,-82.42468
"Right into Noble","Esquire Boulder > Left Blasters > Blaster Blocks > Keelowkee Lake > HKL West > High Knob Landform > Southwest Virginia (Appalachia) > Virginia",https://www.mountainproject.com/route/122060756/right-into-noble,2.0,-1,Boulder,V5,1,12,36.91727,-82.64656
"Hard Feelings","Madness Boulder > Hinterland > Upchurch Area > Picnic Area > Grayson Highlands State Park > Southwest Virginia (Appalachia) > Virginia",https://www.mountainproject.com/route/114580529/hard-feelings,2.0,-1,Boulder,V5,1,11,36.6122,-81.4912
Joyless,"Joyful Boulder > Gasland > Upper Darkside > Darkside > (6) Jaybird Gorge > Guest River Gorge > Southwest Virginia (Appalachia) > Virginia",https://www.mountainproject.com/route/113886446/joyless,2.0,-1,Boulder,V5,1,10,36.89935,-82.41877
"Bobcat Problem","Bobcat Boulder > Widow Area > Mile 1 Boulders > (1) Mile One > Guest River Gorge > Southwest Virginia (Appalachia) > Virginia",https://www.mountainproject.com/route/114026503/bobcat-problem,2.0,-1,Boulder,V5,1,12,36.90073,-82.42119
"Puss in Boots","Bobcat Boulder > Widow Area > Mile 1 Boulders > (1) Mile One > Guest River Gorge > Southwest Virginia (Appalachia) > Virginia",https://www.mountainproject.com/route/114026512/puss-in-boots,2.0,-1,Boulder,V5,1,12,36.90073,-82.42119
"Da Roof Is On Fire","Firehouse Boulder (Ridgeline) > The Forest > Blue Ridge Parkway > Charlottesville vicinity > Central & Southern VA Region > Virginia",https://www.mountainproject.com/route/122887277/da-roof-is-on-fire,2.0,-1,Boulder,V5,1,10,37.89391,-79.04441
"Winner Take Nothing","Hemingway Boulder > Hemingway Boulders > Bearpen Boulders > ~M.R.N.R.A. > Grayson Highlands State Park > Southwest Virginia (Appalachia) > Virginia",https://www.mountainproject.com/route/112542591/winner-take-nothing,2.0,-1,Boulder,V5,1,8,36.62171,-81.51197
Have,"Hemingway Boulder > Hemingway Boulders > Bearpen Boulders > ~M.R.N.R.A. > Grayson Highlands State Park > Southwest Virginia (Appalachia) > Virginia",https://www.mountainproject.com/route/112542723/have,2.0,-1,Boulder,V5,1,8,36.62171,-81.51197
"Night Right","Vision Boulder > Vision Area > Mile Two Boulders > (2) Mile Two > Guest River Gorge > Southwest Virginia (Appalachia) > Virginia",https://www.mountainproject.com/route/112342643/night-right,2.0,-1,Boulder,V5,1,13,36.9,-82.41781
"Friends In Low Places","Big Rig Boulder > Wild Wood > Haw Orchard > Grayson Highlands State Park > Southwest Virginia (Appalachia) > Virginia",https://www.mountainproject.com/route/111685513/friends-in-low-places,2.0,-1,Boulder,V5,1,20,36.6185,-81.48122
Falcon,"Galaxy Boulder > Tunnel Area > Mile 1 Boulders > (1) Mile One > Guest River Gorge > Southwest Virginia (Appalachia) > Virginia",https://www.mountainproject.com/route/111275636/falcon,2.0,-1,Boulder,V5,1,,36.90073,-82.42119
"Bobcat Coffee","Bobcat Boulder > Widow Area > Mile 1 Boulders > (1) Mile One > Guest River Gorge > Southwest Virginia (Appalachia) > Virginia",https://www.mountainproject.com/route/111332368/bobcat-coffee,3.0,-1,Boulder,V5,1,12,36.90073,-82.42119
"Triple Sec","Triple Boulders > Back of Beyond > Haw Orchard > Grayson Highlands State Park > Southwest Virginia (Appalachia) > Virginia",https://www.mountainproject.com/route/110278890/triple-sec,2.0,-1,Boulder,V5,1,11,36.6235,-81.47622
"Transpiration Traverse","Water Boulder > Alchemy Area > Contact Station Area > Grayson Highlands State Park > Southwest Virginia (Appalachia) > Virginia",https://www.mountainproject.com/route/108146566/transpiration-traverse,2.0,-1,Boulder,V5,1,20,36.61245,-81.48092
"Two Small Crimps","Constant Boulder > Right Boneyard > Boneyard Area > Grayson Highlands State Park > Southwest Virginia (Appalachia) > Virginia",https://www.mountainproject.com/route/109187854/two-small-crimps,2.0,-1,Boulder,V5,1,9,36.61272,-81.49442
"White Dwarf","White Dwarf Boulder > Labyrinth > HKL East > High Knob Landform > Southwest Virginia (Appalachia) > Virginia",https://www.mountainproject.com/route/109353639/white-dwarf,2.0,-1,Boulder,"V5 X",1,25,36.9097,-82.6302
"Lost Track","Track Block > Osborne East > Osborne Rock/Ridge > HKL East > High Knob Landform > Southwest Virginia (Appalachia) > Virginia",https://www.mountainproject.com/route/109639066/lost-track,2.0,-1,Boulder,V5,1,10,36.91954,-82.62855
"Bat House Traverse","Bat House Roof > Back of Beyond > Haw Orchard > Grayson Highlands State Park > Southwest Virginia (Appalachia) > Virginia",https://www.mountainproject.com/route/109117245/bat-house-traverse,2.0,-1,Boulder,V5,1,15,36.6235,-81.47622
"Black Out","Black Boulder > 5. Central > Listening Rock Trail > Grayson Highlands State Park > Southwest Virginia (Appalachia) > Virginia",https://www.mountainproject.com/route/109036326/black-out,2.0,-1,Boulder,V5,1,13,36.62279,-81.50167
"Buffalo Soldier","Buffalo Boulder > Back of Beyond > Haw Orchard > Grayson Highlands State Park > Southwest Virginia (Appalachia) > Virginia",https://www.mountainproject.com/route/108938307/buffalo-soldier,2.0,-1,Boulder,V5,1,9,36.6235,-81.47622
"Three Shades of Black","Black Boulder > 5. Central > Listening Rock Trail > Grayson Highlands State Park > Southwest Virginia (Appalachia) > Virginia",https://www.mountainproject.com/route/109036332/three-shades-of-black,2.0,-1,Boulder,V5,1,12,36.62279,-81.50167
Bifurcation,"System Blocks > Back of Beyond > Haw Orchard > Grayson Highlands State Park > Southwest Virginia (Appalachia) > Virginia",https://www.mountainproject.com/route/108938340/bifurcation,2.0,-1,Boulder,V5,1,9,36.6235,-81.47622
"Deep Traverse","Deep Boulder > Deeper Downs > Haw Orchard > Grayson Highlands State Park > Southwest Virginia (Appalachia) > Virginia",https://www.mountainproject.com/route/108276589/deep-traverse,2.0,-1,Boulder,V5,1,12,36.6185,-81.48122
"Barracuda Crack","Method Boulder > Back of Beyond > Haw Orchard > Grayson Highlands State Park > Southwest Virginia (Appalachia) > Virginia",https://www.mountainproject.com/route/108390921/barracuda-crack,2.0,-1,Boulder,V5,1,9,36.6135,-81.48622
"Osborne Dyno (AKA - Its Not A Jug)","Roadside Boulder > Osborne North > Osborne Rock/Ridge > HKL East > High Knob Landform > Southwest Virginia (Appalachia) > Virginia",https://www.mountainproject.com/route/108505597/osborne-dyno-aka-its-not-a-jug,2.0,-1,Boulder,V5,1,8,36.91954,-82.62855
Sparks,"Burning Boulder > Back of Beyond > Haw Orchard > Grayson Highlands State Park > Southwest Virginia (Appalachia) > Virginia",https://www.mountainproject.com/route/108420353/sparks,2.0,-1,Boulder,V5,1,8,36.6235,-81.47622
"Bad News Bear","Bruin Boulder > Middle Boneyard > Boneyard Area > Grayson Highlands State Park > Southwest Virginia (Appalachia) > Virginia",https://www.mountainproject.com/route/107743291/bad-news-bear,2.0,-1,Boulder,V5,1,9,36.61271,-81.49507
Snouter,"Pigs Boulder > Hinterland > Upchurch Area > Picnic Area > Grayson Highlands State Park > Southwest Virginia (Appalachia) > Virginia",https://www.mountainproject.com/route/108177720/snouter,2.0,-1,Boulder,V5,1,12,36.6122,-81.4912
"Echo Chamber","Boulder 1 > Lower Limits > Harkening Hill > Southwest Virginia (Appalachia) > Virginia",https://www.mountainproject.com/route/107449038/echo-chamber,2.0,-1,Boulder,V5,1,10,37.4555,-79.6196
"Wisdom Bear","The Den > Stones > Harkening Hill > Southwest Virginia (Appalachia) > Virginia",https://www.mountainproject.com/route/107829805/wisdom-bear,2.0,-1,Boulder,V5,1,12,37.46555,-79.60949
"Patriot Arete","Patriot Boulder > Hinterland > Upchurch Area > Picnic Area > Grayson Highlands State Park > Southwest Virginia (Appalachia) > Virginia",https://www.mountainproject.com/route/108192646/patriot-arete,2.0,-1,Boulder,V5,1,10,36.6122,-81.4912
"Creative Control","Theory Boulder > Wild Wood > Haw Orchard > Grayson Highlands State Park > Southwest Virginia (Appalachia) > Virginia",https://www.mountainproject.com/route/107957486/creative-control,2.0,-1,Boulder,V5,1,,36.6185,-81.48122
Tomahawk,"Rock House Boulder > Picnic Area Boulders > Picnic Area > Grayson Highlands State Park > Southwest Virginia (Appalachia) > Virginia",https://www.mountainproject.com/route/107159918/tomahawk,2.0,-1,Boulder,"V5 R",1,,36.62523,-81.48157
"Sheila's Traverse (Extension)","Buttercup Boulder > Roadside Boulders > Atkins Bouldering > Southwest Virginia (Appalachia) > Virginia",https://www.mountainproject.com/route/107876421/sheilas-traverse-extension,2.0,-1,Boulder,V5,1,45,36.911,-81.45
"Locus Of Control","Control Boulder > Pyramid Area > Cascades Bouldering > Southwest Virginia (Appalachia) > Virginia",https://www.mountainproject.com/route/107533220/locus-of-control,2.0,-1,Boulder,V5,1,9,37.35744,-80.59201
"Worth the Squeeze","Contrast Boulder > Contrast Area > Cascades Bouldering > Southwest Virginia (Appalachia) > Virginia",https://www.mountainproject.com/route/107557718/worth-the-squeeze,2.0,-1,Boulder,V5,1,13,37.35931,-80.58918
"No Questions Asked","Hero Wall > Drop Area (Horseshoe Area) > Atkins Bouldering > Southwest Virginia (Appalachia) > Virginia",https://www.mountainproject.com/route/106980169/no-questions-asked,2.0,-1,Boulder,V5,1,,36.911,-81.45
"Milk Dud","Milk Dud > Pebble Cluster > Pebbles > Harkening Hill > Southwest Virginia (Appalachia) > Virginia",https://www.mountainproject.com/route/107421916/milk-dud,2.0,-1,Boulder,V5,1,12,37.4555,-79.6196
Vapor,"Water Boulder > Alchemy Area > Contact Station Area > Grayson Highlands State Park > Southwest Virginia (Appalachia) > Virginia",https://www.mountainproject.com/route/107640475/vapor,2.0,-1,Boulder,V5,1,9,36.61245,-81.48092
"Sunset Projector","Sunset Boulder > Sunset Area > Highlands > Grayson Highlands State Park > Southwest Virginia (Appalachia) > Virginia",https://www.mountainproject.com/route/107046655/sunset-projector,2.0,-1,Boulder,V5,1,15,36.6333,-81.5089
Viewmaster,"Space Boulder > 5. Central > Listening Rock Trail > Grayson Highlands State Park > Southwest Virginia (Appalachia) > Virginia",https://www.mountainproject.com/route/107388055/viewmaster,2.0,-1,Boulder,V5,1,12,36.62279,-81.50167
"Fit To Be Tied","Hissy-Fit Blade > Luminary Area > Haw Orchard > Grayson Highlands State Park > Southwest Virginia (Appalachia) > Virginia",https://www.mountainproject.com/route/107503349/fit-to-be-tied,2.0,-1,Boulder,V5,1,10,36.6185,-81.48122
"Reckless Abandonment","Cloud Boulder > Ginseng > Moonlight > Listening Rock Trail > Grayson Highlands State Park > Southwest Virginia (Appalachia) > Virginia",https://www.mountainproject.com/route/107469280/reckless-abandonment,2.0,-1,Boulder,V5,1,10,36.6122,-81.4912
"Deed Direct","Devil's Kitchen > Devil's Kitchen > McAfee's Knob > Southwest Virginia (Appalachia) > Virginia",https://www.mountainproject.com/route/107087794/deed-direct,2.0,-1,Boulder,V5,1,8,37.39143,-80.03722
Allegiance,"Mouth Of Wilson > 2. SLS Area > Listening Rock Trail > Grayson Highlands State Park > Southwest Virginia (Appalachia) > Virginia",https://www.mountainproject.com/route/107303193/allegiance,2.0,-1,Boulder,V5,1,12,36.62279,-81.50167
"One Hit Wonder","Sever Boulder > 4. Trails End Area > Listening Rock Trail > Grayson Highlands State Park > Southwest Virginia (Appalachia) > Virginia",https://www.mountainproject.com/route/107349339/one-hit-wonder,2.0,-1,Boulder,V5,1,9,36.62279,-81.50167
"Ginseng Right","Ginseng Boulder > Ginseng > Moonlight > Listening Rock Trail > Grayson Highlands State Park > Southwest Virginia (Appalachia) > Virginia",https://www.mountainproject.com/route/107468688/ginseng-right,2.0,-1,Boulder,V5,1,12,36.6122,-81.4912
"Tee-Off Time","Hill Top Boulder > Pyramid Area > Cascades Bouldering > Southwest Virginia (Appalachia) > Virginia",https://www.mountainproject.com/route/107508834/tee-off-time,2.0,-1,Boulder,V5,1,16,37.35505,-80.59643
"Ice Cold Exit","Cold Boulder > 2. SLS Area > Listening Rock Trail > Grayson Highlands State Park > Southwest Virginia (Appalachia) > Virginia",https://www.mountainproject.com/route/107343959/ice-cold-exit,2.0,-1,Boulder,V5,1,12,36.62279,-81.50167
"Rate Of Change (stand)","Constant Boulder > Right Boneyard > Boneyard Area > Grayson Highlands State Park > Southwest Virginia (Appalachia) > Virginia",https://www.mountainproject.com/route/107063207/rate-of-change-stand,2.0,-1,Boulder,V5,1,13,36.61272,-81.49442
"Rights-of-Man (Sit)","Belgrano Blade > Right Boneyard > Boneyard Area > Grayson Highlands State Park > Southwest Virginia (Appalachia) > Virginia",https://www.mountainproject.com/route/106967513/rights-of-man-sit,2.0,-1,Boulder,V5,1,12,36.61272,-81.49442
"Konnarock (Sit)","Konnarock Block > 4. Trails End Area > Listening Rock Trail > Grayson Highlands State Park > Southwest Virginia (Appalachia) > Virginia",https://www.mountainproject.com/route/107348993/konnarock-sit,2.0,-1,Boulder,V5,1,12,36.62279,-81.50167
"Cold Front","Cold Boulder > 2. SLS Area > Listening Rock Trail > Grayson Highlands State Park > Southwest Virginia (Appalachia) > Virginia",https://www.mountainproject.com/route/107303164/cold-front,2.0,-1,Boulder,V5,1,7,36.62279,-81.50167
"Brutal Business","Buisiness Boulder > 5. Central > Listening Rock Trail > Grayson Highlands State Park > Southwest Virginia (Appalachia) > Virginia",https://www.mountainproject.com/route/107303126/brutal-business,2.0,-1,Boulder,V5,1,20,36.62279,-81.50167
"Please Bleed","Fluids Boulder > Picnic Area Boulders > Picnic Area > Grayson Highlands State Park > Southwest Virginia (Appalachia) > Virginia",https://www.mountainproject.com/route/106814265/please-bleed,2.0,-1,Boulder,V5,1,8,36.62523,-81.48157
"Sister Extension","Criminal Boulder > Left Boneyard > Boneyard Area > Grayson Highlands State Park > Southwest Virginia (Appalachia) > Virginia",https://www.mountainproject.com/route/107155595/sister-extension,2.0,-1,Boulder,V5,1,15,36.61272,-81.49442
Atrophy,"Stack Boulder > Middle Boneyard > Boneyard Area > Grayson Highlands State Park > Southwest Virginia (Appalachia) > Virginia",https://www.mountainproject.com/route/106757814/atrophy,2.0,-1,Boulder,V5,1,14,36.61271,-81.49507
Seawolf,"HMS Boulder > Right Boneyard > Boneyard Area > Grayson Highlands State Park > Southwest Virginia (Appalachia) > Virginia",https://www.mountainproject.com/route/106967541/seawolf,2.0,-1,Boulder,V5,1,,36.61272,-81.49442
"Sandy Slap Right","Spray Boulder > Main Boulder Area > Main Boulderfield Area > Bluefield Boulders > Southwest Virginia (Appalachia) > Virginia",https://www.mountainproject.com/route/106586046/sandy-slap-right,2.0,-1,Boulder,V5,1,10,36.65847,-81.53778
Beretta,"Spring Boulder > Roadside Boulders > Atkins Bouldering > Southwest Virginia (Appalachia) > Virginia",https://www.mountainproject.com/route/106493340/beretta,2.0,-1,Boulder,V5,1,89,36.911,-81.45
"Bomber Man","Spring Boulder > Roadside Boulders > Atkins Bouldering > Southwest Virginia (Appalachia) > Virginia",https://www.mountainproject.com/route/106493299/bomber-man,2.0,-1,Boulder,V5,1,89,36.911,-81.45
"Woodcock Arete","Blackbird Boulder > Stock Blocks > Keelowkee Lake > HKL West > High Knob Landform > Southwest Virginia (Appalachia) > Virginia",https://www.mountainproject.com/route/123445509/woodcock-arete,2.0,-1,Boulder,V5,1,10,36.85592,-82.86416
"Alligator Roof","Alligator Roof > Medusa Area > - Private Property- Old House Boulders > Bluefield Boulders > Southwest Virginia (Appalachia) > Virginia",https://www.mountainproject.com/route/123449125/alligator-roof,2.0,-1,Boulder,V5,1,9,36.65846,-81.53778
"Medusa Arete","Medusa Boulder > Medusa Area > - Private Property- Old House Boulders > Bluefield Boulders > Southwest Virginia (Appalachia) > Virginia",https://www.mountainproject.com/route/123449145/medusa-arete,2.0,-1,Boulder,V5,1,9,36.65846,-81.53778
"Cold Shoulder","Bi-Lingual Boulder > 1. Overlook Area > Listening Rock Trail > Grayson Highlands State Park > Southwest Virginia (Appalachia) > Virginia",https://www.mountainproject.com/route/108060985/cold-shoulder,1.5,-1,Boulder,V5,1,,36.62279,-81.50167
FPNNA,"Roadside > McAfee's Knob > Southwest Virginia (Appalachia) > Virginia",https://www.mountainproject.com/route/107084167/fpnna,1.3,-1,Boulder,V5,1,6,37.3804,-80.0899
"House Of Representatives","Warm-Up Boulder > The Belly Boulder Area > McAfee's Knob > Southwest Virginia (Appalachia) > Virginia",https://www.mountainproject.com/route/107084668/house-of-representatives,1.0,-1,Boulder,V5,1,,37.39268,-80.03973
Cut-Throat,"Earth Boulder > Alchemy Area > Contact Station Area > Grayson Highlands State Park > Southwest Virginia (Appalachia) > Virginia",https://www.mountainproject.com/route/106835729/cut-throat,1.7,-1,Boulder,V5,1,9,36.61245,-81.48092
"Awkward Eagle","Eagle Boulder > Briar Patch Boulders > Bearpen Boulders > ~M.R.N.R.A. > Grayson Highlands State Park > Southwest Virginia (Appalachia) > Virginia",https://www.mountainproject.com/route/117120830/awkward-eagle,1.0,-1,Boulder,V5,1,10,36.62156,-81.51111
"Humble Abode (Right)","Tribe Boulder > Bridge Climbing (Three Amigos) > Spooky Rocks > Keelowkee Lake > HKL West > High Knob Landform > Southwest Virginia (Appalachia) > Virginia",https://www.mountainproject.com/route/121932431/humble-abode-right,1.0,-1,Boulder,V5,1,10,36.91842,-82.64315
"Party in the Front","Short Large Block > Center Lightside Bouldering > Center Lightside > Lightside > (6) Jaybird Gorge > Guest River Gorge > Southwest Virginia (Appalachia) > Virginia",https://www.mountainproject.com/route/115420653/party-in-the-front,1.0,-1,Boulder,V5,1,9,36.89937,-82.4186
"Winner Take Sloper","Hemingway Boulder > Hemingway Boulders > Bearpen Boulders > ~M.R.N.R.A. > Grayson Highlands State Park > Southwest Virginia (Appalachia) > Virginia",https://www.mountainproject.com/route/112542613/winner-take-sloper,1.0,-1,Boulder,V5,1,9,36.62171,-81.51197
"Born as Ghosts","Rage Boulders > Right Boneyard > Boneyard Area > Grayson Highlands State Park > Southwest Virginia (Appalachia) > Virginia",https://www.mountainproject.com/route/108264426/born-as-ghosts,1.0,-1,Boulder,V5,1,15,36.61272,-81.49442
"Trench Warfare","Wild Wood Boulder > Wild Wood > Haw Orchard > Grayson Highlands State Park > Southwest Virginia (Appalachia) > Virginia",https://www.mountainproject.com/route/107917845/trench-warfare,1.0,-1,Boulder,V5,1,20,36.6185,-81.48122
Freeway,"Roadside Boulder > Left Boneyard > Boneyard Area > Grayson Highlands State Park > Southwest Virginia (Appalachia) > Virginia",https://www.mountainproject.com/route/106701695/freeway,1.0,-1,Boulder,V5,1,12,36.61272,-81.49442
"Rapid Oxidation","Fire Boulder > Alchemy Area > Contact Station Area > Grayson Highlands State Park > Southwest Virginia (Appalachia) > Virginia",https://www.mountainproject.com/route/107640453/rapid-oxidation,1.0,-1,Boulder,V5,1,9,36.61245,-81.48092
Stretch,"Forty Five Block > Arrow Boulder Area > McAfee's Knob > Southwest Virginia (Appalachia) > Virginia",https://www.mountainproject.com/route/107084519/stretch,1.0,-1,Boulder,V5,1,10,37.3801,-80.0898
"Donkey Punch","The Slab > The Corridor & Beyond > McAfee's Knob > Southwest Virginia (Appalachia) > Virginia",https://www.mountainproject.com/route/107086665/donkey-punch,1.0,-1,Boulder,V5,1,10,37.3801,-80.0898
"Virginia Creeper Traverse","Virginia Creeper Boulder > Virginia Creeper Trail Bouldering > Southwest Virginia (Appalachia) > Virginia",https://www.mountainproject.com/route/107108799/virginia-creeper-traverse,1.0,-1,Boulder,V5,1,25,36.65847,-81.53778
"Wilderness Traverse","Wilderness Boulder > Right Boneyard > Boneyard Area > Grayson Highlands State Park > Southwest Virginia (Appalachia) > Virginia",https://www.mountainproject.com/route/106786660/wilderness-traverse,1.0,-1,Boulder,V5,1,9,36.61272,-81.49442
"Maxwell Dyno","Maxwell House Roof > Yall Star Boulders > - Private Property- Old House Boulders > Bluefield Boulders > Southwest Virginia (Appalachia) > Virginia",https://www.mountainproject.com/route/123733759/maxwell-dyno,3.0,-1,Boulder,V5,1,9,36.65846,-81.53778
Hydrangea,"Flower Boulder > Herb Boulders > Richmond Vicinity > Central & Southern VA Region > Virginia",https://www.mountainproject.com/route/123738368/hydrangea,2.0,-1,Boulder,V5,1,10,37.52383,-77.58205
Maikoa,"Flower Boulder > Herb Boulders > Richmond Vicinity > Central & Southern VA Region > Virginia",https://www.mountainproject.com/route/123738408/maikoa,2.0,-1,Boulder,V5,1,10,37.52383,-77.58205
"Hail Hydra","Hydra Boulder > Conway Robinson Memorial State Forest > DC & Northern VA Region > Virginia",https://www.mountainproject.com/route/123769340/hail-hydra,3.0,-1,Boulder,V5,1,10,38.80866,-77.5864
Lily,"Flower Boulder > Herb Boulders > Richmond Vicinity > Central & Southern VA Region > Virginia",https://www.mountainproject.com/route/123790184/lily,3.0,-1,Boulder,V5,1,8,37.52383,-77.58205
"Right Arete","PlainView Slab > The Buttermilks > Richmond Vicinity > Central & Southern VA Region > Virginia",https://www.mountainproject.com/route/123810237/right-arete,2.0,-1,Boulder,V5,1,12,37.5297,-77.48482
"Call Out It's Name","Jumanji Boulder > The Buttermilks > Richmond Vicinity > Central & Southern VA Region > Virginia",https://www.mountainproject.com/route/123810245/call-out-its-name,3.0,-1,Boulder,V5,1,15,37.52979,-77.48518
"Chris's Route","The Juicebox Boulder > The Buttermilks > Richmond Vicinity > Central & Southern VA Region > Virginia",https://www.mountainproject.com/route/123810254/chriss-route,3.0,-1,Boulder,V5,1,15,37.52969,-77.48441
Deliverance,"Liver Boulder > Clover Area > - Private Property- Old House Boulders > Bluefield Boulders > Southwest Virginia (Appalachia) > Virginia",https://www.mountainproject.com/route/123821985/deliverance,3.0,-1,Boulder,V5,1,8,36.65846,-81.53778
"Queen of Hearts","Queen Boulder > Clover Area > - Private Property- Old House Boulders > Bluefield Boulders > Southwest Virginia (Appalachia) > Virginia",https://www.mountainproject.com/route/123840427/queen-of-hearts,4.0,-1,Boulder,V5,1,13,36.65846,-81.53778
"Blood Intervention","Purgatory > Crescent Boulders > Shenandoah & NW VA Region > Virginia",https://www.mountainproject.com/route/123898389/blood-intervention,2.0,-1,Boulder,V5,1,12,39.12242,-77.85243
"Droptastic Knee Traverse","Constant Boulder > Right Boneyard > Boneyard Area > Grayson Highlands State Park > Southwest Virginia (Appalachia) > Virginia",https://www.mountainproject.com/route/123909696/droptastic-knee-traverse,3.5,-1,Boulder,V5,1,15,36.61272,-81.49442
"Green Goober","Greenstonia (Ridgeline) > The Forest > Blue Ridge Parkway > Charlottesville vicinity > Central & Southern VA Region > Virginia",https://www.mountainproject.com/route/124004092/green-goober,3.0,-1,Boulder,V5,1,10,37.53765,-77.45088
"Storm Shelter Stand","Storm Shelter Boulder > Storm Boulders > - Private Property- Old House Boulders > Bluefield Boulders > Southwest Virginia (Appalachia) > Virginia",https://www.mountainproject.com/route/124056207/storm-shelter-stand,4.0,-1,Boulder,V5,1,20,36.65846,-81.53778
"Invasion of the Body Snatchers","Crazy Eight (Snatcher) Boulder > Clover Area > - Private Property- Old House Boulders > Bluefield Boulders > Southwest Virginia (Appalachia) > Virginia",https://www.mountainproject.com/route/124056425/invasion-of-the-body-snatchers,4.0,-1,Boulder,V5,1,20,36.65846,-81.53778
"Laser Tag (Low)","Cap-Gun Boulder > Left Boneyard > Boneyard Area > Grayson Highlands State Park > Southwest Virginia (Appalachia) > Virginia",https://www.mountainproject.com/route/124056472/laser-tag-low,2.0,-1,Boulder,V5,1,10,36.61272,-81.49442
"Tales from Below the Crimps","Funny Farm Boulder > Richmond Vicinity > Central & Southern VA Region > Virginia",https://www.mountainproject.com/route/124278544/tales-from-below-the-crimps,3.0,-1,Boulder,V5,1,10,37.75646,-77.63232
"Saturday Night Special","Paddle Roof > Moonstone Area > Mile 1 Boulders > (1) Mile One > Guest River Gorge > Southwest Virginia (Appalachia) > Virginia",https://www.mountainproject.com/route/124561362/saturday-night-special,3.0,-1,Boulder,V5,1,10,36.91813,-82.41059
Waterfowl,"Gaggle of Geese Boulder > Blue Ridge Rail Way Trail > Amherst County > Central & Southern VA Region > Virginia",https://www.mountainproject.com/route/124577171/waterfowl,3.0,-1,Boulder,V5,1,8,37.69734,-79.00593
"Good for the Gander","Gaggle of Geese Boulder > Blue Ridge Rail Way Trail > Amherst County > Central & Southern VA Region > Virginia",https://www.mountainproject.com/route/124577204/good-for-the-gander,3.0,-1,Boulder,V5,1,6,37.69734,-79.00593
"Bet the Farm","New Growth Boulder > Atkins Bouldering > Southwest Virginia (Appalachia) > Virginia",https://www.mountainproject.com/route/125161196/bet-the-farm,2.0,-1,Boulder,V5,1,8,36.911,-81.45
"Right Direct","New Growth Boulder > Atkins Bouldering > Southwest Virginia (Appalachia) > Virginia",https://www.mountainproject.com/route/125162086/right-direct,2.0,-1,Boulder,V5,1,10,36.911,-81.45
"Give & Take","New Growth Boulder > Atkins Bouldering > Southwest Virginia (Appalachia) > Virginia",https://www.mountainproject.com/route/125162119/give-take,3.0,-1,Boulder,V5,1,11,36.911,-81.45
"Ludacris direct","Talking Headwall > Elizabeth Furnace > Shenandoah & NW VA Region > Virginia",https://www.mountainproject.com/route/125326581/ludacris-direct,3.0,-1,Boulder,"V5 PG13",1,30,38.9466,-78.3022
Bullseye,"New Growth Boulder > Atkins Bouldering > Southwest Virginia (Appalachia) > Virginia",https://www.mountainproject.com/route/125340363/bullseye,2.0,-1,Boulder,V5,1,10,36.911,-81.45
"Trinity Arete","Trinity Boulder > Trinity Area > - Private Property- Old House Boulders > Bluefield Boulders > Southwest Virginia (Appalachia) > Virginia",https://www.mountainproject.com/route/125608951/trinity-arete,3.0,-1,Boulder,V5,1,12,36.65846,-81.53778
"Farmers Almanac","Almanac Boulder > Trinity Area > - Private Property- Old House Boulders > Bluefield Boulders > Southwest Virginia (Appalachia) > Virginia",https://www.mountainproject.com/route/125608972/farmers-almanac,3.0,-1,Boulder,V5,1,12,36.65846,-81.53778
"Fast Forward","Velocity Roof > Velocity Area > - Private Property- Old House Boulders > Bluefield Boulders > Southwest Virginia (Appalachia) > Virginia",https://www.mountainproject.com/route/125609060/fast-forward,3.0,-1,Boulder,V5,1,11,36.65846,-81.53778
"Hot Yoga","Elliptical Boulder > Sleepy Area > - Private Property- Old House Boulders > Bluefield Boulders > Southwest Virginia (Appalachia) > Virginia",https://www.mountainproject.com/route/125609902/hot-yoga,2.0,-1,Boulder,V5,1,8,36.65846,-81.53778
"Sweet Tooth","Twisted Metal Boulder > Rattlesnake Area > - Private Property- Old House Boulders > Bluefield Boulders > Southwest Virginia (Appalachia) > Virginia",https://www.mountainproject.com/route/125611950/sweet-tooth,3.0,-1,Boulder,V5,1,13,36.65846,-81.53778
Underachiever,"Underachiever Boulder > Rattlesnake Area > - Private Property- Old House Boulders > Bluefield Boulders > Southwest Virginia (Appalachia) > Virginia",https://www.mountainproject.com/route/125614993/underachiever,2.0,-1,Boulder,V5,1,14,36.65846,-81.53778
"Bullocks Direct","Bullocks Boulder > Driveby Boulders > Blue Ridge Parkway > Charlottesville vicinity > Central & Southern VA Region > Virginia",https://www.mountainproject.com/route/125653876/bullocks-direct,3.0,-1,Boulder,V5,1,14,37.97905,-78.90895
"Captain Hook","Bullocks Boulder > Driveby Boulders > Blue Ridge Parkway > Charlottesville vicinity > Central & Southern VA Region > Virginia",https://www.mountainproject.com/route/125653934/captain-hook,4.0,-1,Boulder,V5,1,15,37.97905,-78.90895
PowerBait,"PowerBait Roof > Sand City Area > - Private Property- Old House Boulders > Bluefield Boulders > Southwest Virginia (Appalachia) > Virginia",https://www.mountainproject.com/route/125734986/powerbait,3.0,-1,Boulder,V5,1,12,36.65846,-81.53778
"Bones & All","Sand City Boulder > Sand City Area > - Private Property- Old House Boulders > Bluefield Boulders > Southwest Virginia (Appalachia) > Virginia",https://www.mountainproject.com/route/125736352/bones-all,3.0,-1,Boulder,V5,1,25,36.65846,-81.53778
Ravenwing,"Haunted Hill > Charlottesville vicinity > Central & Southern VA Region > Virginia",https://www.mountainproject.com/route/125779581/ravenwing,2.0,-1,Boulder,V5,1,10,37.77836,-78.99758
