Route,Location,URL,"Avg Stars","Your Stars","Route Type",Rating,Pitches,Length,"Area Latitude","Area Longitude"
"Under the Grid","Pond Cave > Pond Cave Area > Lincoln Woods > Rhode Island",https://www.mountainproject.com/route/107989480/under-the-grid,2.6,-1,Boulder,V8-9,1,12,41.9053,-71.4356
"The Scoop SDS","Heart Boulder > Lincoln Woods > Rhode Island",https://www.mountainproject.com/route/113846253/the-scoop-sds,2.6,-1,Boulder,V8-9,1,12,41.8986,-71.4351
"Gassed On","Warm Up Cave > Warm Up Area aka The Tomato Overhangs / Mack'sTraverse > Lincoln Woods > Rhode Island",https://www.mountainproject.com/route/111853665/gassed-on,2.0,-1,Boulder,V8-9,1,,41.8976,-71.4341
"Spelunking for Speed","Super Crack 2 > Super Crack 2 Area > Lincoln Woods > Rhode Island",https://www.mountainproject.com/route/112522273/spelunking-for-speed,1.5,-1,Boulder,V8-9,1,20,41.89974,-71.42871
"Jabba Project","Death Crack Boulder > Lincoln Woods > Rhode Island",https://www.mountainproject.com/route/120404503/jabba-project,1.0,-1,Boulder,V8-9,1,15,41.89998,-71.43488
"Troll Toll Project","Troll Toll > Caves and Troll Toll > Rocky Point > Rhode Island",https://www.mountainproject.com/route/111341380/troll-toll-project,1.0,-1,Boulder,V8-9,1,,41.68912,-71.3694
"Reverse Pete's OG","Try Again Boulder > Lincoln Woods > Rhode Island",https://www.mountainproject.com/route/125333235/reverse-petes-og,2.0,-1,Boulder,V8-9,1,18,41.89592,-71.43158
