Route,Location,URL,"Avg Stars","Your Stars","Route Type",Rating,Pitches,Length,"Area Latitude","Area Longitude"
"The Nose Thing","Eldon > Sandstone > Minnesota",https://www.mountainproject.com/route/109514153/the-nose-thing,3.4,-1,Boulder,V6,1,8,46.13257,-92.85603
"That Girl's a Bitch","Eldon > Sandstone > Minnesota",https://www.mountainproject.com/route/109514090/that-girls-a-bitch,3.6,-1,Boulder,V6,1,15,46.13257,-92.85603
"The Bipolar Traverse","The Depression Wall > South Little Foxx > Little Foxx Canyon > Duluth Area > Minnesota",https://www.mountainproject.com/route/106257766/the-bipolar-traverse,3.8,-1,Boulder,V6,1,25,46.7714,-92.1626
"Snow Piercer","Double X Boulder > Tomahawk Road > Minnesota",https://www.mountainproject.com/route/120410914/snow-piercer,4.0,-1,Boulder,V6,1,15,47.75538,-91.64471
"Crimper's Traverse","First Street Boulder > Duluth Area > Minnesota",https://www.mountainproject.com/route/118810772/crimpers-traverse,4.0,-1,Boulder,V6,1,15,46.77364,-92.11815
"Sentinel Pine Left","Crane Lake Wall > Crane Lake Area > MN/Canada Border Areas > Minnesota",https://www.mountainproject.com/route/112090389/sentinel-pine-left,4.0,-1,"Boulder, Alpine",V6,1,20,48.3097,-92.486
"Death By Stereo","Picnic Rock > Sawmill Creek Dome > Minnesota",https://www.mountainproject.com/route/105889623/death-by-stereo,3.0,-1,Boulder,V6,1,,47.4031,-91.1637
"Romeo Must Die","Jet Lee Wall > Kung Fu Boulders > Swede's Forest Boulders > Minnesota",https://www.mountainproject.com/route/107332190/romeo-must-die,3.5,-1,Boulder,V6,1,,44.6634,-95.3196
"Shot Down in Flames Right Exit","The Boonyards aka The B2 Pit > Interstate State Park Bouldering > Interstate SP (Taylors Falls) > Minnesota",https://www.mountainproject.com/route/116830900/shot-down-in-flames-right-exit,3.1,-1,Boulder,V6,1,16,45.39889,-92.65101
"King of Thumbs","Path to Got Me > Interstate State Park Bouldering > Interstate SP (Taylors Falls) > Minnesota",https://www.mountainproject.com/route/120002568/king-of-thumbs,2.8,-1,Boulder,V6,1,,45.39925,-92.65138
"Old Boy (I'm too old for this s *t)","Underbelly Boulder > Sawmill Creek Dome > Minnesota",https://www.mountainproject.com/route/110356926/old-boy-im-too-old-for-this-s-t,3.0,-1,Boulder,V6,1,12,47.40891,-91.16008
"Buzz Lightyear","Saddlestones > Ely's Peak Bouldering > Duluth Area > Minnesota",https://www.mountainproject.com/route/121535909/buzz-lightyear,3.0,-1,Boulder,V6,1,12,46.6836,-92.2511
"Rain Delay","Stewart Creek Boulders > Duluth Area > Minnesota",https://www.mountainproject.com/route/121213169/rain-delay,3.0,-1,Boulder,V6,1,,46.70325,-92.22544
"Pressing Matters","The Ghetto > Ely's Peak Bouldering > Duluth Area > Minnesota",https://www.mountainproject.com/route/120020741/pressing-matters,3.0,-1,Boulder,V6,1,18,46.68077,-92.25586
"The Blade","Blade Area > Bouldering @ Blue Mounds > Blue Mounds State Park (Luverne) > Minnesota",https://www.mountainproject.com/route/115312477/the-blade,3.0,-1,Boulder,V6,1,10,43.69611,-96.18632
"Witch Tree","Brewer's Park > Duluth Area > Minnesota",https://www.mountainproject.com/route/122767094/witch-tree,3.0,-1,Boulder,V6,1,12,46.75405,-92.17251
CheckmatE,"South Hartley Riverside > Duluth Area > Minnesota",https://www.mountainproject.com/route/107328180/checkmate,3.0,-1,Boulder,V6,1,40,46.9951,-92.089
"Time is Running Out","Picnic Rock > Sawmill Creek Dome > Minnesota",https://www.mountainproject.com/route/106434226/time-is-running-out,3.0,-1,Boulder,"V6 PG13",1,,47.4031,-91.1637
"Social Security","Brewer's Park > Duluth Area > Minnesota",https://www.mountainproject.com/route/106850617/social-security,3.0,-1,Boulder,V6,1,,46.75405,-92.17251
Bananimals,"Lower Wall > Postpartum Wall > Duluth Area > Minnesota",https://www.mountainproject.com/route/106268198/bananimals,2.8,-1,Boulder,V6,1,12,46.7669,-92.1525
"Crash Landing","The Boonyards aka The B2 Pit > Interstate State Park Bouldering > Interstate SP (Taylors Falls) > Minnesota",https://www.mountainproject.com/route/106434888/crash-landing,2.4,-1,Boulder,V6,1,12,45.39889,-92.65101
"False Hopes","Underbelly Boulder > Sawmill Creek Dome > Minnesota",https://www.mountainproject.com/route/107143584/false-hopes,2.5,-1,Boulder,V6,1,20,47.40891,-91.16008
"Foxy Lady","Foxx Rocks > Little Foxx Canyon > Duluth Area > Minnesota",https://www.mountainproject.com/route/106152256/foxy-lady,2.3,-1,Boulder,V6,1,9,46.76155,-92.16616
"Thief of Wives","The East End > Red Wing (a.k.a. He Mni Can, Barn Bluff) > Minnesota",https://www.mountainproject.com/route/105826251/thief-of-wives,2.0,-1,Boulder,"V6 PG13",1,20,44.56911,-92.5209
"Back Slapper Traverse","Picnic Rock > Sawmill Creek Dome > Minnesota",https://www.mountainproject.com/route/105890032/back-slapper-traverse,2.0,-1,Boulder,V6,1,,47.4031,-91.1637
"Rocket's Revenge","First Street Boulder > Duluth Area > Minnesota",https://www.mountainproject.com/route/105990151/rockets-revenge,2.0,-1,Boulder,V6,1,15,46.77364,-92.11815
"Glizzy Gladiator","ALC (Alternative Living Cave) > Ely's Peak Bouldering > Duluth Area > Minnesota",https://www.mountainproject.com/route/119187276/glizzy-gladiator,2.0,-1,Boulder,V6,1,10,46.68342,-92.25554
1912,"Bardon's Peak > Duluth Area > Minnesota",https://www.mountainproject.com/route/121536026/1912,2.0,-1,Boulder,V6,1,6,46.68363,-92.22657
"Lost sit","The Road Side Boulder > Minnesota",https://www.mountainproject.com/route/113435795/lost-sit,2.0,-1,Boulder,V6,1,15,47.79406,-92.37093
