Route,Location,URL,"Avg Stars","Your Stars","Route Type",Rating,Pitches,Length,"Area Latitude","Area Longitude"
Slashface,"Slash Boulder > Western Belt > Geology Tour Road Bouldering > Queen Valley Area Bouldering > *Joshua Tree Bouldering* > Joshua Tree National Park > California",https://www.mountainproject.com/route/105722755/slashface,3.9,-1,Boulder,"V3 R",1,25,33.95344,-116.08706
Gunsmoke,"Gunsmoke Wall > Gunsmoke Area > Barker Dam Bouldering > Central Joshua Tree Bouldering > *Joshua Tree Bouldering* > Joshua Tree National Park > California",https://www.mountainproject.com/route/105722350/gunsmoke,3.7,-1,Boulder,V3,1,80,34.02858,-116.14508
"Black Magic","Black Magic Boulder > Blood Simple Area > East Rim Area > Happy Boulders > Volcanic Tablelands (Happy/Sad Boulders) > Bishop Area > Sierra Eastside > California",https://www.mountainproject.com/route/106996981/black-magic,3.7,-1,Boulder,"V3 R",1,20,37.41675,-118.44942
"Lidija's Mouth","Lidija / Pollen Grain Boulder > Pollen Grains / Lidija Boulders > Buttermilk Country > Bishop Area > Sierra Eastside > California",https://www.mountainproject.com/route/106589288/lidijas-mouth,3.5,-1,Boulder,V3,1,12,37.3377,-118.5701
"Kor Problem","Kor Problem Boulder > Camp 4 Boulders > * Yosemite Valley Bouldering > Yosemite Valley > Yosemite National Park > California",https://www.mountainproject.com/route/107360640/kor-problem,3.4,-1,Boulder,V3,1,15,37.74287,-119.60284
Thunder,"Thunder Wall Boulder > Thunder Wall Area > Druid Stones > Bishop Area > Sierra Eastside > California",https://www.mountainproject.com/route/106079188/thunder,3.4,-1,Boulder,V3,1,11,37.30761,-118.43628
"Birthday Direct","Birthday Boulders > Buttermilks Main > Buttermilk Country > Bishop Area > Sierra Eastside > California",https://www.mountainproject.com/route/106027088/birthday-direct,3.3,-1,Boulder,V3,1,12,37.33004,-118.57901
"King Tut","Tut Boulder > Buttermilks Main > Buttermilk Country > Bishop Area > Sierra Eastside > California",https://www.mountainproject.com/route/105972724/king-tut,3.3,-1,Boulder,V3,1,17,37.329,-118.5773
"Rio's Secret Arete","Secret Arete Boulder > Sixty Foot Woman/Shadow Play Area > East Rim Area > Happy Boulders > Volcanic Tablelands (Happy/Sad Boulders) > Bishop Area > Sierra Eastside > California",https://www.mountainproject.com/route/106996368/rios-secret-arete,3.8,-1,Boulder,V3,1,,37.41797,-118.45146
"Once Upon a Time","The Storybook Boulder > Candyland Boulders > * Yosemite Valley Bouldering > Yosemite Valley > Yosemite National Park > California",https://www.mountainproject.com/route/106783145/once-upon-a-time,3.9,-1,Boulder,V3,1,15,37.72224,-119.61343
"Funky Tut","Tut Boulder > Buttermilks Main > Buttermilk Country > Bishop Area > Sierra Eastside > California",https://www.mountainproject.com/route/106077053/funky-tut,3.3,-1,Boulder,V3,1,15,37.329,-118.5773
"Gypsy's Day Out","Little Saigon Boulder > North Basin > Boulder Basin > Black Mountain > San Jacinto Mountains > California",https://www.mountainproject.com/route/110431656/gypsys-day-out,3.2,-1,Boulder,V3,1,10,33.82878,-116.75527
"Charlotte's Web","Charlotte's Web Area > The Brickyard > * Santa Barbara Bouldering > Santa Barbara > Central Coast > California",https://www.mountainproject.com/route/106603327/charlottes-web,3.2,-1,Boulder,V3,1,20,34.49787,-119.8617
"The Fang [Not Recommended]","X5 Boulder > Main Area > Horse Flats > Angeles National Forest > Los Angeles Basin > California",https://www.mountainproject.com/route/106161132/the-fang-not-recommended,3.2,-1,Boulder,V3,1,20,34.34074,-118.01659
"Center Overhang (aka Pitfall)","The Pit (West Side) > Indian Rock Park > Berkeley > East Bay Area > San Francisco Bay Area > California",https://www.mountainproject.com/route/105734705/center-overhang-aka-pitfall,3.1,-1,"TR, Boulder","5.11 V3 R",1,20,37.89229,-122.27309
"Leaping Lizards","Boulder 1 > Stoney Point > Los Angeles Basin > California",https://www.mountainproject.com/route/106074256/leaping-lizards,3.1,-1,Boulder,V3,1,15,34.2698,-118.6056
"Shaken, Not Stirred","Femme Fatale Area > The Lizard's Mouth > * Santa Barbara Bouldering > Santa Barbara > Central Coast > California",https://www.mountainproject.com/route/106393724/shaken-not-stirred,3.4,-1,Boulder,V3,1,14,34.50207,-119.86674
"Yabo Roof","Yabo Roof Area > JBMF Boulders > Roadside Rocks Bouldering > Hidden Valley Area Bouldering > *Joshua Tree Bouldering* > Joshua Tree National Park > California",https://www.mountainproject.com/route/106039628/yabo-roof,3.0,-1,Boulder,V3,1,6,34.01468,-116.1658
"Frank's Roof","Frank's Boulder > Trailside Boulders > The Tramway > San Jacinto Mountains > California",https://www.mountainproject.com/route/106228976/franks-roof,3.0,-1,Boulder,V3,1,10,33.81241,-116.64602
"Carrot Top","Fred Boulder > Savannah Area > Happy Boulders > Volcanic Tablelands (Happy/Sad Boulders) > Bishop Area > Sierra Eastside > California",https://www.mountainproject.com/route/106126702/carrot-top,3.0,-1,Boulder,V3,1,12,37.4182,-118.4521
"Yabba Dabba Don't","Yabba Dabba Don't Boulder > Outback Bouldering > Hidden Valley Area Bouldering > *Joshua Tree Bouldering* > Joshua Tree National Park > California",https://www.mountainproject.com/route/106066269/yabba-dabba-dont,3.0,-1,Boulder,V3,1,15,34.01968,-116.16583
"Slap Happy","Slap Happy Boulder > Wavy Gravy Area > Happy Boulders > Volcanic Tablelands (Happy/Sad Boulders) > Bishop Area > Sierra Eastside > California",https://www.mountainproject.com/route/106093108/slap-happy,2.9,-1,Boulder,V3,1,12,37.41653,-118.44996
"Happy Hunting Grounds (a.k.a. Heaven on Top)","Happy Hunting Grounds > Pine Mountain > Hwy 33/Ojai Bouldering > Hwy 33/Ojai > Central Coast > California",https://www.mountainproject.com/route/106527223/happy-hunting-grounds-aka-heaven-on-top,3.8,-1,Boulder,V3,1,25,34.63641,-119.31488
"The Beak Traverse","The Beak > Magoos > Castle Rock Loop > * Castle Rock Area Bouldering > Castle Rock Area > South Bay Area > San Francisco Bay Area > California",https://www.mountainproject.com/route/105736181/the-beak-traverse,2.9,-1,Boulder,V3,1,10,37.22844,-122.09592
"Monkey Hang","Monkey Hang Boulder > Slow Dance/Gleaner Area > Happy Boulders > Volcanic Tablelands (Happy/Sad Boulders) > Bishop Area > Sierra Eastside > California",https://www.mountainproject.com/route/105799647/monkey-hang,2.9,-1,Boulder,V3,1,,37.41619,-118.44914
Undertow,"Manx Boulders - Northwest Face > Manx Boulders > Manx Boulders Circuit > Manx/Asteroid Belt Circuit > Hidden Valley Campground Bouldering > Hidden Valley Area Bouldering > *Joshua Tree Bouldering* > Joshua Tree National Park > California",https://www.mountainproject.com/route/105908399/undertow,2.9,-1,Boulder,V3,1,16,34.01431,-116.15814
"Satellite Boulder Left","Satellite Boulder > Planet X Area > Planet X Bouldering > Central Joshua Tree Bouldering > *Joshua Tree Bouldering* > Joshua Tree National Park > California",https://www.mountainproject.com/route/107601458/satellite-boulder-left,3.5,-1,Boulder,"V3 PG13",1,18,33.9966,-116.15558
"Painted Carnival","Picnic Area Boulders > Pine Mountain > Hwy 33/Ojai Bouldering > Hwy 33/Ojai > Central Coast > California",https://www.mountainproject.com/route/105885628/painted-carnival,3.2,-1,Boulder,V3,1,15,34.63912,-119.32692
"Flake Traverse","The Pit (West Side) > Indian Rock Park > Berkeley > East Bay Area > San Francisco Bay Area > California",https://www.mountainproject.com/route/105734783/flake-traverse,2.7,-1,Boulder,V3,1,20,37.89229,-122.27309
"The Swim","Mrs Magoo Boulder > Magoos > Castle Rock Loop > * Castle Rock Area Bouldering > Castle Rock Area > South Bay Area > San Francisco Bay Area > California",https://www.mountainproject.com/route/107000865/the-swim,2.7,-1,Boulder,V3,1,8,37.22827,-122.09556
"Not So Thin Lizzie","Lizzie Boulder > Outback Bouldering > Hidden Valley Area Bouldering > *Joshua Tree Bouldering* > Joshua Tree National Park > California",https://www.mountainproject.com/route/105725713/not-so-thin-lizzie,2.7,-1,Boulder,V3,1,10,34.01974,-116.16614
Mushy,"Chlorissa > * Bishop Peak Bouldering > Bishop Peak > San Luis Obispo > Central Coast > California",https://www.mountainproject.com/route/105737291/mushy,3.4,-1,Boulder,V3,1,15,35.30376,-120.69275
"Beer Tumor","Headbangers Cave > Jesus Chrysler Area > Happy Boulders > Volcanic Tablelands (Happy/Sad Boulders) > Bishop Area > Sierra Eastside > California",https://www.mountainproject.com/route/106275477/beer-tumor,2.6,-1,Boulder,V3,1,10,37.41591,-118.44877
"The Scoop","The Scoop Boulder > The Knobs > * Tuolumne Bouldering > Tuolumne Meadows > Yosemite National Park > California",https://www.mountainproject.com/route/106818342/the-scoop,3.8,-1,Boulder,V3,1,,37.85309,-119.44102
"Birthday Skyline","Birthday Boulders > Buttermilks Main > Buttermilk Country > Bishop Area > Sierra Eastside > California",https://www.mountainproject.com/route/106277573/birthday-skyline,2.6,-1,Boulder,V3,1,12,37.33004,-118.57901
"Kodas' Corner","Canyon Boulders > Stoney Point > Los Angeles Basin > California",https://www.mountainproject.com/route/105961204/kodas-corner,3.9,-1,Boulder,V3,1,20,34.27152,-118.60341
"Iron Man","Pirate's Cove (aka The Beach or Corona Del Mar) > Corona Del Mar > Beaches > Los Angeles Basin > California",https://www.mountainproject.com/route/106068137/iron-man,3.4,-1,Boulder,V3,1,18,33.5947,-117.87816
"Double Dyno","Eliminator Boulder > The Knobs > * Tuolumne Bouldering > Tuolumne Meadows > Yosemite National Park > California",https://www.mountainproject.com/route/107459753/double-dyno,3.1,-1,Boulder,V3,1,12,37.85273,-119.44141
"Pirate Booty","Slap Happy Boulder > Wavy Gravy Area > Happy Boulders > Volcanic Tablelands (Happy/Sad Boulders) > Bishop Area > Sierra Eastside > California",https://www.mountainproject.com/route/106093121/pirate-booty,2.4,-1,Boulder,V3,1,10,37.41653,-118.44996
"The Angler","Angler Boulder > Curry Village > * Yosemite Valley Bouldering > Yosemite Valley > Yosemite National Park > California",https://www.mountainproject.com/route/108200959/the-angler,3.1,-1,Boulder,V3,1,10,37.73647,-119.57372
"Comfort of Home","More Water, Less Power Boulder > Central Happiness Area > Happy Boulders > Volcanic Tablelands (Happy/Sad Boulders) > Bishop Area > Sierra Eastside > California",https://www.mountainproject.com/route/106130495/comfort-of-home,2.4,-1,Boulder,V3,1,12,37.41724,-118.45103
"Panic in the streets","Sunset Boulevard > The Lizard's Mouth > * Santa Barbara Bouldering > Santa Barbara > Central Coast > California",https://www.mountainproject.com/route/106412814/panic-in-the-streets,2.7,-1,Boulder,V3,1,12,34.50218,-119.86586
"Grim Reality","Grim Reality > Bliss Entrance > Bliss > West Shore > Lake Tahoe > California",https://www.mountainproject.com/route/107323765/grim-reality,3.8,-1,Boulder,"V3 PG13",1,15,38.97812,-120.10313
"The Church of the Lost and Found (Left)","Church of the Lost and Found > Catacombs > Sherwin Plateau > Mammoth Lakes Area > Sierra Eastside > California",https://www.mountainproject.com/route/106068566/the-church-of-the-lost-and-found-left,3.9,-1,Boulder,V3,1,10,37.56971,-118.61272
"Embryonic Journey","The Pit (West Side) > Indian Rock Park > Berkeley > East Bay Area > San Francisco Bay Area > California",https://www.mountainproject.com/route/105735323/embryonic-journey,2.6,-1,Boulder,V3,1,20,37.89229,-122.27309
"The Bulge","Stonewall Rock > Woodcrest Ridge Boulders > Woodcrest Boulders > The Nut Tree Boulders > Wine Country/Northeast Bay > San Francisco Bay Area > California",https://www.mountainproject.com/route/107979471/the-bulge,3.5,-1,Boulder,V3,1,,38.37668,-121.98461
Safesurfer,"Safe Surfer Boulder > Split Melon Area > Happy Boulders > Volcanic Tablelands (Happy/Sad Boulders) > Bishop Area > Sierra Eastside > California",https://www.mountainproject.com/route/108091202/safesurfer,2.4,-1,Boulder,V3,1,10,37.417,-118.4509
Jumpstart,"The Amphitheater > Moby Dick Area > Santee Boulders > South San Diego County > San Diego County > California",https://www.mountainproject.com/route/105993562/jumpstart,3.3,-1,Boulder,V3,1,,32.85064,-117.0211
Joseph,"Gleaner Boulder > Slow Dance/Gleaner Area > Happy Boulders > Volcanic Tablelands (Happy/Sad Boulders) > Bishop Area > Sierra Eastside > California",https://www.mountainproject.com/route/106099420/joseph,2.4,-1,Boulder,V3,1,15,37.41631,-118.44951
"The Visor Lip","Visor Boulder > NRA > The Summit > Black Mountain > San Jacinto Mountains > California",https://www.mountainproject.com/route/105991701/the-visor-lip,3.0,-1,Boulder,V3,1,10,33.82161,-116.75728
"Hueco Wall","Morphic Boulder > Lower Corral > OK Corral > Black Mountain > San Jacinto Mountains > California",https://www.mountainproject.com/route/107508449/hueco-wall,3.8,-1,Boulder,"V3 R",1,18,33.81626,-116.75537
"Caveman Finish","Caveman Boulder > HVCG West > HVCG Bouldering Circuit > Hidden Valley Campground Bouldering > Hidden Valley Area Bouldering > *Joshua Tree Bouldering* > Joshua Tree National Park > California",https://www.mountainproject.com/route/118130718/caveman-finish,2.7,-1,Boulder,V3,1,12,34.01622,-116.1633
"Machine World","Puppy Dome > Tuolumne Meadows > Yosemite National Park > California",https://www.mountainproject.com/route/106265351/machine-world,3.5,-1,Boulder,"5.11c V3",1,,37.87456,-119.34524
"Golden Rastafarian","Golden Rastafarian > Kitty Boulders > * Tuolumne Bouldering > Tuolumne Meadows > Yosemite National Park > California",https://www.mountainproject.com/route/107032630/golden-rastafarian,3.7,-1,Boulder,V3,1,15,37.87275,-119.34695
"The Space Suit","Space Suit Boulder > Kung-Fu Area > Sad Boulders > Volcanic Tablelands (Happy/Sad Boulders) > Bishop Area > Sierra Eastside > California",https://www.mountainproject.com/route/107018161/the-space-suit,2.8,-1,Boulder,V3,1,15,37.41934,-118.43437
"The Butthole","The Mouth > The Lizard's Mouth > * Santa Barbara Bouldering > Santa Barbara > Central Coast > California",https://www.mountainproject.com/route/109005069/the-butthole,3.1,-1,Boulder,V3,1,14,34.50224,-119.86794
"Black Dot","Black Dot Boulder > Windy Boulders Central > Windy Boulders > Culp Valley > San Diego County Desert Area > San Diego County > California",https://www.mountainproject.com/route/106596381/black-dot,3.1,-1,Boulder,V3,1,12,33.21361,-116.45557
"To Kill Ya Corner","Get Carter Boulder > Buttermilk Country > Bishop Area > Sierra Eastside > California",https://www.mountainproject.com/route/106029305/to-kill-ya-corner,3.0,-1,Boulder,V3,1,,37.3388,-118.5776
"Pile Driver","Pile Ups > Stoney Point > Los Angeles Basin > California",https://www.mountainproject.com/route/105921615/pile-driver,2.1,-1,Boulder,"5.11 V3",1,10,34.26915,-118.60472
"Rail Problem","Roadside Boulder > Roadside Area > Buttermilks Main > Buttermilk Country > Bishop Area > Sierra Eastside > California",https://www.mountainproject.com/route/105936169/rail-problem,2.5,-1,Boulder,V3,1,,37.3282,-118.5761
Tri-Nitro-Toulumne,"Emerald City > The West Rim > Shangri-La Valley > The Tramway > San Jacinto Mountains > California",https://www.mountainproject.com/route/107176665/tri-nitro-toulumne,3.6,-1,Boulder,"V3 PG13",1,20,33.81759,-116.64934
"Heavy Traffic","Trojan Boulder > Painted Cave > * Santa Barbara Bouldering > Santa Barbara > Central Coast > California",https://www.mountainproject.com/route/106822513/heavy-traffic,3.5,-1,Boulder,V3,1,15,34.4992,-119.7894
"No Fur","No Fur Boulder > *CLOSED FOR SAFETY* Ahwahnee Boulders > * Yosemite Valley Bouldering > Yosemite Valley > Yosemite National Park > California",https://www.mountainproject.com/route/117403321/no-fur,3.5,-1,Boulder,V3,1,10,37.74725,-119.57482
"Like a Virgin","Central Sector > Bachar Boulders > * June Lake Bouldering > June Lake Area > Sierra Eastside > California",https://www.mountainproject.com/route/106047506/like-a-virgin,3.9,-1,Boulder,"V3 R",1,25,37.8259,-119.0545
"Le Fissure King","Cracked Boulder > Skofield Park > * Santa Barbara Bouldering > Santa Barbara > Central Coast > California",https://www.mountainproject.com/route/106490145/le-fissure-king,2.8,-1,Boulder,V3,1,,34.45565,-119.69649
"East Side Story","Stained Glass/Flyboy Area > Buttermilks Main > Buttermilk Country > Bishop Area > Sierra Eastside > California",https://www.mountainproject.com/route/108367743/east-side-story,3.8,-1,Boulder,V3,1,30,37.33057,-118.57834
"Vise Grip","The Shroom Boulder > Salt Point State Park > Wine Country/Northeast Bay > San Francisco Bay Area > California",https://www.mountainproject.com/route/105736010/vise-grip,3.4,-1,Boulder,V3,1,10,38.58637,-123.3387
"Lizard Corner","Seminar Wall Area > Mount Woodson > North San Diego County > San Diego County > California",https://www.mountainproject.com/route/107561338/lizard-corner,3.0,-1,Boulder,V3,1,15,33.0066,-116.96539
"The Wave","The Wave > Secrets > Salt Point State Park > Wine Country/Northeast Bay > San Francisco Bay Area > California",https://www.mountainproject.com/route/113131547/the-wave,3.5,-1,Boulder,V3,1,17,38.60442,-123.36973
All-Nighter,"Slow Dance Cave > Slow Dance/Gleaner Area > Happy Boulders > Volcanic Tablelands (Happy/Sad Boulders) > Bishop Area > Sierra Eastside > California",https://www.mountainproject.com/route/107032817/all-nighter,2.6,-1,Boulder,"V3 R",1,25,37.41624,-118.44938
Grindrite,"Grindrite Boulder > Tom Peter's Slab Area > Happy Boulders > Volcanic Tablelands (Happy/Sad Boulders) > Bishop Area > Sierra Eastside > California",https://www.mountainproject.com/route/106273815/grindrite,3.0,-1,Boulder,V3,1,15,37.41602,-118.44909
"Italian Fall","Pirate's Cove (aka The Beach or Corona Del Mar) > Corona Del Mar > Beaches > Los Angeles Basin > California",https://www.mountainproject.com/route/106769050/italian-fall,2.6,-1,"Trad, Boulder",V3,1,,33.5947,-117.87816
"The Sloth","Sloth Boulder > Swan Slab Boulders > * Yosemite Valley Bouldering > Yosemite Valley > Yosemite National Park > California",https://www.mountainproject.com/route/106951283/the-sloth,3.2,-1,Boulder,V3,1,,37.74462,-119.60057
"Sculpture's Crack Traverse","Sculpture's Crack Wall > Stoney Point > Los Angeles Basin > California",https://www.mountainproject.com/route/105967882/sculptures-crack-traverse,3.5,-1,Boulder,V3,1,,34.27146,-118.60379
"Feel's like a Virgin","Boulder Cluster > Shangri-La > Shangri-La Valley > The Tramway > San Jacinto Mountains > California",https://www.mountainproject.com/route/108190840/feels-like-a-virgin,3.7,-1,Boulder,"V3 R",1,16,33.81425,-116.64769
"Head Heritage","Molly Area > Sad Boulders > Volcanic Tablelands (Happy/Sad Boulders) > Bishop Area > Sierra Eastside > California",https://www.mountainproject.com/route/106108534/head-heritage,2.2,-1,Boulder,V3,1,10,37.42075,-118.43391
Toothless,"The Bird Cage Boulder > Sad Parrot Area > Sad Boulders > Volcanic Tablelands (Happy/Sad Boulders) > Bishop Area > Sierra Eastside > California",https://www.mountainproject.com/route/106731651/toothless,2.4,-1,Boulder,V3,1,12,37.42173,-118.43338
"Texas Radio","Tenaya West Boulders > * Tuolumne Bouldering > Tuolumne Meadows > Yosemite National Park > California",https://www.mountainproject.com/route/109217550/texas-radio,4.0,-1,Boulder,"V3 PG13",1,,37.83841,-119.45219
"Hueco Problem","Lower Ridge > Pine Mountain > Hwy 33/Ojai Bouldering > Hwy 33/Ojai > Central Coast > California",https://www.mountainproject.com/route/108316824/hueco-problem,3.0,-1,Boulder,V3,1,8,34.63833,-119.31896
"Roadside Highball","Roadside Boulder > Roadside Area > Buttermilks Main > Buttermilk Country > Bishop Area > Sierra Eastside > California",https://www.mountainproject.com/route/107916146/roadside-highball,3.4,-1,Boulder,"V3 PG13",1,18,37.3282,-118.5761
"Ahwahnee Fin","Ahwahnee Fin Boulder > *CLOSED FOR SAFETY* Ahwahnee Boulders > * Yosemite Valley Bouldering > Yosemite Valley > Yosemite National Park > California",https://www.mountainproject.com/route/119523269/ahwahnee-fin,3.4,-1,Boulder,V3,1,20,37.74725,-119.57482
"Get It Up","Get it Up Boulder > Cathedral Boulders > * Yosemite Valley Bouldering > Yosemite Valley > Yosemite National Park > California",https://www.mountainproject.com/route/108329030/get-it-up,3.6,-1,Boulder,V3,1,,37.71796,-119.62824
"Dan's Problem","Rapunzel's Tower > Potter's Point > * Santa Barbara Bouldering > Santa Barbara > Central Coast > California",https://www.mountainproject.com/route/107108158/dans-problem,3.1,-1,Boulder,V3,1,12,34.48601,-119.69174
"Problem A","Ranger Rock > Buttermilks Main > Buttermilk Country > Bishop Area > Sierra Eastside > California",https://www.mountainproject.com/route/105936787/problem-a,2.4,-1,Boulder,V3,1,,37.32964,-118.57869
"The X Problem","The X Boulder > Malibu Lieback Area > Malibu Tunnel Boulders > *Santa Monica Mountains Bouldering > Santa Monica Mountains > Los Angeles Basin > California",https://www.mountainproject.com/route/112919993/the-x-problem,3.8,-1,Boulder,"V3 R",1,12,34.07423,-118.704
"Quality Line","Quality Boulder > Pie Shop Bouldering > The Pie Shop > South Shore > Lake Tahoe > California",https://www.mountainproject.com/route/118821146/quality-line,3.5,-1,Boulder,V3,1,15,38.88269,-120.01062
"Snake Eyes","Eliminator Boulder > The Knobs > * Tuolumne Bouldering > Tuolumne Meadows > Yosemite National Park > California",https://www.mountainproject.com/route/113548878/snake-eyes,3.0,-1,Boulder,V3,1,12,37.85273,-119.44141
"East Rib","Green Wall Boulder > Buttermilks Main > Buttermilk Country > Bishop Area > Sierra Eastside > California",https://www.mountainproject.com/route/107908759/east-rib,3.4,-1,Boulder,"V3 PG13",1,30,37.32873,-118.57534
"La Migra","Texas Boulder > Roadside Rocks Bouldering > Hidden Valley Area Bouldering > *Joshua Tree Bouldering* > Joshua Tree National Park > California",https://www.mountainproject.com/route/106136573/la-migra,2.8,-1,Boulder,V3,1,13,34.0181,-116.1698
"Flash Gordon","Flash Gordon Boulder > Flash Gordon Area > The Tramway > San Jacinto Mountains > California",https://www.mountainproject.com/route/106226208/flash-gordon,2.1,-1,Boulder,V3,1,5,33.81345,-116.64506
"Arete to Arete","Campground Boulder > Rock Creek Bouldering > Rock Creek > Mammoth Lakes Area > Sierra Eastside > California",https://www.mountainproject.com/route/106308523/arete-to-arete,2.8,-1,Boulder,"V3 PG13",1,20,37.5103,-118.7147
"Bloody Madness","The Boulder of Bloody Madness > Woodcrest Ridge Boulders > Woodcrest Boulders > The Nut Tree Boulders > Wine Country/Northeast Bay > San Francisco Bay Area > California",https://www.mountainproject.com/route/105736163/bloody-madness,3.1,-1,Boulder,V3,1,,38.37625,-121.98607
"Hocus Pocus","4&5 Center > Groupsites 4&5 > Groupsites > Black Mountain > San Jacinto Mountains > California",https://www.mountainproject.com/route/112293879/hocus-pocus,2.5,-1,Boulder,V3,1,12,33.83737,-116.74584
"Right Leaning Crack SDS","Pacific Street Wall > Rocklin (Deer Creek Park) > I-80 Corridor > Lake Tahoe > California",https://www.mountainproject.com/route/108473679/right-leaning-crack-sds,3.0,-1,Boulder,V3,1,12,38.78688,-121.23924
"A Horse Named Mystery","4. Fraggle Rock > Conejo Boulders > Conejo Mountain > Central Coast > California",https://www.mountainproject.com/route/111959111/a-horse-named-mystery,3.7,-1,Boulder,"V3 PG13",1,,34.19718,-118.96511
"Horse Trail Prow","Horse Trail Boulders > Columbia State Historic Park > Columbia Bouldering > Sonora Pass Highway (108) > California",https://www.mountainproject.com/route/117023098/horse-trail-prow,3.8,-1,Boulder,"V3 R",1,20,38.0346,-120.39736
"Old Soft Hsu","Trojan Boulder > Painted Cave > * Santa Barbara Bouldering > Santa Barbara > Central Coast > California",https://www.mountainproject.com/route/106822531/old-soft-hsu,3.0,-1,Boulder,V3,1,12,34.4992,-119.7894
Miledi,"Miledi Boulder > Miledi Boulders > Quail Springs Bouldering > *Joshua Tree Bouldering* > Joshua Tree National Park > California",https://www.mountainproject.com/route/105790036/miledi,3.8,-1,Boulder,"V3 R",1,25,34.07547,-116.24202
"Endo Boy","Boulder 1 > Stoney Point > Los Angeles Basin > California",https://www.mountainproject.com/route/107006506/endo-boy,3.0,-1,Boulder,V3,1,20,34.2698,-118.6056
"Sitting Bull","Lower Irish Boulders > 7. Irish Boulders > Conejo Boulders > Conejo Mountain > Central Coast > California",https://www.mountainproject.com/route/112466956/sitting-bull,4.0,-1,Boulder,V3,1,,34.19908,-118.96195
"Maximum Relaxum","Death Star Cave > Sad Boulders > Volcanic Tablelands (Happy/Sad Boulders) > Bishop Area > Sierra Eastside > California",https://www.mountainproject.com/route/106617237/maximum-relaxum,2.9,-1,Boulder,V3,1,15,37.42029,-118.43379
"Act of Contrition","Broken Egg > Turtle Rock Circuit > Real Hidden Valley Bouldering > Hidden Valley Area Bouldering > *Joshua Tree Bouldering* > Joshua Tree National Park > California",https://www.mountainproject.com/route/106143002/act-of-contrition,3.9,-1,Boulder,"V3 R",1,20,34.01116,-116.16725
"Big Boss Man","The Office > Indian Rock Side > * Castle Rock Area Bouldering > Castle Rock Area > South Bay Area > San Francisco Bay Area > California",https://www.mountainproject.com/route/116997430/big-boss-man,3.8,-1,Boulder,"V3 PG13",1,15,37.23246,-122.09492
"Easy Does It","4. Fraggle Rock > Conejo Boulders > Conejo Mountain > Central Coast > California",https://www.mountainproject.com/route/111822515/easy-does-it,3.3,-1,Boulder,V3,1,13,34.19718,-118.96511
"Lunge For It (aka All Lunged Out)","Sandy Wash Corridor > Cap Rock Bouldering > Central Joshua Tree Bouldering > *Joshua Tree Bouldering* > Joshua Tree National Park > California",https://www.mountainproject.com/route/105723310/lunge-for-it-aka-all-lunged-out,2.5,-1,Boulder,V3,1,10,33.98848,-116.16102
"Eye of the Bunholder","Eye of the Bunholder > South Yuba River: 49 Crossing > Auburn and Grass Valley > I-80 Corridor > Lake Tahoe > California",https://www.mountainproject.com/route/108510445/eye-of-the-bunholder,3.9,-1,Boulder,V3,1,12,39.29832,-121.08961
"Old School Problem  2 AKA South Arête.","The Big Orange Block (aka The Spear Head) > The Grinding Stones Circuit > Mission Gorge Bouldering > Mission Gorge > South San Diego County > San Diego County > California",https://www.mountainproject.com/route/108838259/old-school-problem-2-aka-south-arete,3.9,-1,Boulder,"5.11a V3",1,15,32.82402,-117.0529
"Hail Mary","Hail Mary Boulder > Talladega Nights Area > Way Lake > * Mammoth Lakes Bouldering > Mammoth Lakes Area > Sierra Eastside > California",https://www.mountainproject.com/route/109135276/hail-mary,3.7,-1,Boulder,"V3 PG13",1,,37.5813,-118.99014
Thriller,"Upper Irish Boulders > 7. Irish Boulders > Conejo Boulders > Conejo Mountain > Central Coast > California",https://www.mountainproject.com/route/114089947/thriller,4.0,-1,Boulder,"V3 R",1,10,34.19855,-118.96232
"Lost Boy","2. Lost Gulley > Conejo Boulders > Conejo Mountain > Central Coast > California",https://www.mountainproject.com/route/113951134/lost-boy,4.0,-1,Boulder,V3,1,10,34.19811,-118.96528
"Boulder 1 Traverse","Boulder 1 > Stoney Point > Los Angeles Basin > California",https://www.mountainproject.com/route/106154403/boulder-1-traverse,3.0,-1,Boulder,V3,1,,34.2698,-118.6056
"The Pit","Indian Joe Caves bouldering > Indian Joe Caves > East Bay Area > San Francisco Bay Area > California",https://www.mountainproject.com/route/116574448/the-pit,4.0,-1,Boulder,"V3 R",1,20,37.52484,-121.81869
Brainwave,"The Wave > Secrets > Salt Point State Park > Wine Country/Northeast Bay > San Francisco Bay Area > California",https://www.mountainproject.com/route/116596491/brainwave,3.7,-1,Boulder,"V3 R",1,20,38.60442,-123.36973
"Old Gregg","Jacked and Tan > Potter's Point > * Santa Barbara Bouldering > Santa Barbara > Central Coast > California",https://www.mountainproject.com/route/106609727/old-gregg,2.9,-1,Boulder,V3,1,10,34.4912,-119.6902
"Mars Attack","Boulder M (aka Mars Boulder) > Trailhead Boulders > Pie Shop Bouldering > The Pie Shop > South Shore > Lake Tahoe > California",https://www.mountainproject.com/route/109388569/mars-attack,2.8,-1,Boulder,V3,1,12,38.87639,-120.01129
"Juguysko Traverse","Houda South > Houda Point > *Northwest California Bouldering > Northwest California > California",https://www.mountainproject.com/route/112061070/juguysko-traverse,4.0,-1,Boulder,V3,1,20,41.03444,-124.11731
"The Emperor's New Clothes","Kong Boulder > King Kong > Boulder Basin > Black Mountain > San Jacinto Mountains > California",https://www.mountainproject.com/route/108374315/the-emperors-new-clothes,3.8,-1,Boulder,V3,1,20,33.82719,-116.75376
"The Seam","Turtle Rock > Ring Mountain > Marin/Northwest Bay Area > San Francisco Bay Area > California",https://www.mountainproject.com/route/114388266/the-seam,2.7,-1,Boulder,V3,1,,37.91104,-122.49157
"Pocket Rocket","Pocket Rocket > K-Rock Bouldering > K-Rock Area > Horsemen's Center > Apple Valley Area > High Desert > California",https://www.mountainproject.com/route/107065408/pocket-rocket,3.6,-1,Boulder,V3,1,20,34.47948,-117.13108
"Fear of the Unknown","Sacrificial Boulder > Druid Stones > Bishop Area > Sierra Eastside > California",https://www.mountainproject.com/route/107009299/fear-of-the-unknown,3.5,-1,Boulder,"V3 PG13",1,17,37.30698,-118.43702
Goblout,"The Goblin Boulders > Mount Woodson > North San Diego County > San Diego County > California",https://www.mountainproject.com/route/120305787/goblout,4.0,-1,Boulder,V3,1,12,33.00849,-116.98112
"Man Overboard","Klinghoffers > * Castle Rock Area Bouldering > Castle Rock Area > South Bay Area > San Francisco Bay Area > California",https://www.mountainproject.com/route/116845351/man-overboard,4.0,-1,Boulder,"V3 PG13",1,15,37.22862,-122.10453
"The Scoop","G Boulder (aka Largo Stem) > Central Corral > OK Corral > Black Mountain > San Jacinto Mountains > California",https://www.mountainproject.com/route/108578302/the-scoop,3.6,-1,Boulder,V3,1,20,33.81741,-116.75355
Dionysus,"Summit Area > Lake Ramona > North San Diego County > San Diego County > California",https://www.mountainproject.com/route/112833520/dionysus,4.0,-1,Boulder,V3,1,15,33.03298,-116.99852
"Stonefly Stand","Boyden Boulder > Boyden/ Windy Cliff Area > Kings Canyon > Sequoia & Kings Canyon NP > California",https://www.mountainproject.com/route/122053700/stonefly-stand,4.0,-1,Boulder,V3,1,12,36.81665,-118.81967
"Ethical Joe","Petroglyph Trail Parking Area > Blair Valley > San Diego County Desert Area > San Diego County > California",https://www.mountainproject.com/route/120695246/ethical-joe,4.0,-1,Boulder,"V3 PG13",1,18,33.01891,-116.36137
"Yawning at the Apocalypse","Corlieu Falls > Lewis Creek > Hwy 41: Fresno Dome, Shuteye Ridge > Southern-Western Sierra > California",https://www.mountainproject.com/route/113640947/yawning-at-the-apocalypse,4.0,-1,"Trad, Boulder","5.11b V3",1,25,37.41543,-119.62442
"Corporation Pop","More Water, Less Power Boulder > Central Happiness Area > Happy Boulders > Volcanic Tablelands (Happy/Sad Boulders) > Bishop Area > Sierra Eastside > California",https://www.mountainproject.com/route/106093054/corporation-pop,2.0,-1,Boulder,V3,1,,37.41724,-118.45103
"Bear Hug","New Inhabitants > Old LA Zoo > Santa Monica Mountains > Los Angeles Basin > California",https://www.mountainproject.com/route/122551756/bear-hug,2.5,-1,Boulder,V3,1,15,34.13374,-118.28894
"The Funktion","The Cube (aka Funktion Boulder) > Scatterbrain Area > HVCG North > HVCG Bouldering Circuit > Hidden Valley Campground Bouldering > Hidden Valley Area Bouldering > *Joshua Tree Bouldering* > Joshua Tree National Park > California",https://www.mountainproject.com/route/107579672/the-funktion,3.8,-1,Boulder,"V3 R",1,25,34.01866,-116.1637
Passage,"Rump Roast > Saddle Boulders > Hillcrest Boulders > The Nut Tree Boulders > Wine Country/Northeast Bay > San Francisco Bay Area > California",https://www.mountainproject.com/route/112167348/passage,3.0,-1,Boulder,V3,1,15,38.39039,-121.98832
"Obama Prism","Waishal Trail > Temecula Area > Inland Empire > California",https://www.mountainproject.com/route/118684438/obama-prism,3.5,-1,Boulder,V3,1,12,33.56812,-117.24626
"Past and Present","Past and Present Boulder > Horse Trail Boulders > * Yosemite Valley Bouldering > Yosemite Valley > Yosemite National Park > California",https://www.mountainproject.com/route/121494854/past-and-present,3.7,-1,Boulder,V3,1,,37.74462,-119.56753
BB-8,"North Parking Lot Boulder 2 > North Parking Lot Boulders > * Holcomb Valley Bouldering > Holcomb Valley Pinnacles > Big Bear City Area > Big Bear North > Big Bear Lake Area > San Bernardino Mountains > California",https://www.mountainproject.com/route/118967747/bb-8,4.0,-1,Boulder,V3,1,11,34.30976,-116.8792
"Vlad's Crimps","Buck Rock > * SEKI Bouldering > Sequoia & Kings Canyon NP > California",https://www.mountainproject.com/route/118726180/vlads-crimps,4.0,-1,Boulder,V3,1,16,36.73349,-118.86089
"Torture Comes From Here","Lower Irish Boulders > 7. Irish Boulders > Conejo Boulders > Conejo Mountain > Central Coast > California",https://www.mountainproject.com/route/116209946/torture-comes-from-here,4.0,-1,Boulder,V3,1,15,34.19908,-118.96195
Gigajoule,"Gigajoule Rock > Homestead Canyon > The West Face > Doyle Area > Northeast California > California",https://www.mountainproject.com/route/118273963/gigajoule,4.0,-1,Boulder,"V3 R",1,30,39.9976,-120.03385
"Spicy Mango","The Alley > 09 - Palisades & Surrounding Peaks > High Sierra > California",https://www.mountainproject.com/route/113562469/spicy-mango,4.0,-1,"Boulder, Alpine","V3 PG13",1,30,37.12523,-118.48637
"Jabba Mind Tricks","Jabba Boulder > Star Wars Cluster > Two Trees West > Belvedere Heights Bouldering > Belvedere Heights > Box Springs Mountain Reserve > Riverside Area > Inland Empire > California",https://www.mountainproject.com/route/122726394/jabba-mind-tricks,3.3,-1,Boulder,V3,1,12,33.98691,-117.30188
"Arch Nemesis","Troubled Waters Boulder > Gemini Boulders > Pyramid Creek / Horsetail Falls > Highway 50 Corridor > Lake Tahoe > California",https://www.mountainproject.com/route/114091089/arch-nemesis,4.0,-1,Boulder,V3,1,,38.82562,-120.12312
Iceberg,"Silver Creek > Ice House Reservoir > Ice House Boulders > Highway 50 Corridor > Lake Tahoe > California",https://www.mountainproject.com/route/120188592/iceberg,4.0,-1,Boulder,"V3 PG13",1,15,38.82061,-120.31496
"Dads in New Balances","Calf Implants > * BMX Area Bouldering > BMX Crags > Horsemen's Center > Apple Valley Area > High Desert > California",https://www.mountainproject.com/route/120022171/dads-in-new-balances,4.0,-1,Boulder,V3,1,13,34.48707,-117.13237
"Magic Carpet","Magic Carpet Boulder > Mist Trail Boulders > * Yosemite Valley Bouldering > Yosemite Valley > Yosemite National Park > California",https://www.mountainproject.com/route/120675232/magic-carpet,4.0,-1,Boulder,V3,1,15,37.7253,-119.55277
"Cut It","Deer Springs Trail > Backcountry Bouldering > San Jacinto Mountains > California",https://www.mountainproject.com/route/113484829/cut-it,4.0,-1,Boulder,V3,1,15,33.73938,-116.71303
"J Dyno","Halo Boulder > San Jacinto Mountains > California",https://www.mountainproject.com/route/118898659/j-dyno,4.0,-1,Boulder,V3,1,12,33.73482,-116.76315
"Edging the Dark Side","Vader Boulder > Beta Quadrant > Tanglefoot Boulders > Carson Pass Highway (88) > Lake Tahoe > California",https://www.mountainproject.com/route/119620431/edging-the-dark-side,4.0,-1,Boulder,V3,1,10,38.51581,-120.20791
"Gold Rush","Fort Knox Boulder > Saucer Meadow > Kennedy Meadows > Sonora Pass Highway (108) > California",https://www.mountainproject.com/route/119379242/gold-rush,4.0,-1,Boulder,V3,1,10,38.24525,-119.72426
"Burnt Out","Gemini Slabs > Gemini Boulders > Pyramid Creek / Horsetail Falls > Highway 50 Corridor > Lake Tahoe > California",https://www.mountainproject.com/route/114091189/burnt-out,4.0,-1,Boulder,V3,1,,38.82508,-120.122
"Fern Gulley","Forni Boulders > Highway 50 Corridor > Lake Tahoe > California",https://www.mountainproject.com/route/122843396/fern-gulley,2.5,-1,Boulder,V3,1,20,38.79905,-120.22401
Ghostman,"Ghostman Boulder > Between the Lodges > Bucks Lake Recreation Area > The Lost Sierra > Northeast California > California",https://www.mountainproject.com/route/119321149/ghostman,4.0,-1,Boulder,V3,1,10,39.87774,-121.17147
Unknown,"The Orange Slab Boulder > Heaven > Buttermilk Country > Bishop Area > Sierra Eastside > California",https://www.mountainproject.com/route/114054542/unknown,4.0,-1,"Boulder, Alpine","V3 R",1,,37.28632,-118.64951
Quaoar,"Luiseño Boulder > OG Box Springs Cluster > West of Somewhere > Belvedere Heights Bouldering > Belvedere Heights > Box Springs Mountain Reserve > Riverside Area > Inland Empire > California",https://www.mountainproject.com/route/123186875/quaoar,4.0,-1,Boulder,"V3 R",1,20,33.99074,-117.30647
"Parking Area Prow","""Stone Crusade"" Boulders > Aeolian Buttes > * June Lake Bouldering > June Lake Area > Sierra Eastside > California",https://www.mountainproject.com/route/106279849/parking-area-prow,4.0,-1,Boulder,V3,1,12,37.85583,-119.07536
"Shark Nose","Low Motivation Boulder > Trailside Boulders > Lodgepole > * SEKI Bouldering > Sequoia & Kings Canyon NP > California",https://www.mountainproject.com/route/122946391/shark-nose,4.0,-1,Boulder,V3,1,13,36.60716,-118.71609
"Funky Like a Monkey (aka Lieback Rock Traverse)","Lieback Rock > Moby Dick Area > Santee Boulders > South San Diego County > San Diego County > California",https://www.mountainproject.com/route/105991317/funky-like-a-monkey-aka-lieback-rock-traverse,3.4,-1,Boulder,V3,1,,32.85126,-117.02071
Beomilf,"Fuller Ridge Trail > Backcountry Bouldering > San Jacinto Mountains > California",https://www.mountainproject.com/route/109382606/beomilf,4.0,-1,Boulder,"V3 R",1,20,33.73938,-116.71303
"Wrist Slitter Traverse","Sport Rock (aka North Pointed Rock) > Twin Coves > Sonoma Coast State Park > Wine Country/Northeast Bay > San Francisco Bay Area > California",https://www.mountainproject.com/route/105735635/wrist-slitter-traverse,4.0,-1,Boulder,"V3 R",1,10,38.45828,-123.14645
Sciatica,"Split Boulders > Lone Valley Boulders > Susanville Area > Northeast California > California",https://www.mountainproject.com/route/122624054/sciatica,4.0,-1,Boulder,V3,1,20,40.24113,-120.69159
"Journey Across the World","Adventure Wall > Middle Circuit > Castle Peak > Donner/Truckee Bouldering > I-80 Corridor > Lake Tahoe > California",https://www.mountainproject.com/route/122826554/journey-across-the-world,4.0,-1,Boulder,V3,1,20,39.34287,-120.37131
"Big Adventure","Adventure Wall > Middle Circuit > Castle Peak > Donner/Truckee Bouldering > I-80 Corridor > Lake Tahoe > California",https://www.mountainproject.com/route/122826421/big-adventure,4.0,-1,Boulder,V3,1,15,39.34287,-120.37131
"Call of the Wild","The Sacred Rocks > Sugarloaf Ridge > Wine Country/Northeast Bay > San Francisco Bay Area > California",https://www.mountainproject.com/route/105735926/call-of-the-wild,4.0,-1,Boulder,V3,1,,38.443,-122.5052
"Black Moon","Black Moon Boulder > Trailside Boulders > The Tramway > San Jacinto Mountains > California",https://www.mountainproject.com/route/108978322/black-moon,3.7,-1,Boulder,"V3 R",1,15,33.81241,-116.6457
Blunted,"Picnic Area Boulders > Pine Mountain > Hwy 33/Ojai Bouldering > Hwy 33/Ojai > Central Coast > California",https://www.mountainproject.com/route/108400683/blunted,3.1,-1,Boulder,V3,1,10,34.63912,-119.32692
Masterlock,"Borson's Wall > Borson's Area > Mount Rubidoux > Riverside Area > Inland Empire > California",https://www.mountainproject.com/route/106121259/masterlock,3.1,-1,Boulder,V3,1,15,33.9829,-117.3928
"Lechlinski Corner","JBMF Boulder > JBMF Boulders > Roadside Rocks Bouldering > Hidden Valley Area Bouldering > *Joshua Tree Bouldering* > Joshua Tree National Park > California",https://www.mountainproject.com/route/105725446/lechlinski-corner,2.6,-1,Boulder,V3,1,12,34.0152,-116.16631
"Checkered Demon","The Missing Link Area > Mount Woodson > North San Diego County > San Diego County > California",https://www.mountainproject.com/route/107167628/checkered-demon,3.2,-1,Boulder,"5.11- V3",1,15,33.00774,-116.96499
"The Rift","Hidden Boulder > Hillcrest Boulders > The Nut Tree Boulders > Wine Country/Northeast Bay > San Francisco Bay Area > California",https://www.mountainproject.com/route/108014014/the-rift,2.7,-1,Boulder,V3,1,,38.38942,-121.99218
"The Sideling","Halfling Boulder > The Hang > Planet X Bouldering > Central Joshua Tree Bouldering > *Joshua Tree Bouldering* > Joshua Tree National Park > California",https://www.mountainproject.com/route/111505610/the-sideling,3.2,-1,Boulder,V3,1,13,33.99792,-116.15341
"The Warm Up","Crimp Ladder Boulder > Crimp Ladder Area > Way Lake > * Mammoth Lakes Bouldering > Mammoth Lakes Area > Sierra Eastside > California",https://www.mountainproject.com/route/108329442/the-warm-up,2.8,-1,Boulder,V3,1,12,37.58146,-118.98982
"Morally Impaired","Picnic Area Boulders > Pine Mountain > Hwy 33/Ojai Bouldering > Hwy 33/Ojai > Central Coast > California",https://www.mountainproject.com/route/108402307/morally-impaired,3.3,-1,Boulder,V3,1,15,34.63912,-119.32692
"Diving Board Direct","La Jolla > South San Diego County > San Diego County > California",https://www.mountainproject.com/route/113981279/diving-board-direct,3.4,-1,Boulder,V3,1,10,32.8445,-117.27884
"Excalibur Right","Excalibur Boulder > Puppy Boulders > * Tuolumne Bouldering > Tuolumne Meadows > Yosemite National Park > California",https://www.mountainproject.com/route/107694829/excalibur-right,2.7,-1,Boulder,V3,1,12,37.8744,-119.3456
Breakdance,"Breakdance Boulder > The Dance Floor > Shangri-La Valley > The Tramway > San Jacinto Mountains > California",https://www.mountainproject.com/route/106505733/breakdance,2.4,-1,Boulder,V3,1,10,33.8159,-116.64911
Unknown,"The Upper Block > Crystal Ridge > Central Owens Valley > Sierra Eastside > California",https://www.mountainproject.com/route/114055120/unknown,3.7,-1,Boulder,V3,1,,36.93867,-118.16229
Traverse,"Picnic Table Wall > Indian Rock Park > Berkeley > East Bay Area > San Francisco Bay Area > California",https://www.mountainproject.com/route/117369891/traverse,2.9,-1,Boulder,V3,1,25,37.89226,-122.27231
"Thimble of the High Sierra","Thimble Boulders > The Dreamers > Sherwin Plateau > Mammoth Lakes Area > Sierra Eastside > California",https://www.mountainproject.com/route/106128507/thimble-of-the-high-sierra,3.4,-1,Boulder,V3,1,20,37.56498,-118.62653
"Unnamed SDS","Dylan Boulder > Roadside Corral > OK Corral > Black Mountain > San Jacinto Mountains > California",https://www.mountainproject.com/route/108579447/unnamed-sds,3.4,-1,Boulder,V3,1,12,33.80415,-116.72178
"Who Love's Ya Baby?","Kojak Boulder > Wave Boulder Area > Druid Stones > Bishop Area > Sierra Eastside > California",https://www.mountainproject.com/route/107203687/who-loves-ya-baby,2.4,-1,Boulder,V3,1,,37.3071,-118.435
"Kathy Moffat","Femme Fatale Area > The Lizard's Mouth > * Santa Barbara Bouldering > Santa Barbara > Central Coast > California",https://www.mountainproject.com/route/107379979/kathy-moffat,3.1,-1,Boulder,"V3 PG13",1,12,34.50207,-119.86674
"Problem F","Birthday Boulders > Buttermilks Main > Buttermilk Country > Bishop Area > Sierra Eastside > California",https://www.mountainproject.com/route/106277548/problem-f,2.7,-1,Boulder,V3,1,12,37.33004,-118.57901
"Fire Line","Right and Left Firestone > The Firestones > Yuba Gap > Donner/Truckee Bouldering > I-80 Corridor > Lake Tahoe > California",https://www.mountainproject.com/route/120651088/fire-line,3.7,-1,Boulder,V3,1,15,39.30918,-120.62851
"5.11 Crack","Kelly's Hill > The Lizard's Mouth > * Santa Barbara Bouldering > Santa Barbara > Central Coast > California",https://www.mountainproject.com/route/106716412/511-crack,3.3,-1,Boulder,V3,1,12,34.50324,-119.8676
"Sexual Camel","Cleopatra Area > Happy Boulders > Volcanic Tablelands (Happy/Sad Boulders) > Bishop Area > Sierra Eastside > California",https://www.mountainproject.com/route/107915091/sexual-camel,3.3,-1,Boulder,V3,1,12,37.41873,-118.45395
"Velvet Fog","Velvet Fog boulder > Area 51/Deer Canyon > The Tramway > San Jacinto Mountains > California",https://www.mountainproject.com/route/107218954/velvet-fog,3.1,-1,Boulder,V3,1,12,33.8151,-116.65088
"West Nile (aka The Warmup)","West Nile Boulder (aka The Creek Boulder) > * Santa Barbara Bouldering > Santa Barbara > Central Coast > California",https://www.mountainproject.com/route/108673384/west-nile-aka-the-warmup,2.3,-1,Boulder,V3,1,,34.45822,-119.69224
"King Smear (Friction Addiction)","Mutant Boulder > Outback Bouldering > Hidden Valley Area Bouldering > *Joshua Tree Bouldering* > Joshua Tree National Park > California",https://www.mountainproject.com/route/112454269/king-smear-friction-addiction,3.3,-1,Boulder,V3,1,20,34.02247,-116.16414
"Master Cave","Master Boulder > Stone Master Camp > Boulder Basin > Black Mountain > San Jacinto Mountains > California",https://www.mountainproject.com/route/117748254/master-cave,3.1,-1,Boulder,V3,1,14,33.82871,-116.75175
"Cube Face","The Cube > Tenaya East Boulders > * Tuolumne Bouldering > Tuolumne Meadows > Yosemite National Park > California",https://www.mountainproject.com/route/111384450/cube-face,3.1,-1,Boulder,V3,1,15,37.84011,-119.45082
"Hard Up","Hard Boulder > Sunset Boulders > Goat Rock > Sonoma Coast State Park > Wine Country/Northeast Bay > San Francisco Bay Area > California",https://www.mountainproject.com/route/105735530/hard-up,3.2,-1,Boulder,V3,1,,38.42917,-123.11575
"Overhang Left","Gainsborough Boulders > *Santa Monica Mountains Bouldering > Santa Monica Mountains > Los Angeles Basin > California",https://www.mountainproject.com/route/113376902/overhang-left,3.7,-1,Boulder,"V3 PG13",1,15,34.1954,-118.8859
"James Memorial Problem","James Memorial/Millionth Try Boulder > Candyland Boulders > * Yosemite Valley Bouldering > Yosemite Valley > Yosemite National Park > California",https://www.mountainproject.com/route/110302932/james-memorial-problem,3.6,-1,Boulder,V3,1,18,37.72023,-119.61276
"Scenic Cruise","Bay View Boulder > Mount Tam Boulders > Mount Tamalpais > Marin/Northwest Bay Area > San Francisco Bay Area > California",https://www.mountainproject.com/route/111656316/scenic-cruise,2.8,-1,Boulder,V3,1,10,37.91939,-122.60555
"Bachar Mantel","Mantel Boulder > Puppy Boulders > * Tuolumne Bouldering > Tuolumne Meadows > Yosemite National Park > California",https://www.mountainproject.com/route/117300105/bachar-mantel,3.5,-1,Boulder,V3,1,,37.8742,-119.3455
Slopers,"Parking Lot Rock > Castle Rock Loop > * Castle Rock Area Bouldering > Castle Rock Area > South Bay Area > San Francisco Bay Area > California",https://www.mountainproject.com/route/117082939/slopers,3.0,-1,Boulder,V3,1,15,37.2296,-122.0952
Tinkerbell,"Upper Stream Boulder > Arroyo Seco Boulders > Angeles National Forest > Los Angeles Basin > California",https://www.mountainproject.com/route/109996606/tinkerbell,3.2,-1,Boulder,V3,1,10,34.21305,-118.16018
Monkeyflower,"Bluff Boulder > Echo Cove Bouldering > Echo Rock Bouldering > Central Joshua Tree Bouldering > *Joshua Tree Bouldering* > Joshua Tree National Park > California",https://www.mountainproject.com/route/108716729/monkeyflower,2.7,-1,Boulder,V3,1,12,34.02597,-116.15896
"The Wave","The Wave Boulder > The Wave Boulders > * Yosemite Valley Bouldering > Yosemite Valley > Yosemite National Park > California",https://www.mountainproject.com/route/119129296/the-wave,3.3,-1,Boulder,V3,1,,37.71959,-119.65803
"Natural Disaster","Hidden Boulder > Hillcrest Boulders > The Nut Tree Boulders > Wine Country/Northeast Bay > San Francisco Bay Area > California",https://www.mountainproject.com/route/105736154/natural-disaster,2.9,-1,Boulder,"V3 R",1,15,38.38942,-121.99218
"The Prow","Malibu Lieback Boulder > Malibu Lieback Area > Malibu Tunnel Boulders > *Santa Monica Mountains Bouldering > Santa Monica Mountains > Los Angeles Basin > California",https://www.mountainproject.com/route/112931709/the-prow,3.4,-1,Boulder,V3,1,18,34.07438,-118.70406
Blockhead,"Blockhead Boulder > Playground Boulders > The Playground > Salt Point State Park > Wine Country/Northeast Bay > San Francisco Bay Area > California",https://www.mountainproject.com/route/114389545/blockhead,3.4,-1,Boulder,V3,1,,38.60066,-123.3615
"The Bare Necessities","Boulder # 7 > Northwest Lot > Roads End > Cedar Grove Boulders > * SEKI Bouldering > Sequoia & Kings Canyon NP > California",https://www.mountainproject.com/route/110627722/the-bare-necessities,3.4,-1,Boulder,V3,1,12,36.79525,-118.58939
"Smoking behind the boys room","North Side Boulders (From Outhouse to the Meadow) > Pine Mountain > Hwy 33/Ojai Bouldering > Hwy 33/Ojai > Central Coast > California",https://www.mountainproject.com/route/109184441/smoking-behind-the-boys-room,3.4,-1,Boulder,V3,1,12,34.63766,-119.31478
Unnamed,"Nicole Boulder > The Hang > Planet X Bouldering > Central Joshua Tree Bouldering > *Joshua Tree Bouldering* > Joshua Tree National Park > California",https://www.mountainproject.com/route/108682718/unnamed,2.7,-1,Boulder,V3,1,15,33.99779,-116.1536
"Problem R","Central Sector > Bachar Boulders > * June Lake Bouldering > June Lake Area > Sierra Eastside > California",https://www.mountainproject.com/route/106048542/problem-r,2.8,-1,Boulder,V3,1,12,37.8259,-119.0545
Shipwreck,"Shipwreck Boulder > Turtle Rock Circuit > Real Hidden Valley Bouldering > Hidden Valley Area Bouldering > *Joshua Tree Bouldering* > Joshua Tree National Park > California",https://www.mountainproject.com/route/106069186/shipwreck,3.2,-1,Boulder,"V3 R",1,20,34.00983,-116.16681
Staccato,"Treasure Cove West > Treasure Cove > Castle Peak > Donner/Truckee Bouldering > I-80 Corridor > Lake Tahoe > California",https://www.mountainproject.com/route/114070664/staccato,2.9,-1,Boulder,V3,1,15,39.34055,-120.36645
Yeast,"The Loaf > Buttermilks Main > Buttermilk Country > Bishop Area > Sierra Eastside > California",https://www.mountainproject.com/route/108602480/yeast,2.9,-1,Boulder,V3,1,,37.33022,-118.57882
Oasis,"Oasis Boulder > Malibu Lieback Area > Malibu Tunnel Boulders > *Santa Monica Mountains Bouldering > Santa Monica Mountains > Los Angeles Basin > California",https://www.mountainproject.com/route/112961409/oasis,3.1,-1,Boulder,V3,1,,34.07443,-118.70397
"Unnamed V3","Kevin's Traverse Boulder > Curry Village > * Yosemite Valley Bouldering > Yosemite Valley > Yosemite National Park > California",https://www.mountainproject.com/route/108878741/unnamed-v3,2.6,-1,Boulder,V3,1,8,37.73713,-119.57551
"The Unnatural Act","The Unnatural Act Cave > Glen Canyon > San Francisco > San Francisco Bay Area > California",https://www.mountainproject.com/route/115371463/the-unnatural-act,3.5,-1,"TR, Boulder","5.11 V3 X",1,30,37.74226,-122.44391
"Monkey Gone to Heaven","Pixie Boulder > Indian Cove Campground > Indian Cove Bouldering > *Joshua Tree Bouldering* > Joshua Tree National Park > California",https://www.mountainproject.com/route/106400474/monkey-gone-to-heaven,2.4,-1,Boulder,V3,1,20,34.09441,-116.15612
"Pope's Problem","Pope's Hat > Buttermilks Main > Buttermilk Country > Bishop Area > Sierra Eastside > California",https://www.mountainproject.com/route/109565882/popes-problem,3.0,-1,Boulder,"V3 R",1,25,37.33013,-118.5785
"Hauck A Loogie - Var","Hauck a Loogie Boulder > Ice Caves, Outer Area > Sad Boulders > Volcanic Tablelands (Happy/Sad Boulders) > Bishop Area > Sierra Eastside > California",https://www.mountainproject.com/route/106637367/hauck-a-loogie-var,2.5,-1,Boulder,V3,1,12,37.42244,-118.43364
Crystal,"Crystal Boulder > Prozac Nation Bluffs > Sad Boulders > Volcanic Tablelands (Happy/Sad Boulders) > Bishop Area > Sierra Eastside > California",https://www.mountainproject.com/route/106642780/crystal,2.6,-1,Boulder,V3,1,15,37.42324,-118.43279
"Seasick Crocodile","The Grinch Boulder > Christmas Valley > Meyers Area > South Shore > Lake Tahoe > California",https://www.mountainproject.com/route/118617775/seasick-crocodile,2.4,-1,Boulder,V3,1,7,38.8227,-120.02267
"Sticks and Stones","KinderCare Boulders > Santa Ana Mountains > Los Angeles Basin > California",https://www.mountainproject.com/route/111469812/sticks-and-stones,3.5,-1,Boulder,V3,1,10,33.63796,-117.41618
"Fist Full of Walnuts","Shipwreck Boulder > Turtle Rock Circuit > Real Hidden Valley Bouldering > Hidden Valley Area Bouldering > *Joshua Tree Bouldering* > Joshua Tree National Park > California",https://www.mountainproject.com/route/106076661/fist-full-of-walnuts,3.1,-1,Boulder,V3,1,15,34.00983,-116.16681
"One Hard Move","Plate Techtonics Boulder > Vector Crack Area > Cottonwood Area > Culp Valley > San Diego County Desert Area > San Diego County > California",https://www.mountainproject.com/route/106961548/one-hard-move,2.6,-1,Boulder,V3,1,,33.21046,-116.45914
"Apocalypse Now Stand","Mad Max Boulder > Mad Max Area > Hartley Springs > * June Lake Bouldering > June Lake Area > Sierra Eastside > California",https://www.mountainproject.com/route/108940724/apocalypse-now-stand,2.8,-1,Boulder,V3,1,12,37.7985,-119.0448
"The Robbins Problem","Big Columbia Boulder > Camp 4 Boulders > * Yosemite Valley Bouldering > Yosemite Valley > Yosemite National Park > California",https://www.mountainproject.com/route/113075700/the-robbins-problem,3.4,-1,Boulder,V3,1,,37.74172,-119.60355
"Meat Substitute","Manx Boulders - Southeast Face > Manx Boulders > Manx Boulders Circuit > Manx/Asteroid Belt Circuit > Hidden Valley Campground Bouldering > Hidden Valley Area Bouldering > *Joshua Tree Bouldering* > Joshua Tree National Park > California",https://www.mountainproject.com/route/106072544/meat-substitute,2.8,-1,Boulder,V3,1,15,34.01419,-116.15821
"Powell Face","Powell Boulder > Outback Bouldering > Hidden Valley Area Bouldering > *Joshua Tree Bouldering* > Joshua Tree National Park > California",https://www.mountainproject.com/route/106048308/powell-face,2.6,-1,Boulder,V3,1,18,34.02547,-116.1645
Wildside,"Wildside Boulder > Woodcrest Ridge Boulders > Woodcrest Boulders > The Nut Tree Boulders > Wine Country/Northeast Bay > San Francisco Bay Area > California",https://www.mountainproject.com/route/108024244/wildside,2.8,-1,Boulder,V3,1,,38.37565,-121.9828
Pangolin,"Hanging Garden area > Mount Woodson > North San Diego County > San Diego County > California",https://www.mountainproject.com/route/111917229/pangolin,2.5,-1,Boulder,V3,1,,33.01125,-116.96287
"The Diamond","Pinnacle Rock > Remillard Park > Berkeley > East Bay Area > San Francisco Bay Area > California",https://www.mountainproject.com/route/120229955/the-diamond,3.3,-1,Boulder,V3,1,,37.8923,-122.26111
"Coco Crispies","Chocolate Boulder > Cottonwood Camp > Cottonwood Area > Culp Valley > San Diego County Desert Area > San Diego County > California",https://www.mountainproject.com/route/106117634/coco-crispies,2.4,-1,Boulder,V3,1,15,33.21279,-116.46153
"Heel Huckin","Heel Huckin' Boulder > Conglomerate Boulders (Templin boulders) > Piru Creek > Angeles National Forest > Los Angeles Basin > California",https://www.mountainproject.com/route/113648518/heel-huckin,3.4,-1,Boulder,V3,1,8,34.61019,-118.75234
"Bee Sneeze","Apiary Boulder > Apiary Area > Pollen Grains / Lidija Boulders > Buttermilk Country > Bishop Area > Sierra Eastside > California",https://www.mountainproject.com/route/108087978/bee-sneeze,3.3,-1,Boulder,"V3 PG13",1,20,37.3378,-118.5725
"Naked Lunch","Mad Cow Boulder > Hillcrest Boulders > The Nut Tree Boulders > Wine Country/Northeast Bay > San Francisco Bay Area > California",https://www.mountainproject.com/route/105736151/naked-lunch,2.3,-1,Boulder,V3,1,10,38.39329,-121.98694
Railer,"Railer Boulder > The Beach > Shangri-La Valley > The Tramway > San Jacinto Mountains > California",https://www.mountainproject.com/route/107215850/railer,2.5,-1,Boulder,V3,1,10,33.81751,-116.64752
"South Roof Crack","Birthday Boulders > Buttermilks Main > Buttermilk Country > Bishop Area > Sierra Eastside > California",https://www.mountainproject.com/route/106495092/south-roof-crack,3.3,-1,Boulder,V3,1,,37.33004,-118.57901
"The Hole","Center Block > Deadman I > Deadman Summit > * June Lake Bouldering > June Lake Area > Sierra Eastside > California",https://www.mountainproject.com/route/106185396/the-hole,3.3,-1,Boulder,"V3 PG13",1,15,37.7665,-119.0031
Sightings,"Sightings Boulder > The Brickyard > * Santa Barbara Bouldering > Santa Barbara > Central Coast > California",https://www.mountainproject.com/route/119246751/sightings,3.0,-1,Boulder,V3,1,15,34.49805,-119.86142
Slabmaster,"Hensel Boulder > Scatterbrain Area > HVCG North > HVCG Bouldering Circuit > Hidden Valley Campground Bouldering > Hidden Valley Area Bouldering > *Joshua Tree Bouldering* > Joshua Tree National Park > California",https://www.mountainproject.com/route/106224001/slabmaster,2.9,-1,Boulder,V3,1,15,34.01824,-116.16346
"Broken Pyramid Arete","Broken Pyramid Boulder > Castle Rock Loop > * Castle Rock Area Bouldering > Castle Rock Area > South Bay Area > San Francisco Bay Area > California",https://www.mountainproject.com/route/110789047/broken-pyramid-arete,2.9,-1,Boulder,V3,1,,37.22853,-122.09678
"Cartographical Inhibitions","Enlightenment Ridge > Pine Mountain > Hwy 33/Ojai Bouldering > Hwy 33/Ojai > Central Coast > California",https://www.mountainproject.com/route/108423008/cartographical-inhibitions,2.8,-1,Boulder,V3,1,5,34.63555,-119.31105
"High Expectations","Sherwood Forest > Mount Woodson > North San Diego County > San Diego County > California",https://www.mountainproject.com/route/109861928/high-expectations,3.0,-1,Boulder,V3,1,,33.0063,-116.95998
"Stolen lemonade","Cocaine Corner Boulder > Camp 4 Boulders > * Yosemite Valley Bouldering > Yosemite Valley > Yosemite National Park > California",https://www.mountainproject.com/route/121039541/stolen-lemonade,3.5,-1,Boulder,"V3 PG13",1,15,37.74232,-119.60431
"Westbay Lieback","Swan Slab Proper > Swan Slab Boulders > * Yosemite Valley Bouldering > Yosemite Valley > Yosemite National Park > California",https://www.mountainproject.com/route/114086524/westbay-lieback,3.7,-1,Boulder,V3,1,15,37.74486,-119.59996
"The Shoulda Boulda","Hidden Boulders > Upper Bidwell Park > The Lost Sierra > Northeast California > California",https://www.mountainproject.com/route/119442798/the-shoulda-boulda,3.5,-1,Boulder,"V3 R",1,20,39.77899,-121.74837
"The Professor","Gilligan's Island > Culp Valley > San Diego County Desert Area > San Diego County > California",https://www.mountainproject.com/route/109991504/the-professor,3.7,-1,Boulder,V3,1,20,33.21289,-116.44256
"Volleyball Arete","Cedar Eater Boulder > Mist Trail Boulders > * Yosemite Valley Bouldering > Yosemite Valley > Yosemite National Park > California",https://www.mountainproject.com/route/120675710/volleyball-arete,3.5,-1,Boulder,V3,1,15,37.72621,-119.5531
"Undercling Problem","Sub-Sector 1 (Undercling Problem Area) > Deadman II > Deadman Summit > * June Lake Bouldering > June Lake Area > Sierra Eastside > California",https://www.mountainproject.com/route/118771382/undercling-problem,3.5,-1,Boulder,V3,1,20,37.76871,-119.0085
Kibitzer,"Cow Skull #4 > Cow Skull Boulders > The West Face > Doyle Area > Northeast California > California",https://www.mountainproject.com/route/116248727/kibitzer,3.5,-1,Boulder,V3,1,12,39.99653,-120.02294
"High Face","Swan Slab Proper > Swan Slab Boulders > * Yosemite Valley Bouldering > Yosemite Valley > Yosemite National Park > California",https://www.mountainproject.com/route/114086277/high-face,3.5,-1,Boulder,"V3 R",1,20,37.74486,-119.59996
"EJ Deluxe Escape","E. J.  Deluxe Boulder > Lonesome Crowded West > Central Joshua Tree Bouldering > *Joshua Tree Bouldering* > Joshua Tree National Park > California",https://www.mountainproject.com/route/108757305/ej-deluxe-escape,3.1,-1,Boulder,V3,1,14,34.03239,-116.1717
"Seven Elbows","Meat Crack boulder > Cottonwood Giants > McCain Valley > South San Diego County > San Diego County > California",https://www.mountainproject.com/route/110090105/seven-elbows,3.5,-1,Boulder,V3,1,12,32.81238,-116.33816
"Saddle Traverse Direct","Saddle Boulders > The Summit > Black Mountain > San Jacinto Mountains > California",https://www.mountainproject.com/route/113805707/saddle-traverse-direct,2.1,-1,Boulder,V3,1,6,33.82284,-116.75681
"Amphitheatre Traverse","The Amphitheater > Moby Dick Area > Santee Boulders > South San Diego County > San Diego County > California",https://www.mountainproject.com/route/105993565/amphitheatre-traverse,3.0,-1,Boulder,V3,1,,32.85064,-117.0211
"Buttermilk Face Middle","Buttermilk Boulder > Cracker Boy Area > The Summit > Black Mountain > San Jacinto Mountains > California",https://www.mountainproject.com/route/106008102/buttermilk-face-middle,2.4,-1,Boulder,V3,1,10,33.82468,-116.75874
Apex,"Apex Boulder > Northern Area Bouldering > CVPC > Culp Valley > San Diego County Desert Area > San Diego County > California",https://www.mountainproject.com/route/118629351/apex,3.2,-1,Boulder,"V3 PG13",1,16,33.22721,-116.45306
"Cosmic Hand","The Hideout > Hwy 33/Ojai Bouldering > Hwy 33/Ojai > Central Coast > California",https://www.mountainproject.com/route/108256219/cosmic-hand,3.0,-1,Boulder,V3,1,,34.4701,-119.248
"Problem A","Cracked Boulder > Puppy Boulders > * Tuolumne Bouldering > Tuolumne Meadows > Yosemite National Park > California",https://www.mountainproject.com/route/107694673/problem-a,2.9,-1,Boulder,V3,1,15,37.87423,-119.34576
"Ojai Urinal","Wheeler Gorge > Hwy 33/Ojai > Central Coast > California",https://www.mountainproject.com/route/112098490/ojai-urinal,2.1,-1,"Sport, Boulder","5.10d V3",1,50,34.5075,-119.2757
"Spin Cyclical","Tahoe Donner Boulder > Bermgarten Trailhead > Donner/Truckee Bouldering > I-80 Corridor > Lake Tahoe > California",https://www.mountainproject.com/route/119143554/spin-cyclical,3.2,-1,Boulder,V3,1,,39.33709,-120.21862
"Standard Route","Are You Experienced Boulder > Stinson Beach > Mickey's Beach > Marin/Northwest Bay Area > San Francisco Bay Area > California",https://www.mountainproject.com/route/117716591/standard-route,2.6,-1,Boulder,V3,1,10,37.89164,-122.63487
"The Old Man Card","Corridor Boulder > Lakeview Boulders > Mount Tam Boulders > Mount Tamalpais > Marin/Northwest Bay Area > San Francisco Bay Area > California",https://www.mountainproject.com/route/116731294/the-old-man-card,2.9,-1,Boulder,V3,1,15,37.92888,-122.59019
"Jump Chump","Jump Chump Clump > Turtle Rock Circuit > Real Hidden Valley Bouldering > Hidden Valley Area Bouldering > *Joshua Tree Bouldering* > Joshua Tree National Park > California",https://www.mountainproject.com/route/106073955/jump-chump,2.9,-1,Boulder,V3,1,15,34.00967,-116.16845
"Kong King Face","Kong King Face Boulder > King Kong > Boulder Basin > Black Mountain > San Jacinto Mountains > California",https://www.mountainproject.com/route/111229512/kong-king-face,3.0,-1,Boulder,V3,1,18,33.8268,-116.75325
"Mechanics Crack","Upper Indian Rock(I-block) > Indian Rock Park > Berkeley > East Bay Area > San Francisco Bay Area > California",https://www.mountainproject.com/route/120303525/mechanics-crack,3.3,-1,Boulder,"V3 R",1,15,37.8923,-122.27302
"Spud Fry","Fry Boulder > Fry Boulders > Stonehenge and Fry Boulders > Central Joshua Tree Bouldering > *Joshua Tree Bouldering* > Joshua Tree National Park > California",https://www.mountainproject.com/route/119127772/spud-fry,3.4,-1,Boulder,V3,1,15,33.98831,-116.15795
"Toe Jam","Entrance Boulders > The Dreamers > Sherwin Plateau > Mammoth Lakes Area > Sierra Eastside > California",https://www.mountainproject.com/route/106377205/toe-jam,2.8,-1,Boulder,V3,1,10,37.5645,-118.624
"Bête Noire","Pacific Street Wall > Rocklin (Deer Creek Park) > I-80 Corridor > Lake Tahoe > California",https://www.mountainproject.com/route/111724881/bete-noire,2.8,-1,Boulder,V3,1,15,38.78688,-121.23924
"Sour Skittles","2. Lost Gulley > Conejo Boulders > Conejo Mountain > Central Coast > California",https://www.mountainproject.com/route/113951069/sour-skittles,3.3,-1,Boulder,V3,1,10,34.19811,-118.96528
"Eyes Of A Tire Hub","Swallow Rock Boulders > Swallow Rock > Dos Rios > *Northwest California Bouldering > Northwest California > California",https://www.mountainproject.com/route/120041668/eyes-of-a-tire-hub,3.3,-1,Boulder,V3,1,8,39.7113,-123.34206
"Tidal Wave","Wave Boulder > Jalapeño Area > Snow Valley West > Snow Valley Bouldering > Running Springs Area > San Bernardino Mountains > California",https://www.mountainproject.com/route/111875157/tidal-wave,3.3,-1,Boulder,V3,1,10,34.22077,-117.05395
"High Traverse","Ladder Boulder > Middle Bliss > Bliss > West Shore > Lake Tahoe > California",https://www.mountainproject.com/route/122979889/high-traverse,3.3,-1,Boulder,V3,1,30,38.98556,-120.09977
"Pity The Fool","Big T > Cottonwood Giants > McCain Valley > South San Diego County > San Diego County > California",https://www.mountainproject.com/route/110278727/pity-the-fool,3.3,-1,Boulder,V3,1,12,32.81795,-116.33938
"Problem 17.5","Geophysics Wall > * Mammoth Lakes Bouldering > Mammoth Lakes Area > Sierra Eastside > California",https://www.mountainproject.com/route/108006483/problem-175,3.3,-1,Boulder,V3,1,15,37.644,-118.9078
"Ride the Lightning SDS","4. Fraggle Rock > Conejo Boulders > Conejo Mountain > Central Coast > California",https://www.mountainproject.com/route/113785797/ride-the-lightning-sds,3.2,-1,Boulder,V3,1,10,34.19718,-118.96511
"Iron Stem","Beehive Boulders > Moby Dick Area > Santee Boulders > South San Diego County > San Diego County > California",https://www.mountainproject.com/route/117687617/iron-stem,3.2,-1,"Trad, Boulder","5.11c V3",1,13,32.85097,-117.02078
"Shadow Dance","Shadow Boulder > Split Rock Area > Donner Memorial State Park > Donner/Truckee Bouldering > I-80 Corridor > Lake Tahoe > California",https://www.mountainproject.com/route/114557417/shadow-dance,2.9,-1,Boulder,V3,1,,39.31739,-120.23513
"King Bee Dyno","The Beehive Wall > Borson's Area > Mount Rubidoux > Riverside Area > Inland Empire > California",https://www.mountainproject.com/route/108604876/king-bee-dyno,2.9,-1,Boulder,V3,1,12,33.9848,-117.3914
"Inscription Mantel","Inscription Alcove > Island Area > Mount Rubidoux > Riverside Area > Inland Empire > California",https://www.mountainproject.com/route/107021512/inscription-mantel,3.2,-1,Boulder,"V3 PG13",1,15,33.982,-117.3939
Handlebar,"Handlebar Boulder > The Bar > Auburn SRA > Auburn and Grass Valley > I-80 Corridor > Lake Tahoe > California",https://www.mountainproject.com/route/108699193/handlebar,2.9,-1,Boulder,V3,1,10,38.91869,-121.00688
"Entryway Overhang Low","Entry Way > The Lizard's Mouth > * Santa Barbara Bouldering > Santa Barbara > Central Coast > California",https://www.mountainproject.com/route/120770728/entryway-overhang-low,3.0,-1,Boulder,V3,1,10,34.50298,-119.8661
"Super Smash Bros. (Placeholder Name)","The Cube > South Fork > Mount Shasta Area > Northeast California > California",https://www.mountainproject.com/route/117248244/super-smash-bros-placeholder-name,3.3,-1,Boulder,V3,1,10,41.28416,-122.38073
"Lion Head","Dorm Boulder > Knowledge Boulders > * Mammoth Lakes Bouldering > Mammoth Lakes Area > Sierra Eastside > California",https://www.mountainproject.com/route/109314667/lion-head,3.3,-1,Boulder,V3,1,,37.63896,-118.95673
"Humpty Dumpty","Humpty Dumpty Area > Sad Boulders > Volcanic Tablelands (Happy/Sad Boulders) > Bishop Area > Sierra Eastside > California",https://www.mountainproject.com/route/106329054/humpty-dumpty,3.0,-1,Boulder,V3,1,15,37.41759,-118.43276
"Finger Buckets SDS","South East Face > Road Boulder Area > Hartley Springs > * June Lake Bouldering > June Lake Area > Sierra Eastside > California",https://www.mountainproject.com/route/108165932/finger-buckets-sds,3.2,-1,Boulder,V3,1,15,37.7963,-119.0456
Dragonslayer,"Super Slab > Sonoma Coast State Park > Wine Country/Northeast Bay > San Francisco Bay Area > California",https://www.mountainproject.com/route/105735500/dragonslayer,3.2,-1,Boulder,V3,1,,38.4548,-123.1325
"Problem A","Clearcut Boulder > Rock Creek Bouldering > Rock Creek > Mammoth Lakes Area > Sierra Eastside > California",https://www.mountainproject.com/route/106784094/problem-a,2.6,-1,Boulder,V3,1,18,37.5099,-118.7155
Zorro,"Breakwater Boulder > Morro Bay Harbor > San Luis Obispo > Central Coast > California",https://www.mountainproject.com/route/113376734/zorro,2.6,-1,Boulder,V3,1,12,35.36749,-120.86653
Eagle,"Way Lake Boulder > Lower Meadow Area > Way Lake > * Mammoth Lakes Bouldering > Mammoth Lakes Area > Sierra Eastside > California",https://www.mountainproject.com/route/109165746/eagle,2.6,-1,Boulder,V3,1,,37.58279,-118.99705
"Pinch a Loaf","The Loaf Boulder > Campground Boulders > Lover's Leap > Highway 50 Corridor > Lake Tahoe > California",https://www.mountainproject.com/route/108795433/pinch-a-loaf,2.8,-1,Boulder,V3,1,20,38.80046,-120.13903
"Problem L","Right Sector > Bachar Boulders > * June Lake Bouldering > June Lake Area > Sierra Eastside > California",https://www.mountainproject.com/route/106048668/problem-l,2.7,-1,Boulder,V3,1,15,37.8263,-119.0543
"Frank's Direct","Frank's Boulder > Trailside Boulders > The Tramway > San Jacinto Mountains > California",https://www.mountainproject.com/route/106228962/franks-direct,2.3,-1,Boulder,V3,1,15,33.81241,-116.64602
"Undercling Problem","Ice Caves > Sad Boulders > Volcanic Tablelands (Happy/Sad Boulders) > Bishop Area > Sierra Eastside > California",https://www.mountainproject.com/route/106322785/undercling-problem,2.2,-1,Boulder,V3,1,14,37.42254,-118.43364
"The Mud & the Blood & the Beer","Johnny Cash Boulders > Salt Point State Park > Wine Country/Northeast Bay > San Francisco Bay Area > California",https://www.mountainproject.com/route/108400463/the-mud-the-blood-the-beer,2.9,-1,Boulder,V3,1,10,38.58942,-123.34028
"Iron Cross","Beehive Boulders > Moby Dick Area > Santee Boulders > South San Diego County > San Diego County > California",https://www.mountainproject.com/route/105992977/iron-cross,2.5,-1,Boulder,V3,1,,32.85097,-117.02078
"Dead Tree","Lumberjack > Middle Bliss > Bliss > West Shore > Lake Tahoe > California",https://www.mountainproject.com/route/120596895/dead-tree,2.9,-1,Boulder,V3,1,12,38.98661,-120.10762
"Problem E","Birthday Boulders > Buttermilks Main > Buttermilk Country > Bishop Area > Sierra Eastside > California",https://www.mountainproject.com/route/106277539/problem-e,2.3,-1,Boulder,V3,1,12,37.33004,-118.57901
Igemma,"Caretaker Boulder > Skofield Park > * Santa Barbara Bouldering > Santa Barbara > Central Coast > California",https://www.mountainproject.com/route/107996471/igemma,2.3,-1,Boulder,V3,1,10,34.4557,-119.69431
"Getting Warm","Warm Up Boulder > Warm Up Area > Hartley Springs > * June Lake Bouldering > June Lake Area > Sierra Eastside > California",https://www.mountainproject.com/route/108162258/getting-warm,2.5,-1,Boulder,V3,1,12,37.7974,-119.0456
"The Thing","Great Stone Face > Great Stone Face Rock Park > Berkeley > East Bay Area > San Francisco Bay Area > California",https://www.mountainproject.com/route/111663636/the-thing,2.8,-1,Boulder,V3,1,,37.89666,-122.27816
"True Grit","JBMF Boulder > JBMF Boulders > Roadside Rocks Bouldering > Hidden Valley Area Bouldering > *Joshua Tree Bouldering* > Joshua Tree National Park > California",https://www.mountainproject.com/route/105725452/true-grit,2.6,-1,Boulder,V3,1,16,34.0152,-116.16631
"Ebonic Woman","Ebonic Woman > Undiscovered Country > The Tramway > San Jacinto Mountains > California",https://www.mountainproject.com/route/107776196/ebonic-woman,2.6,-1,Boulder,V3,1,13,33.80913,-116.64735
"Roof Traverse","Mrs Magoo Boulder > Magoos > Castle Rock Loop > * Castle Rock Area Bouldering > Castle Rock Area > South Bay Area > San Francisco Bay Area > California",https://www.mountainproject.com/route/110671463/roof-traverse,2.8,-1,Boulder,"V3 PG13",1,15,37.22827,-122.09556
Tomahawked,"The Little Gray Block (aka The Tomahawk) > The Grinding Stones Circuit > Mission Gorge Bouldering > Mission Gorge > South San Diego County > San Diego County > California",https://www.mountainproject.com/route/108838193/tomahawked,3.0,-1,Boulder,V3,1,12,32.82417,-117.05286
"Dan's Exit","Dan's Cave > Upper Arboretum > Columbia Bouldering > Sonora Pass Highway (108) > California",https://www.mountainproject.com/route/109981033/dans-exit,3.0,-1,Boulder,V3,1,10,38.0339,-120.38785
"The Crack Problem","The Noir Boulder > * Santa Barbara Bouldering > Santa Barbara > Central Coast > California",https://www.mountainproject.com/route/108919370/the-crack-problem,3.0,-1,Boulder,V3,1,,34.50409,-119.81302
"The Big Moe","The Housekeeping Boulder > Housekeeping > * Yosemite Valley Bouldering > Yosemite Valley > Yosemite National Park > California",https://www.mountainproject.com/route/117934808/the-big-moe,2.9,-1,Boulder,V3,1,,37.74049,-119.58002
"Arete left SDS","College Boulder > Knowledge Boulders > * Mammoth Lakes Bouldering > Mammoth Lakes Area > Sierra Eastside > California",https://www.mountainproject.com/route/109315931/arete-left-sds,2.8,-1,Boulder,V3,1,,37.63802,-118.9593
"Wavy Gravy Direct","Wavy Gravy Boulder > Wavy Gravy Area > Happy Boulders > Volcanic Tablelands (Happy/Sad Boulders) > Bishop Area > Sierra Eastside > California",https://www.mountainproject.com/route/106086167/wavy-gravy-direct,2.8,-1,Boulder,V3,1,10,37.41647,-118.44994
"Western Roll","Texas Boulder > Roadside Rocks Bouldering > Hidden Valley Area Bouldering > *Joshua Tree Bouldering* > Joshua Tree National Park > California",https://www.mountainproject.com/route/106073434/western-roll,2.4,-1,Boulder,V3,1,12,34.0181,-116.1698
"Potato Chip Arete","Potato Chip Boulder > Sunset Boulders > Goat Rock > Sonoma Coast State Park > Wine Country/Northeast Bay > San Francisco Bay Area > California",https://www.mountainproject.com/route/112074107/potato-chip-arete,2.7,-1,Boulder,V3,1,10,38.4292,-123.11567
"Solar Eclipse","Rusty Nail > South Bliss > Bliss > West Shore > Lake Tahoe > California",https://www.mountainproject.com/route/107117925/solar-eclipse,2.8,-1,Boulder,V3,1,15,38.97194,-120.09666
"Forever Young Left","Forever Young Boulder > Forever Young > Fort Sage Mountains > Doyle Area > Northeast California > California",https://www.mountainproject.com/route/118324008/forever-young-left,3.0,-1,Boulder,V3,1,12,40.07541,-120.05347
"White Snake","The Boy Named Sue Boulder > Rock Creek Bouldering > Rock Creek > Mammoth Lakes Area > Sierra Eastside > California",https://www.mountainproject.com/route/114255987/white-snake,3.0,-1,Boulder,V3,1,,37.5092,-118.7152
"Little Mouse","Crossroads Boulder > Bridalveil Boulders > * Yosemite Valley Bouldering > Yosemite Valley > Yosemite National Park > California",https://www.mountainproject.com/route/107598469/little-mouse,2.8,-1,Boulder,V3,1,15,37.71699,-119.65233
"Scooped Face","Honey Bear Bong Boulder > Apiary Area > Pollen Grains / Lidija Boulders > Buttermilk Country > Bishop Area > Sierra Eastside > California",https://www.mountainproject.com/route/108107994/scooped-face,3.0,-1,Boulder,"V3 R",1,25,37.3378,-118.5727
"Problem B","No Hope Boulder > No Hope / Big Ballin' Area > Hartley Springs > * June Lake Bouldering > June Lake Area > Sierra Eastside > California",https://www.mountainproject.com/route/108207931/problem-b,3.0,-1,Boulder,V3,1,20,37.7959,-119.0457
"Notched Face Left","4&5 South > Groupsites 4&5 > Groupsites > Black Mountain > San Jacinto Mountains > California",https://www.mountainproject.com/route/113412110/notched-face-left,2.4,-1,Boulder,V3,1,11,33.83592,-116.74487
"Sacré Coeur","Front Block > Hall of Mirrors Area > West Rim Area > Happy Boulders > Volcanic Tablelands (Happy/Sad Boulders) > Bishop Area > Sierra Eastside > California",https://www.mountainproject.com/route/107898115/sacre-coeur,2.4,-1,Boulder,V3,1,10,37.41622,-118.45021
"Lycra Boy","El Diablo Boulder > Malibu Lieback Area > Malibu Tunnel Boulders > *Santa Monica Mountains Bouldering > Santa Monica Mountains > Los Angeles Basin > California",https://www.mountainproject.com/route/112961345/lycra-boy,2.9,-1,Boulder,V3,1,,34.07418,-118.70394
V3/5.11,"Old Man Boulder > Stinson Beach > Mickey's Beach > Marin/Northwest Bay Area > San Francisco Bay Area > California",https://www.mountainproject.com/route/108298241/v3511,2.9,-1,"TR, Boulder","5.11- V3",1,18,37.89169,-122.6352
"The Cave Route","Cave Route Area > The Approach Boulders > Columbia State Historic Park > Columbia Bouldering > Sonora Pass Highway (108) > California",https://www.mountainproject.com/route/111597839/the-cave-route,2.9,-1,Boulder,V3,1,10,38.03239,-120.39696
"Roof Jugs Variation","Roof Jugs > The West Rim > Shangri-La Valley > The Tramway > San Jacinto Mountains > California",https://www.mountainproject.com/route/110298418/roof-jugs-variation,2.8,-1,Boulder,V3,1,16,33.81779,-116.64914
"Unnamed 4","Girlfriend Rock > Savannah Area > Happy Boulders > Volcanic Tablelands (Happy/Sad Boulders) > Bishop Area > Sierra Eastside > California",https://www.mountainproject.com/route/106132957/unnamed-4,2.1,-1,Boulder,V3,1,,37.4178,-118.4519
"Cranium Crusher","Pathway Boulders > Housekeeping > * Yosemite Valley Bouldering > Yosemite Valley > Yosemite National Park > California",https://www.mountainproject.com/route/117100112/cranium-crusher,2.6,-1,Boulder,V3,1,7,37.74048,-119.58002
"Mobius Strip","Happy Hunting Grounds > Pine Mountain > Hwy 33/Ojai Bouldering > Hwy 33/Ojai > Central Coast > California",https://www.mountainproject.com/route/108402337/mobius-strip,2.7,-1,Boulder,V3,1,10,34.63641,-119.31488
"Octopus's Garden","Rapunzel's Tower > Potter's Point > * Santa Barbara Bouldering > Santa Barbara > Central Coast > California",https://www.mountainproject.com/route/107422521/octopuss-garden,2.4,-1,Boulder,V3,1,8,34.48601,-119.69174
"The Road to Zion","Upper Irish Boulders > 7. Irish Boulders > Conejo Boulders > Conejo Mountain > Central Coast > California",https://www.mountainproject.com/route/113883959/the-road-to-zion,3.0,-1,Boulder,V3,1,10,34.19855,-118.96232
"Sitting Bull Direct","Little Big Horn Boulder > Little Bighorn Area > Asteroid Belt Circuit > Manx/Asteroid Belt Circuit > Hidden Valley Campground Bouldering > Hidden Valley Area Bouldering > *Joshua Tree Bouldering* > Joshua Tree National Park > California",https://www.mountainproject.com/route/118571258/sitting-bull-direct,2.9,-1,Boulder,V3,1,12,34.01369,-116.15482
Thundercat!,"Thundercat! > The Lion's Den > Lion's Den > Menifee Area > Inland Empire > California",https://www.mountainproject.com/route/112384133/thundercat,3.0,-1,"TR, Boulder","V3 PG13",1,20,33.67608,-117.11732
"What's Next","Bogart Boulder > Cathedral Boulders > * Yosemite Valley Bouldering > Yosemite Valley > Yosemite National Park > California",https://www.mountainproject.com/route/117588394/whats-next,3.0,-1,Boulder,V3,1,10,37.7191,-119.62835
"Cliff House Traverse","Main Wall > Cliff House Boulders > San Francisco > San Francisco Bay Area > California",https://www.mountainproject.com/route/117307769/cliff-house-traverse,2.9,-1,Boulder,V3,1,,37.77776,-122.51356
"Cattle Drive","Cattle Drive Rock > Woodcrest Ridge Boulders > Woodcrest Boulders > The Nut Tree Boulders > Wine Country/Northeast Bay > San Francisco Bay Area > California",https://www.mountainproject.com/route/105736121/cattle-drive,2.8,-1,Boulder,V3,1,10,38.37595,-121.98382
"Perry's Pose","Get Carter Boulder > Buttermilk Country > Bishop Area > Sierra Eastside > California",https://www.mountainproject.com/route/111683780/perrys-pose,2.9,-1,Boulder,V3,1,10,37.3388,-118.5776
"Suck Me Sideways","Sherwood Forest > Mount Woodson > North San Diego County > San Diego County > California",https://www.mountainproject.com/route/109861948/suck-me-sideways,3.0,-1,Boulder,V3,1,,33.0063,-116.95998
"Head First in the Bushes","Tower Two Area > Mount Woodson > North San Diego County > San Diego County > California",https://www.mountainproject.com/route/107004281/head-first-in-the-bushes,3.0,-1,Boulder,"5.11 V3",1,20,33.0053,-116.96449
SlapHappy,"SlapHappy > Christmas Valley > Meyers Area > South Shore > Lake Tahoe > California",https://www.mountainproject.com/route/120691549/slaphappy,2.6,-1,Boulder,V3,1,10,38.82403,-120.02348
"Unnamed V3 Traverse","Traverse Boulder > *CLOSED FOR SAFETY* Ahwahnee Boulders > * Yosemite Valley Bouldering > Yosemite Valley > Yosemite National Park > California",https://www.mountainproject.com/route/117539692/unnamed-v3-traverse,2.5,-1,Boulder,V3,1,10,37.74725,-119.57482
"Cave Roof","Castle Rock Proper > Castle Rock Loop > * Castle Rock Area Bouldering > Castle Rock Area > South Bay Area > San Francisco Bay Area > California",https://www.mountainproject.com/route/110795774/cave-roof,2.5,-1,Boulder,V3,1,,37.22862,-122.0962
Pitstop,"Boulder Row > Lake Ramona > North San Diego County > San Diego County > California",https://www.mountainproject.com/route/114317503/pitstop,3.0,-1,Boulder,V3,1,10,33.03135,-116.99701
"Azzeed Jiz","Acid Wash Cave > Slow Dance/Gleaner Area > Happy Boulders > Volcanic Tablelands (Happy/Sad Boulders) > Bishop Area > Sierra Eastside > California",https://www.mountainproject.com/route/112397879/azzeed-jiz,2.0,-1,Boulder,V3,1,14,37.41682,-118.4512
"The Real Slam Dunk","Halfling Boulder > The Hang > Planet X Bouldering > Central Joshua Tree Bouldering > *Joshua Tree Bouldering* > Joshua Tree National Park > California",https://www.mountainproject.com/route/106649438/the-real-slam-dunk,3.0,-1,Boulder,V3,1,12,33.99792,-116.15341
"Small Fruit","Small Fruit Boulder > Small Fruit > Dale's Camp > Buttermilk Country > Bishop Area > Sierra Eastside > California",https://www.mountainproject.com/route/114241174/small-fruit,3.0,-1,Boulder,V3,1,,37.32093,-118.57407
Yellowfoot,"Johnny Cash Boulders > Salt Point State Park > Wine Country/Northeast Bay > San Francisco Bay Area > California",https://www.mountainproject.com/route/105736261/yellowfoot,2.6,-1,Boulder,V3,1,10,38.58942,-123.34028
"Right Face","Main Wall > Cliff House Boulders > San Francisco > San Francisco Bay Area > California",https://www.mountainproject.com/route/119487433/right-face,3.0,-1,Boulder,V3,1,25,37.77776,-122.51356
Dynosaur,"Wildside Boulder > Woodcrest Ridge Boulders > Woodcrest Boulders > The Nut Tree Boulders > Wine Country/Northeast Bay > San Francisco Bay Area > California",https://www.mountainproject.com/route/119478540/dynosaur,3.0,-1,Boulder,V3,1,12,38.37565,-121.9828
"Suburban Hell Hole","Stonewall Rock > Woodcrest Ridge Boulders > Woodcrest Boulders > The Nut Tree Boulders > Wine Country/Northeast Bay > San Francisco Bay Area > California",https://www.mountainproject.com/route/120252789/suburban-hell-hole,3.0,-1,Boulder,V3,1,9,38.37668,-121.98461
Caution,"3. Hangout Area > Conejo Boulders > Conejo Mountain > Central Coast > California",https://www.mountainproject.com/route/120168092/caution,3.0,-1,Boulder,V3,1,6,34.1973,-118.96418
"Little Lebowski Mountain Achievers","Other Balsam Problems List > Camp 72 > Shaver Lake Bouldering > Shaver Lake Area > Hwy 168:Tollhouse, Shaver Lake, Courtright > Southern-Western Sierra > California",https://www.mountainproject.com/route/115152946/little-lebowski-mountain-achievers,3.0,-1,Boulder,V3,1,15,37.16029,-119.24008
Arachnophile,"Arachnophile > Garrapata State Beach > Carmel Bay and Surrounding Areas > Central Coast > California",https://www.mountainproject.com/route/119949760/arachnophile,3.0,-1,Boulder,V3,1,15,36.41843,-121.91542
"White Wall Ball and Tit Crawl","Panther Beach > Santa Cruz > Central Coast > California",https://www.mountainproject.com/route/105735200/white-wall-ball-and-tit-crawl,3.0,-1,Boulder,"V3 X",1,30,36.9924,-122.1699
"Hunt & Peck","Grouse #5 > Grouse Slabs Bouldering > Donner Pass > Donner/Truckee Bouldering > I-80 Corridor > Lake Tahoe > California",https://www.mountainproject.com/route/119381735/hunt-peck,3.3,-1,Boulder,V3,1,25,39.32192,-120.31894
Paprika,"Millenium Actress > The Lion's Den > Lion's Den > Menifee Area > Inland Empire > California",https://www.mountainproject.com/route/116385610/paprika,3.0,-1,Boulder,V3,1,12,33.67615,-117.11767
"Sean Can't Even","Roof Cluster > Top Rope Trail > Horse Flats > Angeles National Forest > Los Angeles Basin > California",https://www.mountainproject.com/route/112908393/sean-cant-even,3.0,-1,Boulder,V3,1,10,34.34636,-118.0161
"The Fruit Basket","The Fruit Basket > Blair Valley Campground Area > Blair Valley > San Diego County Desert Area > San Diego County > California",https://www.mountainproject.com/route/120678460/the-fruit-basket,3.3,-1,Boulder,V3,1,12,33.03381,-116.39758
Sally,"The Octagon East Face > The Octagon Area > Blair Valley > San Diego County Desert Area > San Diego County > California",https://www.mountainproject.com/route/120670785/sally,3.0,-1,Boulder,V3,1,12,33.03645,-116.3978
"I Wanna Be Like You","Boulder # 7 > Northwest Lot > Roads End > Cedar Grove Boulders > * SEKI Bouldering > Sequoia & Kings Canyon NP > California",https://www.mountainproject.com/route/110624571/i-wanna-be-like-you,3.0,-1,Boulder,V3,1,12,36.79525,-118.58939
"Midnight Mountainlion","Traverse Boulder > Bear River Boulders > Auburn and Grass Valley > I-80 Corridor > Lake Tahoe > California",https://www.mountainproject.com/route/113427438/midnight-mountainlion,3.0,-1,Boulder,V3,1,7,39.06697,-121.0032
"Eternal August ...aka ""SpreadEagleNebula""","Wall Boulder > Arroyo Seco Boulders > Angeles National Forest > Los Angeles Basin > California",https://www.mountainproject.com/route/108453892/eternal-august-aka-spreadeaglenebula,3.0,-1,Boulder,V3,1,20,34.2114,-118.1707
"Emergency Response","Kelly's Hill > The Lizard's Mouth > * Santa Barbara Bouldering > Santa Barbara > Central Coast > California",https://www.mountainproject.com/route/106809091/emergency-response,2.0,-1,Boulder,V3,1,7,34.50324,-119.8676
"Gettin' Lippy","Gettin' Lippy Boulder > Emperor Road Area > Double Butte Mountain > Menifee Area > Inland Empire > California",https://www.mountainproject.com/route/107417956/gettin-lippy,3.0,-1,Boulder,"V3 PG13",1,7,33.72974,-117.12969
"Easy Mumblage","Mumblage Boulder > NRA > The Summit > Black Mountain > San Jacinto Mountains > California",https://www.mountainproject.com/route/106003731/easy-mumblage,3.0,-1,Boulder,V3,1,20,33.83217,-116.74781
"Scary Arete","Main Rock > Grizzly Peak Boulders > Berkeley > East Bay Area > San Francisco Bay Area > California",https://www.mountainproject.com/route/105736247/scary-arete,2.4,-1,Boulder,V3,1,10,37.88143,-122.24296
"Dale's Left","Led Zeppelin Boulder > Zeppelin Area > Dale's Camp > Buttermilk Country > Bishop Area > Sierra Eastside > California",https://www.mountainproject.com/route/106568823/dales-left,3.0,-1,Boulder,V3,1,18,37.31777,-118.57443
"Chocolate Roof Right","Chocolate Roof > Chocolate Boulders > Quail Springs Bouldering > *Joshua Tree Bouldering* > Joshua Tree National Park > California",https://www.mountainproject.com/route/109989643/chocolate-roof-right,2.3,-1,Boulder,V3,1,20,34.06282,-116.22616
"Crustacean Transformation","Tree-In-The-Wall Boulder > Sunnyvale Mountain > * Castle Rock Area Bouldering > Castle Rock Area > South Bay Area > San Francisco Bay Area > California",https://www.mountainproject.com/route/108379212/crustacean-transformation,2.4,-1,Boulder,"V3 PG13",1,,37.21997,-122.0694
Squash,"Squash > The Lizard's Mouth > * Santa Barbara Bouldering > Santa Barbara > Central Coast > California",https://www.mountainproject.com/route/106823303/squash,2.7,-1,Boulder,V3,1,12,34.50269,-119.86667
"E.B. Boulder Sit Start Left","EB Boulder > Hillside Area > Santee Boulders > South San Diego County > San Diego County > California",https://www.mountainproject.com/route/109496898/eb-boulder-sit-start-left,2.2,-1,Boulder,V3,1,15,32.85042,-117.02059
"Dyno Problem","Cave Boulder > Cave Area > Buttermilks Main > Buttermilk Country > Bishop Area > Sierra Eastside > California",https://www.mountainproject.com/route/108048847/dyno-problem,2.5,-1,Boulder,V3,1,12,37.32863,-118.57634
"Full Remillard Traverse","Pinnacle Rock > Remillard Park > Berkeley > East Bay Area > San Francisco Bay Area > California",https://www.mountainproject.com/route/120389898/full-remillard-traverse,3.0,-1,Boulder,V3,1,30,37.8923,-122.26111
"Man, Myth... Micha Miller","Labyrinth Main > The Labyrinth > Columbia Bouldering > Sonora Pass Highway (108) > California",https://www.mountainproject.com/route/120180981/man-myth-micha-miller,3.0,-1,Boulder,V3,1,10,38.03091,-120.39482
"Coz Solo","Klinghoffers > * Castle Rock Area Bouldering > Castle Rock Area > South Bay Area > San Francisco Bay Area > California",https://www.mountainproject.com/route/116687034/coz-solo,3.0,-1,"TR, Boulder","5.11+ V3 X",1,40,37.22862,-122.10453
"Angle Grinder","Drilled Pockets Boulder > Trailhead Boulders > Pie Shop Bouldering > The Pie Shop > South Shore > Lake Tahoe > California",https://www.mountainproject.com/route/120189388/angle-grinder,2.5,-1,Boulder,V3,1,10,38.87575,-120.01136
"Snake charmer","South side (hidden cove) > Hidden Cove > Black Sand Beach > Marin/Northwest Bay Area > San Francisco Bay Area > California",https://www.mountainproject.com/route/116796808/snake-charmer,3.0,-1,Boulder,V3,1,15,37.82541,-122.51405
"Sexy Mexican Jesus","Un-sorted bouldering routes. > Eagle Peak Bouldering > Eagle Peak > Lassen National Park > Lassen Area > Northeast California > California",https://www.mountainproject.com/route/117526907/sexy-mexican-jesus,3.0,-1,Boulder,V3,1,13,40.47419,-121.51804
T-Rex,"T-Rex Boulder > *CLOSED FOR SAFETY* Ahwahnee Boulders > * Yosemite Valley Bouldering > Yosemite Valley > Yosemite National Park > California",https://www.mountainproject.com/route/122351547/t-rex,3.0,-1,Boulder,V3,1,8,37.74748,-119.57446
"Post Problem","Magic School Bus Area > Culp Valley > San Diego County Desert Area > San Diego County > California",https://www.mountainproject.com/route/120289870/post-problem,2.5,-1,Boulder,V3,1,7,33.20598,-116.46571
"My Green Desire","The Ninkasi Boulder > East Side Bouldering > * Holcomb Valley Bouldering > Holcomb Valley Pinnacles > Big Bear City Area > Big Bear North > Big Bear Lake Area > San Bernardino Mountains > California",https://www.mountainproject.com/route/118049807/my-green-desire,3.0,-1,Boulder,V3,1,,34.30474,-116.87216
"The Button High","So High Boulder > Turtle Rock Circuit > Real Hidden Valley Bouldering > Hidden Valley Area Bouldering > *Joshua Tree Bouldering* > Joshua Tree National Park > California",https://www.mountainproject.com/route/108304007/the-button-high,3.0,-1,Boulder,V3,1,25,34.00984,-116.16704
"Honk If You're Horny","Un-sorted bouldering routes. > Eagle Peak Bouldering > Eagle Peak > Lassen National Park > Lassen Area > Northeast California > California",https://www.mountainproject.com/route/117823707/honk-if-youre-horny,3.0,-1,Boulder,V3,1,18,40.47419,-121.51804
"The Cat's Pajamas","Big Red > East Side Bouldering > * Holcomb Valley Bouldering > Holcomb Valley Pinnacles > Big Bear City Area > Big Bear North > Big Bear Lake Area > San Bernardino Mountains > California",https://www.mountainproject.com/route/120878088/the-cats-pajamas,3.3,-1,Boulder,V3,1,15,34.30366,-116.87175
"The Black Widow","Spider Rock > East Side Bouldering > * Holcomb Valley Bouldering > Holcomb Valley Pinnacles > Big Bear City Area > Big Bear North > Big Bear Lake Area > San Bernardino Mountains > California",https://www.mountainproject.com/route/118890839/the-black-widow,3.3,-1,Boulder,V3,1,20,34.30435,-116.8727
"Shoes of the Fisherman","Westmont College Boulder > * Santa Barbara Bouldering > Santa Barbara > Central Coast > California",https://www.mountainproject.com/route/120373927/shoes-of-the-fisherman,3.0,-1,Boulder,V3,1,12,34.4502,-119.6603
[Redacted],"Scott's Rock > Hillcrest Boulders > The Nut Tree Boulders > Wine Country/Northeast Bay > San Francisco Bay Area > California",https://www.mountainproject.com/route/119341047/redacted,3.0,-1,Boulder,V3,1,,38.3938,-121.9856
"Unnamed V3","Shadow Boulder > Split Rock Area > Donner Memorial State Park > Donner/Truckee Bouldering > I-80 Corridor > Lake Tahoe > California",https://www.mountainproject.com/route/114557486/unnamed-v3,2.5,-1,Boulder,V3,1,,39.31739,-120.23513
"Baked Potato traverse","Baked Potato boulder > Playground Boulders > The Playground > Salt Point State Park > Wine Country/Northeast Bay > San Francisco Bay Area > California",https://www.mountainproject.com/route/117627998/baked-potato-traverse,2.7,-1,Boulder,V3,1,,38.60153,-123.36279
"The Silver Platter","The Platter > Castle Peak > Donner/Truckee Bouldering > I-80 Corridor > Lake Tahoe > California",https://www.mountainproject.com/route/121400873/the-silver-platter,3.0,-1,Boulder,V3,1,15,39.3357,-120.37577
Nucleus,"Neowise Boulder > Edu Zepic Area > Southside Bouldering > * Holcomb Valley Bouldering > Holcomb Valley Pinnacles > Big Bear City Area > Big Bear North > Big Bear Lake Area > San Bernardino Mountains > California",https://www.mountainproject.com/route/119415857/nucleus,3.0,-1,"Boulder, Alpine",V3,1,,34.30362,-116.87783
"Tampons and Toiletpaper","Bodily Functions Boulder > East Side Bouldering > * Holcomb Valley Bouldering > Holcomb Valley Pinnacles > Big Bear City Area > Big Bear North > Big Bear Lake Area > San Bernardino Mountains > California",https://www.mountainproject.com/route/120863121/tampons-and-toiletpaper,3.0,-1,Boulder,V3,1,10,34.30303,-116.8723
"Grayscale Project","Pedestrian Boulder > South Yuba River: 49 Crossing > Auburn and Grass Valley > I-80 Corridor > Lake Tahoe > California",https://www.mountainproject.com/route/114941218/grayscale-project,3.0,-1,Boulder,V3,1,10,39.29808,-121.08865
"direct center","Canyon Crest Road Boulder > Arroyo Seco Boulders > Angeles National Forest > Los Angeles Basin > California",https://www.mountainproject.com/route/109300851/direct-center,2.7,-1,Boulder,V3,1,,34.2086,-118.163
Trailside,"Mussel Beach > *Northwest California Bouldering > Northwest California > California",https://www.mountainproject.com/route/113345886/trailside,3.0,-1,Boulder,V3,1,9,41.1384,-124.1562
"The Way of the Mantle","Psychedelic Rock > Split Rock > Cold Springs > Northwest California > California",https://www.mountainproject.com/route/113537437/the-way-of-the-mantle,3.0,-1,Boulder,V3,1,10,40.8345,-123.71779
"Shaky Flaky","Flake Boulder > The Quarry > Bucks Lake Recreation Area > The Lost Sierra > Northeast California > California",https://www.mountainproject.com/route/119321406/shaky-flaky,3.0,-1,Boulder,V3,1,20,39.88286,-121.20152
"Snake Eyes","Snake Eyes Boulder > The Glass House > Buttermilk Country > Bishop Area > Sierra Eastside > California",https://www.mountainproject.com/route/114054451/snake-eyes,3.0,-1,Boulder,V3,1,,37.31538,-118.5724
"The Avenger","Old Oak Boulder > Outer Rocks > Cold Springs > Northwest California > California",https://www.mountainproject.com/route/113653369/the-avenger,3.0,-1,Boulder,V3,1,20,40.83533,-123.71832
"Miezekatzesänfte AKA Kitty Litter","Miezekatzesänfte AKA Kitty Litter > Serengeti > Lion's Den > Menifee Area > Inland Empire > California",https://www.mountainproject.com/route/112444206/miezekatzesanfte-aka-kitty-litter,3.0,-1,Boulder,V3,1,10,33.68048,-117.1195
Sweetie,"Sweet Relief > Serengeti > Lion's Den > Menifee Area > Inland Empire > California",https://www.mountainproject.com/route/112465623/sweetie,3.0,-1,Boulder,V3,1,,33.67946,-117.11931
"Unnamed V3","Monks Rock > Campground Boulders > Lover's Leap > Highway 50 Corridor > Lake Tahoe > California",https://www.mountainproject.com/route/108795232/unnamed-v3,3.0,-1,Boulder,V3,1,15,38.80045,-120.1389
"Problem C","Sector B > The Ravine > * Mammoth Lakes Bouldering > Mammoth Lakes Area > Sierra Eastside > California",https://www.mountainproject.com/route/110021376/problem-c,3.0,-1,Boulder,V3,1,,37.63839,-118.91514
"Maggot Brain Traverse","Plan B Boulder > Island Lake Boulders > Bowman/Emeralds > I-80 Corridor > Lake Tahoe > California",https://www.mountainproject.com/route/109234878/maggot-brain-traverse,3.0,-1,Boulder,V3,1,,39.39787,-120.62555
"Unnamed v3","Ok Xeno Boulder > Roadside Corral > OK Corral > Black Mountain > San Jacinto Mountains > California",https://www.mountainproject.com/route/108579352/unnamed-v3,3.0,-1,Boulder,V3,1,,33.80415,-116.72178
"Wide Crack","Campsite Wall > Sites 38 - 41 > Idyllwild County Park > San Jacinto Mountains > California",https://www.mountainproject.com/route/106635551/wide-crack,3.0,-1,Boulder,V3,1,20,33.74285,-116.72519
"Pass Me The Mustard","North Side Boulders (From Outhouse to the Meadow) > Pine Mountain > Hwy 33/Ojai Bouldering > Hwy 33/Ojai > Central Coast > California",https://www.mountainproject.com/route/109184831/pass-me-the-mustard,2.7,-1,Boulder,V3,1,12,34.63766,-119.31478
"The Old Man And The Sea 5.11+/5.12-","Main Wall > Cliff House Boulders > San Francisco > San Francisco Bay Area > California",https://www.mountainproject.com/route/121267271/the-old-man-and-the-sea-511512,3.0,-1,"TR, Boulder","5.11+ V3 PG13",1,20,37.77776,-122.51356
"Guns, Germs and Steel","The South Slope > Mount Woodson > North San Diego County > San Diego County > California",https://www.mountainproject.com/route/121574535/guns-germs-and-steel,3.0,-1,Boulder,V3,1,8,33.00454,-116.96435
"The River Tigris","Hanging Garden area > Mount Woodson > North San Diego County > San Diego County > California",https://www.mountainproject.com/route/120008603/the-river-tigris,3.0,-1,Boulder,V3,1,12,33.01125,-116.96287
Slapstick,"Tower Two Area > Mount Woodson > North San Diego County > San Diego County > California",https://www.mountainproject.com/route/118624636/slapstick,3.0,-1,Boulder,V3,1,12,33.0053,-116.96449
Biophobia,"[Redacted] > Indian Rock Side > * Castle Rock Area Bouldering > Castle Rock Area > South Bay Area > San Francisco Bay Area > California",https://www.mountainproject.com/route/121479760/biophobia,2.5,-1,Boulder,V3,1,15,37.23108,-122.09482
"Slam Dunk","Stem Gem Boulder > HVCG West > HVCG Bouldering Circuit > Hidden Valley Campground Bouldering > Hidden Valley Area Bouldering > *Joshua Tree Bouldering* > Joshua Tree National Park > California",https://www.mountainproject.com/route/112365563/slam-dunk,2.8,-1,Boulder,V3,1,,34.01716,-116.16368
"Histories Mysteries Arete","Waterway East > The Labyrinth > Columbia Bouldering > Sonora Pass Highway (108) > California",https://www.mountainproject.com/route/120433229/histories-mysteries-arete,3.0,-1,Boulder,V3,1,12,38.03087,-120.39419
"Unnamed Slab","Chocolate Boulder > Cottonwood Camp > Cottonwood Area > Culp Valley > San Diego County Desert Area > San Diego County > California",https://www.mountainproject.com/route/107986070/unnamed-slab,2.4,-1,Boulder,V3,1,14,33.21279,-116.46153
Cheeseburger,"Willow Creek Trail > Backcountry Bouldering > San Jacinto Mountains > California",https://www.mountainproject.com/route/121135990/cheeseburger,3.0,-1,Boulder,V3,1,15,33.73939,-116.71304
"Peak Fitness thru Heartbreak","Laws Caramba Trail > Backcountry Bouldering > San Jacinto Mountains > California",https://www.mountainproject.com/route/121104877/peak-fitness-thru-heartbreak,3.0,-1,Boulder,V3,1,12,33.73938,-116.71303
"Heavens Ring","Beanstalk Boulder > Sunnyvale Mountain > * Castle Rock Area Bouldering > Castle Rock Area > South Bay Area > San Francisco Bay Area > California",https://www.mountainproject.com/route/120399062/heavens-ring,3.5,-1,Boulder,"V3 R",1,20,37.22179,-122.06217
"The Patio","The Patio Boulder > Mount Woodson > North San Diego County > San Diego County > California",https://www.mountainproject.com/route/120469733/the-patio,3.0,-1,Boulder,V3,1,22,33.00964,-116.96234
"Skid Row","Poison Oak Boulder Area > Mount Woodson > North San Diego County > San Diego County > California",https://www.mountainproject.com/route/107993491/skid-row,3.0,-1,Boulder,V3,1,18,33.00759,-116.96769
"Upper Bouldering Cave","Handley Rock Park > South Bay Area > San Francisco Bay Area > California",https://www.mountainproject.com/route/111896166/upper-bouldering-cave,3.0,-1,Boulder,"V3 R",1,15,37.4657,-122.2694
