Route,Location,URL,"Avg Stars","Your Stars","Route Type",Rating,Pitches,Length,"Area Latitude","Area Longitude"
"Pot Belly","WaveWall > Pocatello Area Bouldering > East Idaho > Idaho",https://www.mountainproject.com/route/108041755/pot-belly,3.3,-1,Boulder,V4-5,1,8,42.80061,-112.36487
"Tumble In The Weeds","2. Main Section > Main Corridor > The Tumbleweeds > Pocatello Area Bouldering > East Idaho > Idaho",https://www.mountainproject.com/route/111186166/tumble-in-the-weeds,3.0,-1,Boulder,V4-5,1,,42.82884,-112.40798
"Slip sliding away","Roof Boulders > Tubbs Hill > North Idaho > Idaho",https://www.mountainproject.com/route/122051301/slip-sliding-away,2.7,-1,Boulder,V4-5,1,12,47.66404,-116.7787
Thick-Neck,"Peña Boulder > Salmon Idaho Bouldering > Central Idaho > Idaho",https://www.mountainproject.com/route/119607218/thick-neck,3.0,-1,Boulder,V4-5,1,13,45.21745,-113.94277
"Seven Deadly Sins","The Quarry > Teton Dam (Lower Teton River Canyon) > East Idaho > Idaho",https://www.mountainproject.com/route/106994311/seven-deadly-sins,2.5,-1,Boulder,V4-5,1,20,43.9064,-111.5408
Peachonator,"The Peach > Reynolds Creek > West Idaho > Idaho",https://www.mountainproject.com/route/109875637/peachonator,2.4,-1,Boulder,V4-5,1,,43.2616,-116.70899
"Black Rainbow","Hawaii Boulders > Tubbs Hill > North Idaho > Idaho",https://www.mountainproject.com/route/122796770/black-rainbow,2.3,-1,Boulder,V4-5,1,20,47.66408,-116.78101
"James Penny","The Bond Boulders > Massacre Rocks State Park > Pocatello Area Bouldering > East Idaho > Idaho",https://www.mountainproject.com/route/119894552/james-penny,2.0,-1,Boulder,V4-5,1,,42.6789,-112.98672
"Arête Problem","The Aspen Boulder Area > Payette Lake Boulder Circuit > McCall Area > West Idaho > Idaho",https://www.mountainproject.com/route/124547724/arete-problem,3.0,-1,Boulder,V4-5,1,15,44.9659,-116.0534
