Route,Location,URL,"Avg Stars","Your Stars","Route Type",Rating,Pitches,Length,"Area Latitude","Area Longitude"
"One in the Hand","Four Brothers Boulder > Salmon Idaho Bouldering > Central Idaho > Idaho",https://www.mountainproject.com/route/119605758/one-in-the-hand,4.0,-1,Boulder,V5-6,1,10,45.28504,-113.94872
"Nose goes","Lower Central > The Projects > West Idaho > Idaho",https://www.mountainproject.com/route/111729410/nose-goes,4.0,-1,Boulder,V5-6,1,18,42.16915,-116.50871
"Do you enjoy to crimp","Big Spender > Tubbs Hill > North Idaho > Idaho",https://www.mountainproject.com/route/122800794/do-you-enjoy-to-crimp,3.0,-1,Boulder,V5-6,1,15,47.66755,-116.78233
"Sari Charlie","The Taj  Mahal > Swan Falls > West Idaho > Idaho",https://www.mountainproject.com/route/112087031/sari-charlie,2.5,-1,Boulder,V5-6,1,,43.25754,-116.39044
"Zero's Revenge","Global Tetrahedron > Castle Rocks Bouldering > Castle Rocks > South Idaho > Idaho",https://www.mountainproject.com/route/120098193/zeros-revenge,2.5,-1,Boulder,V5-6,1,13,42.12329,-113.67063
"Coco the Junkie Pimp","Bad Ass Boulder Area > Swan Falls > West Idaho > Idaho",https://www.mountainproject.com/route/112087092/coco-the-junkie-pimp,2.0,-1,Boulder,V5-6,1,,43.25185,-116.38206
Standoff,"Lenville Road Boulders > North Idaho > Idaho",https://www.mountainproject.com/route/111752840/standoff,2.0,-1,Boulder,V5-6,1,,46.61189,-116.802
"Hate Hate Hate","Big Dam Boulder > Teton Dam (Lower Teton River Canyon) > East Idaho > Idaho",https://www.mountainproject.com/route/108917056/hate-hate-hate,2.0,-1,Boulder,V5-6,1,,43.9032,-111.553
