Route,Location,URL,"Avg Stars","Your Stars","Route Type",Rating,Pitches,Length,"Area Latitude","Area Longitude"
"Walk Into The Sky","Gateway Trail Boulders > Catoctin Mountain Park > Maryland",https://www.mountainproject.com/route/112372669/walk-into-the-sky,3.8,-1,Boulder,"V6 R",1,25,39.62149,-77.43276
"The General","The General Boulder > Catoctin Mountain Park > Maryland",https://www.mountainproject.com/route/112373391/the-general,3.9,-1,Boulder,"V6 PG13",1,20,39.64057,-77.45829
Danatron,"Woodstock Rock > Patapsco Valley State Park > Maryland",https://www.mountainproject.com/route/119567883/danatron,3.9,-1,Boulder,V6,1,12,39.3313,-76.8728
"What's a God to a Non-Believer?","Heavens > South Bank - Pipeline Area > Northwest Branch > Maryland",https://www.mountainproject.com/route/122096070/whats-a-god-to-a-non-believer,3.7,-1,Boulder,"V6 PG13",1,30,39.02963,-77.00404
"I See No God Up Here","Heavens > South Bank - Pipeline Area > Northwest Branch > Maryland",https://www.mountainproject.com/route/122378453/i-see-no-god-up-here,4.0,-1,Boulder,"V6 PG13",1,25,39.02963,-77.00404
"Crimptastic Variation","South Bank - Roof Area > Northwest Branch > Maryland",https://www.mountainproject.com/route/121940258/crimptastic-variation,4.0,-1,Boulder,V6,1,15,39.02972,-77.00438
"Probiotic Problem","Yogurt Block > Patapsco Valley State Park > Maryland",https://www.mountainproject.com/route/120727087/probiotic-problem,4.0,-1,Boulder,V6,1,25,39.36241,-76.9058
"Cosmic Revolution","Outlying Area > Harper's Ferry > Maryland",https://www.mountainproject.com/route/112371735/cosmic-revolution,4.0,-1,Boulder,V6,1,20,39.32636,-77.71418
"Nice Slot Sit Start","Nice Slot > South Bank - Pipeline Area > Northwest Branch > Maryland",https://www.mountainproject.com/route/119032121/nice-slot-sit-start,3.6,-1,Boulder,V6,1,,39.02963,-77.00404
"The Business","South Bank - Roof Area > Northwest Branch > Maryland",https://www.mountainproject.com/route/118774163/the-business,3.4,-1,Boulder,V6,1,,39.02972,-77.00438
"Suspended Disbelief","North Bank - Suspended Boulder > Northwest Branch > Maryland",https://www.mountainproject.com/route/118918453/suspended-disbelief,3.4,-1,Boulder,"V6 PG13",1,,39.02949,-77.00374
"Shonard's Lunacy","Jungle Cliffs > Carderock > Maryland",https://www.mountainproject.com/route/110235087/shonards-lunacy,4.0,-1,"TR, Boulder","5.11 V6",1,15,38.97557,-77.20599
"Crimptastic Sit Start","South Bank - Roof Area > Northwest Branch > Maryland",https://www.mountainproject.com/route/119582512/crimptastic-sit-start,3.3,-1,Boulder,V6,1,,39.02972,-77.00438
"Give Me Lip","South Bank - Roof Area > Northwest Branch > Maryland",https://www.mountainproject.com/route/120665228/give-me-lip,3.3,-1,Boulder,V6,1,,39.02972,-77.00438
"Seam Nightmares","Downstream Slab AKA Snowflake Face > North Bank - Chaos Roof Area AKA Snowflake Boulder > Northwest Branch > Maryland",https://www.mountainproject.com/route/122001485/seam-nightmares,2.3,-1,Boulder,V6,1,,39.0303,-77.0041
"X Squared","Balcony Rock Boulders > Harper's Ferry > Maryland",https://www.mountainproject.com/route/108860017/x-squared,3.0,-1,Boulder,V6,1,25,39.32458,-77.71604
"Train Stain","Underground Railroad > Harper's Ferry > Maryland",https://www.mountainproject.com/route/108863483/train-stain,3.0,-1,Boulder,V6,1,15,39.32415,-77.72256
"Chanimal Planet","Riverside Boulder > NCR Trail Parkton > Maryland",https://www.mountainproject.com/route/122286944/chanimal-planet,3.0,-1,Boulder,V6,1,8,39.63902,-76.65763
"Bj's and Pay-Day's","Warfare Boulder > Catoctin Mountain Park > Maryland",https://www.mountainproject.com/route/112373571/bjs-and-pay-days,3.0,-1,Boulder,V6,1,15,39.63451,-77.46721
"Pigeon Foot","Highlands > Harper's Ferry > Maryland",https://www.mountainproject.com/route/112326652/pigeon-foot,3.0,-1,Boulder,V6,1,15,39.32586,-77.72369
"Tennessee Stud","Underground Railroad > Harper's Ferry > Maryland",https://www.mountainproject.com/route/108863477/tennessee-stud,3.3,-1,Boulder,V6,1,25,39.32415,-77.72256
"River Traverse","Outlook Rocks > Carderock > Maryland",https://www.mountainproject.com/route/120729224/river-traverse,3.0,-1,"Sport, Boulder","5.11 V6",1,45,38.97605,-77.20651
"Belly Harkonen","Cliff Trail Boulders > Cunningham Falls State Park > Maryland",https://www.mountainproject.com/route/120316496/belly-harkonen,3.0,-1,Boulder,V6,1,,39.62949,-77.46808
"Alberton Highball","40 Boulder > Alberton Boulders > Alberton > Patapsco Valley State Park > Maryland",https://www.mountainproject.com/route/118849058/alberton-highball,3.0,-1,Boulder,"V6 PG13",1,15,39.31519,-76.79466
"Gabor's V6","South Bank - Dirty Ernie > Northwest Branch > Maryland",https://www.mountainproject.com/route/118806793/gabors-v6,2.7,-1,Boulder,V6,1,,39.02901,-77.00271
"Between Two Pillows","Fisherman's > Morgan Run NEA > Maryland",https://www.mountainproject.com/route/107752124/between-two-pillows,2.7,-1,Boulder,V6,1,22,39.46594,-76.97047
"Static Dyno","Charcoal Exhibition Boulder > Charcoal Exhibition Area > Thurmont Vista Boulders/Static Boulders > Catoctin Mountain Park > Maryland",https://www.mountainproject.com/route/117093022/static-dyno,2.6,-1,Boulder,V6,1,18,39.64654,-77.44378
"Blue Crab","Three Sisters Boulder Garden > Purple Trail Boulders > Rocks State Park > Maryland",https://www.mountainproject.com/route/118746687/blue-crab,2.8,-1,Boulder,V6,1,,39.63601,-76.41242
Bulge,"Charcoal Exhibition Boulder > Charcoal Exhibition Area > Thurmont Vista Boulders/Static Boulders > Catoctin Mountain Park > Maryland",https://www.mountainproject.com/route/112377162/bulge,2.0,-1,Boulder,V6,1,18,39.64654,-77.44378
Nothing,"Long Wall > Northwest Branch > Maryland",https://www.mountainproject.com/route/118796433/nothing,2.3,-1,Boulder,V6,1,,39.02251,-76.99489
"You're Fucking Out","Cliff Trail Boulders > Cunningham Falls State Park > Maryland",https://www.mountainproject.com/route/112398027/youre-fucking-out,2.5,-1,Boulder,V6,1,,39.62949,-77.46808
"General Relativity","Cliff Trail Boulders > Cunningham Falls State Park > Maryland",https://www.mountainproject.com/route/112381533/general-relativity,2.0,-1,Boulder,V6,1,,39.62949,-77.46808
"Generation Gap","Blue Ridge Summit/Hog Rock Parking Boulders > Catoctin Mountain Park > Maryland",https://www.mountainproject.com/route/112372617/generation-gap,2.0,-1,Boulder,V6,1,10,39.64778,-77.45612
"Balls Out","Below Breakaway > Rocks State Park > Maryland",https://www.mountainproject.com/route/118747043/balls-out,2.0,-1,Boulder,V6,1,12,39.63592,-76.41161
Genetic,"Upstream Slab > North Bank - Chaos Roof Area AKA Snowflake Boulder > Northwest Branch > Maryland",https://www.mountainproject.com/route/107892152/genetic,1.6,-1,Boulder,V6,1,,39.02935,-77.00333
"River Dyno","Fin Boulder aka Trailside > North Bank - Chaos Roof Area AKA Snowflake Boulder > Northwest Branch > Maryland",https://www.mountainproject.com/route/112190178/river-dyno,1.5,-1,Boulder,V6,1,14,39.02948,-77.00359
"Winnie Var.","Frameshift Boulder > Alberton Boulders > Alberton > Patapsco Valley State Park > Maryland",https://www.mountainproject.com/route/119014565/winnie-var,2.0,-1,Boulder,V6,1,8,39.31519,-76.79468
"Skipping Church","Fisherman's > Morgan Run NEA > Maryland",https://www.mountainproject.com/route/113846599/skipping-church,1.0,-1,Boulder,V6,1,10,39.46594,-76.97047
"A Spot Named Dog","Russell's Roof Area > Hereford Hill > The Gunpowder Falls Bouldering Area > Maryland",https://www.mountainproject.com/route/123605592/a-spot-named-dog,4.0,-1,Boulder,V6,1,30,39.6188,-76.68898
Project,"Bobcat Blocks > Hereford Hill > The Gunpowder Falls Bouldering Area > Maryland",https://www.mountainproject.com/route/123609182/project,4.0,-1,Boulder,V6,1,20,39.6191,-76.68911
"Blood Oath","Main Area > Tributary Stones > Angler's Bluffs > The Gunpowder Falls Bouldering Area > Maryland",https://www.mountainproject.com/route/123693809/blood-oath,4.0,-1,Boulder,V6,1,12,39.6198,-76.69319
"Til Valhalla","Coffland Point > Loch Raven Reservoir > Baltimore City Watershed > Maryland",https://www.mountainproject.com/route/123637297/til-valhalla,3.0,-1,Boulder,V6,1,10,39.46428,-76.57947
"Pilot Light","Main Area > Tributary Stones > Angler's Bluffs > The Gunpowder Falls Bouldering Area > Maryland",https://www.mountainproject.com/route/123813174/pilot-light,2.8,-1,Boulder,V6,1,10,39.6198,-76.69319
"Time Warp","Time Block > RoadSide Boulders > Raven Rock > Maryland",https://www.mountainproject.com/route/123832884/time-warp,3.0,-1,Boulder,V6,1,,39.6656,-77.53727
"A Clockwork Orange","Time Block > RoadSide Boulders > Raven Rock > Maryland",https://www.mountainproject.com/route/123832920/a-clockwork-orange,4.0,-1,Boulder,V6,1,,39.6656,-77.53727
"Phat Farm","Main Area > Tributary Stones > Angler's Bluffs > The Gunpowder Falls Bouldering Area > Maryland",https://www.mountainproject.com/route/124010282/phat-farm,3.0,-1,Boulder,V6,1,15,39.6198,-76.69319
"Coked Up Cowboy (Project)","Freedom Boulder > Fin Bouldering > The Gunpowder Falls Bouldering Area > Maryland",https://www.mountainproject.com/route/124065992/coked-up-cowboy-project,2.0,-1,Boulder,V6,1,15,39.61741,-76.68871
Blossum,"Dogwood Boulder > The Gunpowder Falls Bouldering Area > Maryland",https://www.mountainproject.com/route/124066086/blossum,4.0,-1,Boulder,V6,1,20,39.61721,-76.69444
"Platonic Realism","Linear Extension > Patapsco Valley State Park > Maryland",https://www.mountainproject.com/route/124395537/platonic-realism,4.0,-1,Boulder,V6,1,12,39.35341,-76.93663
"Coconut Crab (project)","Thenar Eminence > Fallston Boulder Garden > Maryland",https://www.mountainproject.com/route/124876316/coconut-crab-project,3.0,-1,Boulder,V6,1,10,39.5056,-76.43169
Fridglet,"Mini Coolster > Fallston Boulder Garden > Maryland",https://www.mountainproject.com/route/124906731/fridglet,3.0,-1,Boulder,V6,1,6,39.50624,-76.43184
"Shotguns Akimbo","Blerda Boulder > Bloede Dam Boulders > Patapsco Valley State Park > Maryland",https://www.mountainproject.com/route/125571909/shotguns-akimbo,1.0,-1,Boulder,V6,1,12,39.24715,-76.76507
"Persistence (project)","Blerda Boulder > Bloede Dam Boulders > Patapsco Valley State Park > Maryland",https://www.mountainproject.com/route/125571928/persistence-project,3.0,-1,Boulder,V6,1,20,39.24715,-76.76507
Galvatron,"Woodstock Rock > Patapsco Valley State Park > Maryland",https://www.mountainproject.com/route/125649851/galvatron,3.0,-1,Boulder,V6,1,14,39.3313,-76.8728
"3rd Strike","The Way Back Boulder > Patapsco Valley State Park > Maryland",https://www.mountainproject.com/route/125740692/3rd-strike,3.0,-1,Boulder,V6,1,12,39.34383,-76.8838
Greybird,"Blackbird Outcrop > Hereford Bouldering > Gunpowder Falls - Hereford Area > Maryland",https://www.mountainproject.com/route/125793711/greybird,3.0,-1,Boulder,V6,1,15,39.61697,-76.65204
