Route,Location,URL,"Avg Stars","Your Stars","Route Type",Rating,Pitches,Length,"Area Latitude","Area Longitude"
"The Coffin","Coffin Roof > Priest Draw > Priest Draw Area > *Flagstaff Bouldering* > *Northern AZ Bouldering* > Northern Arizona > Arizona",https://www.mountainproject.com/route/106158204/the-coffin,3.2,-1,Boulder,V3,1,10,35.08098,-111.60413
"Lazer Cut","Free Willy/Lazer Cut Boulder > The Anvil Boulders > *Sedona Bouldering* > *Northern AZ Bouldering* > Northern Arizona > Arizona",https://www.mountainproject.com/route/106507931/lazer-cut,3.2,-1,Boulder,V3,1,15,34.87282,-111.75338
"Bump to Conclusions","DWS East Side > DWS East Clear Creek > East Clear Creek > Winslow- Hwy’s 87 & 99 Corridors > Northern Arizona > Arizona",https://www.mountainproject.com/route/107258980/bump-to-conclusions,3.9,-1,Boulder,V3,1,20,34.95661,-110.65823
"The Yoker","The Egg > Parking Area Bouldering > Priest Draw > Priest Draw Area > *Flagstaff Bouldering* > *Northern AZ Bouldering* > Northern Arizona > Arizona",https://www.mountainproject.com/route/106158129/the-yoker,3.0,-1,Boulder,V3,1,15,35.08209,-111.60164
Dishwasher,"White Wall > Parking Area Bouldering > Priest Draw > Priest Draw Area > *Flagstaff Bouldering* > *Northern AZ Bouldering* > Northern Arizona > Arizona",https://www.mountainproject.com/route/106029524/dishwasher,2.6,-1,Boulder,V3,1,12,35.08197,-111.60088
"Alien Autopsy","Vector Arena > Oak Flat > Queen Creek Canyon > Central Arizona > Arizona",https://www.mountainproject.com/route/106991335/alien-autopsy,3.9,-1,Boulder,V3,1,12,33.29999,-111.05145
"Tall Cool One","The High Island > Satellite Areas > Groom Creek > Senator’s Highway Areas- Groom Creek > *Prescott Bouldering* > **Prescott Area > Central Arizona > Arizona",https://www.mountainproject.com/route/106387545/tall-cool-one,3.4,-1,Boulder,V3,1,,34.46367,-112.43887
"The Prow","Pencil Thin Boulder > Beardsley Bouldering > Beardsley Boulders Area > **Phoenix Areas > Central Arizona > Arizona",https://www.mountainproject.com/route/107406024/the-prow,2.9,-1,Boulder,V3,1,8,33.6824,-112.04303
"Black Streak","Welcome Boulder (aka Triangle Boulder) > Priest Draw > Priest Draw Area > *Flagstaff Bouldering* > *Northern AZ Bouldering* > Northern Arizona > Arizona",https://www.mountainproject.com/route/106707215/black-streak,2.6,-1,Boulder,V3,1,,35.08201,-111.59841
Splitsville,"Splitsville > Equestrian Area (Closures in Effect) > South Mountain > **Phoenix Areas > Central Arizona > Arizona",https://www.mountainproject.com/route/116209802/splitsville,3.0,-1,Boulder,V3,1,,33.34297,-112.01071
"Aloha Far Left","Trailer Park > East Kelly Canyon > Kelly Canyon > *Flagstaff Bouldering* > *Northern AZ Bouldering* > Northern Arizona > Arizona",https://www.mountainproject.com/route/106272801/aloha-far-left,2.4,-1,Boulder,V3,1,12,35.06591,-111.69528
"Flake Orgasm","Atlantis #2 > Oak Flat > Queen Creek Canyon > Central Arizona > Arizona",https://www.mountainproject.com/route/106959077/flake-orgasm,3.3,-1,Boulder,V3,1,10,33.3023,-111.0561
Frogger,"The Wave Area > Main Boulders > Groom Creek > Senator’s Highway Areas- Groom Creek > *Prescott Bouldering* > **Prescott Area > Central Arizona > Arizona",https://www.mountainproject.com/route/105962633/frogger,2.8,-1,Boulder,V3,1,10,34.46757,-112.43804
"Nopinyon Arete","Pillar Boulder > The Anvil Boulders > *Sedona Bouldering* > *Northern AZ Bouldering* > Northern Arizona > Arizona",https://www.mountainproject.com/route/107382016/nopinyon-arete,3.9,-1,Boulder,V3,1,20,34.87241,-111.75363
"Emerald Arete","Tasty Pancho > First Gully Boulders > San Francisco Peaks > *Flagstaff Bouldering* > *Northern AZ Bouldering* > Northern Arizona > Arizona",https://www.mountainproject.com/route/114810126/emerald-arete,3.6,-1,Boulder,V3,1,35,35.30312,-111.70367
"Refried Sunrise","Refried Area > The Beans > Sweet Rock > West Stronghold Bouldering > West Stronghold > Cochise Stronghold > Southern Arizona > Arizona",https://www.mountainproject.com/route/122201819/refried-sunrise,4.0,-1,Boulder,"V3 PG13",1,23,31.8777,-110.01935
"white Rabbit","The Cemetery > Superstition Mountains > **Phoenix Areas > Central Arizona > Arizona",https://www.mountainproject.com/route/119883197/white-rabbit,4.0,-1,Boulder,V3,1,25,33.41091,-111.34998
"The Holy Path","The Holy Wall > Upper Canyon > Saguaro Lake > Central Arizona > Arizona",https://www.mountainproject.com/route/119172095/the-holy-path,4.0,-1,Boulder,V3,1,30,33.55675,-111.46175
"Streets of Laredo","I. Long Ryders Wall > A. The Drysdale Trail > Land of High Bouldering aka The Ridge > Lake Mary Areas > *Flagstaff Bouldering* > *Northern AZ Bouldering* > Northern Arizona > Arizona",https://www.mountainproject.com/route/107399823/streets-of-laredo,3.4,-1,Boulder,V3,1,,35.1124,-111.57935
Crackhead,"The Amphitheatre > Pima Canyon Area > South Mountain > **Phoenix Areas > Central Arizona > Arizona",https://www.mountainproject.com/route/122163643/crackhead,4.0,-1,Boulder,V3,1,10,33.35623,-112.01248
"Disco Lights","Van Mary Boulder > Hart Prairie Area > San Francisco Peaks > *Flagstaff Bouldering* > *Northern AZ Bouldering* > Northern Arizona > Arizona",https://www.mountainproject.com/route/123215237/disco-lights,4.0,-1,Boulder,V3,1,5,35.36385,-111.73546
"KG SOLOMAN 5000","Pima Wash Wall > Pima Canyon Area > South Mountain > **Phoenix Areas > Central Arizona > Arizona",https://www.mountainproject.com/route/121954235/kg-soloman-5000,4.0,-1,"TR, Boulder","V3 PG13",1,20,33.35737,-112.01072
"Dangling Wu Li Bastard","The Canyon Area > Main Boulders > Groom Creek > Senator’s Highway Areas- Groom Creek > *Prescott Bouldering* > **Prescott Area > Central Arizona > Arizona",https://www.mountainproject.com/route/110836805/dangling-wu-li-bastard,3.1,-1,Boulder,V3,1,8,34.46764,-112.4375
"Steppin' Out","Moonstone, Leg Lock Rock, Bolt Rock Area > Main Boulders > Groom Creek > Senator’s Highway Areas- Groom Creek > *Prescott Bouldering* > **Prescott Area > Central Arizona > Arizona",https://www.mountainproject.com/route/106299394/steppin-out,3.1,-1,Boulder,V3,1,16,34.46766,-112.43789
"Skate Park Traverse","Prescott Buildering > In-Town Bouldering > *Prescott Bouldering* > **Prescott Area > Central Arizona > Arizona",https://www.mountainproject.com/route/121150066/skate-park-traverse,4.0,-1,Boulder,V3,1,150,34.5412,-112.46988
"White Castle","Salome > Central Arizona > Arizona",https://www.mountainproject.com/route/120036538/white-castle,2.0,-1,Boulder,V3,1,20,33.8488,-113.68882
"Mad Dog","Cellar Wall > Hassayampa Creek > Senator’s Highway Areas- Groom Creek > *Prescott Bouldering* > **Prescott Area > Central Arizona > Arizona",https://www.mountainproject.com/route/118976371/mad-dog,4.0,-1,Boulder,"V3 PG13",1,15,34.45272,-112.47445
P.E.ness,"ASU main campus > Phoenix Area Buildering > **Phoenix Areas > Central Arizona > Arizona",https://www.mountainproject.com/route/107264390/peness,4.0,-1,Boulder,V3,1,15,33.5046,-112.077
"The Dark Prince of Jackness","Thor's Chasm > Watson Lake Bouldering > *Prescott Bouldering* > **Prescott Area > Central Arizona > Arizona",https://www.mountainproject.com/route/110476006/the-dark-prince-of-jackness,4.0,-1,Boulder,V3,1,25,34.59503,-112.4187
"Rage quit","Salome > Central Arizona > Arizona",https://www.mountainproject.com/route/108064158/rage-quit,3.0,-1,Boulder,V3,1,8,33.8488,-113.68882
"Blocked Corridor","The Corridor Boulders > Icecapades > **Phoenix Areas > Central Arizona > Arizona",https://www.mountainproject.com/route/109047906/blocked-corridor,4.0,-1,Boulder,V3,1,13,33.74179,-112.17491
"The Shield","DWS East Side > DWS East Clear Creek > East Clear Creek > Winslow- Hwy’s 87 & 99 Corridors > Northern Arizona > Arizona",https://www.mountainproject.com/route/106781440/the-shield,3.3,-1,Boulder,"5.11 V3",1,25,34.95661,-110.65823
"Iron Monkey","Donkey Punch Area > East Kelly Canyon > Kelly Canyon > *Flagstaff Bouldering* > *Northern AZ Bouldering* > Northern Arizona > Arizona",https://www.mountainproject.com/route/106293482/iron-monkey,2.8,-1,Boulder,V3,1,12,35.0655,-111.6959
"Nasal Cavity (Jump Start)","The Amphitheatre > Pima Canyon Area > South Mountain > **Phoenix Areas > Central Arizona > Arizona",https://www.mountainproject.com/route/106579177/nasal-cavity-jump-start,3.0,-1,Boulder,V3,1,15,33.35623,-112.01248
"Perfect Day","*Perfect Day Wall > A. The Drysdale Trail > Land of High Bouldering aka The Ridge > Lake Mary Areas > *Flagstaff Bouldering* > *Northern AZ Bouldering* > Northern Arizona > Arizona",https://www.mountainproject.com/route/111941893/perfect-day,3.6,-1,Boulder,V3,1,12,35.11866,-111.58597
"Up Shift","Chipmunk Boulder > Camelback Mountain > **Phoenix Areas > Central Arizona > Arizona",https://www.mountainproject.com/route/118624589/up-shift,3.7,-1,Boulder,V3,1,15,33.52083,-111.97006
"Crystal Crimps","UFO Boulders > Icecapades > **Phoenix Areas > Central Arizona > Arizona",https://www.mountainproject.com/route/109276058/crystal-crimps,3.5,-1,Boulder,V3,1,20,33.74158,-112.17486
"The ladder","Amphitheater Boulder > Rose Canyon Lake Bouldering > 6 - Mid-Mountain > Mount Lemmon (Catalina Highway) > Mount Lemmon (Santa Catalina Mountains) > Southern Arizona > Arizona",https://www.mountainproject.com/route/106775880/the-ladder,3.3,-1,Boulder,V3,1,20,32.38977,-110.70871
"Bathroom Splits","Old Standard aka the Leaning Crack Boulder > The Old Standard Area (aka the Bath Room Boulders) > Campground Area Boulders > Campground and Walk of Nature Loop Boulders > Cochise Campground Vicinity Boulders > East Stronghold Bouldering > East Stronghold > Cochise Stronghold > Southern Arizona > Arizona",https://www.mountainproject.com/route/106396966/bathroom-splits,2.7,-1,Boulder,V3,1,10,31.92198,-109.96798
"Side Pulls","Matterhorn Boulder > 5 - Windy Ridge > Mount Lemmon (Catalina Highway) > Mount Lemmon (Santa Catalina Mountains) > Southern Arizona > Arizona",https://www.mountainproject.com/route/106042064/side-pulls,2.3,-1,Boulder,V3,1,10,32.38276,-110.69378
"Monkey Lust","Monkey Lust Boulder > Beardsley Bouldering > Beardsley Boulders Area > **Phoenix Areas > Central Arizona > Arizona",https://www.mountainproject.com/route/107406025/monkey-lust,3.0,-1,Boulder,V3,1,8,33.68239,-112.04304
"Crown of Thorns","Entrance Boulders > Pima Canyon Area > South Mountain > **Phoenix Areas > Central Arizona > Arizona",https://www.mountainproject.com/route/106671963/crown-of-thorns,2.5,-1,Boulder,V3,1,,33.35761,-112.00958
"Clamor and Filth of the Cultural Apparatus","Africa Boulder > Pima Canyon Area > South Mountain > **Phoenix Areas > Central Arizona > Arizona",https://www.mountainproject.com/route/120261048/clamor-and-filth-of-the-cultural-apparatus,3.5,-1,Boulder,V3,1,10,33.35637,-112.01206
"Pinball Wizard","The Warm-Up Wall > East Kelly Canyon > Kelly Canyon > *Flagstaff Bouldering* > *Northern AZ Bouldering* > Northern Arizona > Arizona",https://www.mountainproject.com/route/110839979/pinball-wizard,3.2,-1,Boulder,V3,1,12,35.0655,-111.6959
"Slam Dunk","New Outfromunder Boulders > Thumb Butte Boulders > In-Town Bouldering > *Prescott Bouldering* > **Prescott Area > Central Arizona > Arizona",https://www.mountainproject.com/route/109021132/slam-dunk,3.0,-1,Boulder,V3,1,10,34.5493,-112.5232
"The Black Pearl","Delusions of Grandeur Boulder > Equestrian Area (Closures in Effect) > South Mountain > **Phoenix Areas > Central Arizona > Arizona",https://www.mountainproject.com/route/116209751/the-black-pearl,2.8,-1,Boulder,V3,1,,33.34308,-112.01062
"Los Dos Pacificos","The Cemetery > Superstition Mountains > **Phoenix Areas > Central Arizona > Arizona",https://www.mountainproject.com/route/118808279/los-dos-pacificos,3.3,-1,Boulder,V3,1,14,33.41091,-111.34998
Daisy,"DWS East Side > DWS East Clear Creek > East Clear Creek > Winslow- Hwy’s 87 & 99 Corridors > Northern Arizona > Arizona",https://www.mountainproject.com/route/119364352/daisy,3.3,-1,Boulder,V3,1,30,34.95661,-110.65823
"The Exhumer","Viet Springs > San Francisco Peaks > *Flagstaff Bouldering* > *Northern AZ Bouldering* > Northern Arizona > Arizona",https://www.mountainproject.com/route/107206256/the-exhumer,3.7,-1,Boulder,V3,1,18,35.30682,-111.71292
"Cannabis Maximus","A. The Gateway Wall > A. The Drysdale Trail > Land of High Bouldering aka The Ridge > Lake Mary Areas > *Flagstaff Bouldering* > *Northern AZ Bouldering* > Northern Arizona > Arizona",https://www.mountainproject.com/route/110316531/cannabis-maximus,3.3,-1,Boulder,V3,1,21,35.1158,-111.5868
Flake,"Buffalo Park > *Flagstaff Bouldering* > *Northern AZ Bouldering* > Northern Arizona > Arizona",https://www.mountainproject.com/route/106120292/flake,2.8,-1,Boulder,V3,1,13,35.2191,-111.6287
"Pencil Thin, Right Arete","Pencil Thin Boulder > Beardsley Bouldering > Beardsley Boulders Area > **Phoenix Areas > Central Arizona > Arizona",https://www.mountainproject.com/route/107406012/pencil-thin-right-arete,2.4,-1,Boulder,V3,1,14,33.6824,-112.04303
"Unnamed V3","Problems on Unnamed Boulders > Beardsley Bouldering > Beardsley Boulders Area > **Phoenix Areas > Central Arizona > Arizona",https://www.mountainproject.com/route/108109624/unnamed-v3,3.5,-1,"TR, Boulder","5.11+ V3",1,25,33.68233,-112.04281
"Way of the Warrior","Lizard Tail Mesa > *Sedona Bouldering* > *Northern AZ Bouldering* > Northern Arizona > Arizona",https://www.mountainproject.com/route/117859033/way-of-the-warrior,3.3,-1,Boulder,"V3 PG13",1,,34.87943,-111.81176
"My Body Is Not Designed For This","The Island (Facelift Area) > Satellite Areas > Groom Creek > Senator’s Highway Areas- Groom Creek > *Prescott Bouldering* > **Prescott Area > Central Arizona > Arizona",https://www.mountainproject.com/route/111912912/my-body-is-not-designed-for-this,3.1,-1,Boulder,V3,1,10,34.46593,-112.43992
"Traverse v3","The Island > Howard Draw > Priest Draw Area > *Flagstaff Bouldering* > *Northern AZ Bouldering* > Northern Arizona > Arizona",https://www.mountainproject.com/route/117911180/traverse-v3,3.2,-1,Boulder,V3,1,40,35.08101,-111.605
"Flaming Testicle","Western Bouldering Area > Camelback Mountain > **Phoenix Areas > Central Arizona > Arizona",https://www.mountainproject.com/route/110588855/flaming-testicle,3.0,-1,Boulder,V3,1,13,33.52083,-111.97165
"The Chronic","Rad Rocks and Mystery Stump Areas > Main Boulders > Groom Creek > Senator’s Highway Areas- Groom Creek > *Prescott Bouldering* > **Prescott Area > Central Arizona > Arizona",https://www.mountainproject.com/route/112427245/the-chronic,2.9,-1,Boulder,V3,1,,34.46757,-112.43804
"Tree arete","First Area > Grasshopper Point Boulders > *Sedona Bouldering* > *Northern AZ Bouldering* > Northern Arizona > Arizona",https://www.mountainproject.com/route/118307961/tree-arete,3.1,-1,Boulder,V3,1,10,34.88725,-111.7311
Bittersweet,"Bittersweet Boulder > Equestrian Area (Closures in Effect) > South Mountain > **Phoenix Areas > Central Arizona > Arizona",https://www.mountainproject.com/route/120020652/bittersweet,2.8,-1,Boulder,V3,1,,33.3452,-112.00882
"Hard Jams High Pulls","Warmup Slab Boulder Area > The Anvil Boulders > *Sedona Bouldering* > *Northern AZ Bouldering* > Northern Arizona > Arizona",https://www.mountainproject.com/route/109045321/hard-jams-high-pulls,2.6,-1,Boulder,V3,1,20,34.87279,-111.7536
"Quivering Beast","Beast Boulder > Panther Peak > Tucson Area Bouldering > Southern Arizona > Arizona",https://www.mountainproject.com/route/106582762/quivering-beast,3.0,-1,Boulder,V3,1,20,32.3435,-111.1586
"Afternoon Delight","Afternoon Delight > Equestrian Area (Closures in Effect) > South Mountain > **Phoenix Areas > Central Arizona > Arizona",https://www.mountainproject.com/route/119788201/afternoon-delight,2.8,-1,Boulder,V3,1,,33.34412,-112.01018
Gatekeeper,"Entrance Boulders > Equestrian Area (Closures in Effect) > South Mountain > **Phoenix Areas > Central Arizona > Arizona",https://www.mountainproject.com/route/118988544/gatekeeper,2.7,-1,Boulder,V3,1,,33.33928,-112.01746
"Super Sloper or Left Face","Buffalo Park > *Flagstaff Bouldering* > *Northern AZ Bouldering* > Northern Arizona > Arizona",https://www.mountainproject.com/route/106371290/super-sloper-or-left-face,3.0,-1,Boulder,V3,1,18,35.2191,-111.6287
"Farmers Only","Farmers Only > Gilly Monsters > East Stronghold Bouldering > East Stronghold > Cochise Stronghold > Southern Arizona > Arizona",https://www.mountainproject.com/route/120282253/farmers-only,3.0,-1,Boulder,V3,1,12,31.92613,-109.9692
"Two Step","Tasty Pancho > First Gully Boulders > San Francisco Peaks > *Flagstaff Bouldering* > *Northern AZ Bouldering* > Northern Arizona > Arizona",https://www.mountainproject.com/route/115688932/two-step,3.0,-1,Boulder,V3,1,15,35.30312,-111.70367
"The Gun Fighter","Wiley Thompson Boulder > Beardsley Bouldering > Beardsley Boulders Area > **Phoenix Areas > Central Arizona > Arizona",https://www.mountainproject.com/route/116742761/the-gun-fighter,2.4,-1,Boulder,V3,1,12,33.68197,-112.0423
Nautilus,"Beast Boulder > Panther Peak > Tucson Area Bouldering > Southern Arizona > Arizona",https://www.mountainproject.com/route/106592026/nautilus,3.0,-1,Boulder,V3,1,15,32.3435,-111.1586
"Double Clutch","Monkey Lust Boulder > Beardsley Bouldering > Beardsley Boulders Area > **Phoenix Areas > Central Arizona > Arizona",https://www.mountainproject.com/route/111161447/double-clutch,2.6,-1,Boulder,V3,1,10,33.68239,-112.04304
"Bird's Beak","DWS East Side > DWS East Clear Creek > East Clear Creek > Winslow- Hwy’s 87 & 99 Corridors > Northern Arizona > Arizona",https://www.mountainproject.com/route/119386517/birds-beak,3.0,-1,Boulder,V3,-7,30,34.95661,-110.65823
"King's Line","Crown Boulder > Equestrian Area (Closures in Effect) > South Mountain > **Phoenix Areas > Central Arizona > Arizona",https://www.mountainproject.com/route/116377748/kings-line,2.8,-1,Boulder,V3,1,,33.34331,-112.01028
"Campsite V3","Campsite Boulder > Sweet Rock > West Stronghold Bouldering > West Stronghold > Cochise Stronghold > Southern Arizona > Arizona",https://www.mountainproject.com/route/116787501/campsite-v3,3.0,-1,Boulder,V3,1,14,31.8744,-110.02196
"RJG #194","Atlantis #2 > Oak Flat > Queen Creek Canyon > Central Arizona > Arizona",https://www.mountainproject.com/route/122082546/rjg-194,3.2,-1,Boulder,V3,1,12,33.3023,-111.0561
"Top Heavy","Blue Marble Wall > East Kelly Canyon > Kelly Canyon > *Flagstaff Bouldering* > *Northern AZ Bouldering* > Northern Arizona > Arizona",https://www.mountainproject.com/route/110293720/top-heavy,3.0,-1,Boulder,"V3 R",1,20,35.0669,-111.69742
"Dj's Block","Davey Jones Locker > Oak Flat > Queen Creek Canyon > Central Arizona > Arizona",https://www.mountainproject.com/route/106959790/djs-block,2.6,-1,Boulder,V3,1,17,33.3026,-111.0546
"Tabernacle/Alter Linkup","Shrine > The Sanctuary > Tucson Area Bouldering > Southern Arizona > Arizona",https://www.mountainproject.com/route/120070832/tabernaclealter-linkup,3.0,-1,Boulder,V3,1,10,32.34969,-111.149
"Moonlight Mile","Lindita > Loma Linda > 7 - Upper Highway > Mount Lemmon (Catalina Highway) > Mount Lemmon (Santa Catalina Mountains) > Southern Arizona > Arizona",https://www.mountainproject.com/route/117719192/moonlight-mile,3.0,-1,Boulder,V3,1,9,32.43911,-110.75227
"Red Velvet","West Sanctuary > Tucson Area Bouldering > Southern Arizona > Arizona",https://www.mountainproject.com/route/114094588/red-velvet,3.0,-1,Boulder,V3,1,13,32.34923,-111.1653
"Gateway Drug Lords","A. The Gateway Wall > A. The Drysdale Trail > Land of High Bouldering aka The Ridge > Lake Mary Areas > *Flagstaff Bouldering* > *Northern AZ Bouldering* > Northern Arizona > Arizona",https://www.mountainproject.com/route/110316679/gateway-drug-lords,3.0,-1,Boulder,V3,1,21,35.1158,-111.5868
"Unknown Fingercrack","Trailer Park > East Kelly Canyon > Kelly Canyon > *Flagstaff Bouldering* > *Northern AZ Bouldering* > Northern Arizona > Arizona",https://www.mountainproject.com/route/107008125/unknown-fingercrack,2.5,-1,Boulder,V3,1,20,35.06591,-111.69528
"Fair Trade","Split Boulder > Panther Peak > Tucson Area Bouldering > Southern Arizona > Arizona",https://www.mountainproject.com/route/106934787/fair-trade,3.0,-1,Boulder,V3,1,20,32.3435,-111.1586
"Wanting a Hula Hoop, Hammer & a Beer","Super Crack Tower > Midgley Bridge Area > Sedona > Sedona Area > Northern Arizona > Arizona",https://www.mountainproject.com/route/107007086/wanting-a-hula-hoop-hammer-a-beer,3.0,-1,"Trad, Sport, Boulder","5.9 V3",1,40,34.9033,-111.748
Jim,"Donkey Punch Area > East Kelly Canyon > Kelly Canyon > *Flagstaff Bouldering* > *Northern AZ Bouldering* > Northern Arizona > Arizona",https://www.mountainproject.com/route/120653951/jim,3.0,-1,Boulder,V3,1,15,35.0655,-111.6959
"Back on the Wagon","G. The Booze Pig Wall > A. The Drysdale Trail > Land of High Bouldering aka The Ridge > Lake Mary Areas > *Flagstaff Bouldering* > *Northern AZ Bouldering* > Northern Arizona > Arizona",https://www.mountainproject.com/route/120141372/back-on-the-wagon,3.0,-1,Boulder,V3,1,20,35.11339,-111.58081
"Dad Palace","Legion Boulder > Elysian Boulders > Mt. Elden Areas > *Flagstaff Bouldering* > *Northern AZ Bouldering* > Northern Arizona > Arizona",https://www.mountainproject.com/route/121292633/dad-palace,3.0,-1,Boulder,V3,1,15,35.26553,-111.59101
Deception,"Warpaint > Equestrian Area (Closures in Effect) > South Mountain > **Phoenix Areas > Central Arizona > Arizona",https://www.mountainproject.com/route/120083677/deception,2.3,-1,Boulder,V3,1,,33.34207,-112.01716
"Rail Problem","Tombstone Area > Gloria's > Mt. Elden Areas > *Flagstaff Bouldering* > *Northern AZ Bouldering* > Northern Arizona > Arizona",https://www.mountainproject.com/route/118813472/rail-problem,3.0,-1,Boulder,V3,1,15,35.23315,-111.62556
"Coleman's  Daughter","DWS East Side > DWS East Clear Creek > East Clear Creek > Winslow- Hwy’s 87 & 99 Corridors > Northern Arizona > Arizona",https://www.mountainproject.com/route/107116949/colemans-daughter,3.0,-1,Boulder,"5.11 V3",1,30,34.95661,-110.65823
Hooked,"Hot Spring Canyon Trail > Ringbolt Hot Springs and White Rock Canyon > Kingman Area > Northern Arizona > Arizona",https://www.mountainproject.com/route/114341237/hooked,3.0,-1,Boulder,V3,1,30,35.96372,-114.71869
"Do-rags and Debutantes","Cotillion Boulder > Cochise Trail Boulders > Cochise Campground Vicinity Boulders > East Stronghold Bouldering > East Stronghold > Cochise Stronghold > Southern Arizona > Arizona",https://www.mountainproject.com/route/121033264/do-rags-and-debutantes,3.0,-1,Boulder,V3,1,14,31.91954,-109.96494
Mesopotamia,"2) Broken Symmetry > Middle Elden > Mt. Elden Areas > *Flagstaff Bouldering* > *Northern AZ Bouldering* > Northern Arizona > Arizona",https://www.mountainproject.com/route/116066282/mesopotamia,3.0,-1,Boulder,V3,1,20,35.23114,-111.60319
"Corner store","Public Enema Roof > Equestrian Area (Closures in Effect) > South Mountain > **Phoenix Areas > Central Arizona > Arizona",https://www.mountainproject.com/route/120459290/corner-store,3.0,-1,Boulder,V3,1,5,33.3438,-112.01244
"Temple of dog","Salome > Central Arizona > Arizona",https://www.mountainproject.com/route/120036680/temple-of-dog,3.0,-1,Boulder,V3,1,15,33.8488,-113.68882
"Safe Cracker","Woodruff > *Northern AZ Bouldering* > Northern Arizona > Arizona",https://www.mountainproject.com/route/116828866/safe-cracker,2.0,-1,Boulder,V3,1,,34.74062,-110.01709
"Hand Crack","Across the Tracks > Rowe well Road and Bright Angel Wash > Grand Canyon Bouldering > *Northern AZ Bouldering* > Northern Arizona > Arizona",https://www.mountainproject.com/route/119083365/hand-crack,3.0,-1,Boulder,V3,1,10,36.0394,-112.16547
"Hold my Purse","Brush Monkey Boulders > Copper Basin / Thumb Butte Loop > *Prescott Bouldering* > **Prescott Area > Central Arizona > Arizona",https://www.mountainproject.com/route/119499602/hold-my-purse,3.0,-1,Boulder,V3,1,18,34.48828,-112.55576
"Recess is over","The Playground > The Middle East > Stewart Pocket > Central Arizona > Arizona",https://www.mountainproject.com/route/122057651/recess-is-over,2.5,-1,Boulder,V3,1,16,34.23197,-111.26385
"Reverberating Carbonizer With Mutate Capacity","Woodruff > *Northern AZ Bouldering* > Northern Arizona > Arizona",https://www.mountainproject.com/route/116829156/reverberating-carbonizer-with-mutate-capacity,2.0,-1,Boulder,V3,1,,34.74062,-110.01709
"Mom Packed My Lunch","The Playground > The Middle East > Stewart Pocket > Central Arizona > Arizona",https://www.mountainproject.com/route/121900830/mom-packed-my-lunch,3.0,-1,Boulder,V3,1,10,34.23197,-111.26385
"Fix it again Tony","1) Skeletor Area > Middle Elden > Mt. Elden Areas > *Flagstaff Bouldering* > *Northern AZ Bouldering* > Northern Arizona > Arizona",https://www.mountainproject.com/route/121310650/fix-it-again-tony,3.0,-1,Boulder,V3,1,16,35.2296,-111.60399
"Greek Isles","Sky Cave > Skyline Boulders > Mt. Elden Areas > *Flagstaff Bouldering* > *Northern AZ Bouldering* > Northern Arizona > Arizona",https://www.mountainproject.com/route/115412941/greek-isles,3.0,-1,Boulder,V3,1,12,35.2314,-111.60676
"Bullet Proof","5) Bulletproof > Main Drainage > Dragon Eggz > Mt. Elden Areas > *Flagstaff Bouldering* > *Northern AZ Bouldering* > Northern Arizona > Arizona",https://www.mountainproject.com/route/116504759/bullet-proof,3.0,-1,Boulder,V3,1,15,35.23649,-111.61266
Abies,"5) Queen Bee Area > Middle Elden > Mt. Elden Areas > *Flagstaff Bouldering* > *Northern AZ Bouldering* > Northern Arizona > Arizona",https://www.mountainproject.com/route/116069571/abies,3.0,-1,Boulder,V3,1,12,35.23168,-111.60301
"Fast Lap Around the Track","Woodruff > *Northern AZ Bouldering* > Northern Arizona > Arizona",https://www.mountainproject.com/route/116828942/fast-lap-around-the-track,2.0,-1,Boulder,V3,1,,34.74062,-110.01709
"RJG #244","Lonely Boulder > Oak Flat > Queen Creek Canyon > Central Arizona > Arizona",https://www.mountainproject.com/route/120048441/rjg-244,3.0,-1,Boulder,V3,1,12,33.30073,-111.05338
"Back 2 my mission","Easy Party Area > First Gully Boulders > San Francisco Peaks > *Flagstaff Bouldering* > *Northern AZ Bouldering* > Northern Arizona > Arizona",https://www.mountainproject.com/route/115150587/back-2-my-mission,3.0,-1,Boulder,V3,1,15,35.30096,-111.70258
"Dusk in the Desert","Obelisk of the Orient > The Middle East > Stewart Pocket > Central Arizona > Arizona",https://www.mountainproject.com/route/121912460/dusk-in-the-desert,3.0,-1,Boulder,V3,1,7,34.2323,-111.26516
"Rock Lobster","6) Tree Lobster > Middle Elden > Mt. Elden Areas > *Flagstaff Bouldering* > *Northern AZ Bouldering* > Northern Arizona > Arizona",https://www.mountainproject.com/route/120304527/rock-lobster,3.0,-1,Boulder,V3,1,15,35.23193,-111.60341
"Alpha Centauri","Galaxy Wall > Equestrian Area (Closures in Effect) > South Mountain > **Phoenix Areas > Central Arizona > Arizona",https://www.mountainproject.com/route/120292856/alpha-centauri,3.0,-1,Boulder,"V3 PG13",1,,33.33861,-112.01739
"RJG #286","Piranha Flats - West > Oak Flat > Queen Creek Canyon > Central Arizona > Arizona",https://www.mountainproject.com/route/120132487/rjg-286,3.0,-1,Boulder,V3,1,11,33.30186,-111.05599
"Takeshi Wada","Woodruff > *Northern AZ Bouldering* > Northern Arizona > Arizona",https://www.mountainproject.com/route/116828970/takeshi-wada,2.0,-1,Boulder,V3,1,,34.74062,-110.01709
"Chili P","Chili P Boulder > The Wasteland Bouldering > East Stronghold Bouldering > East Stronghold > Cochise Stronghold > Southern Arizona > Arizona",https://www.mountainproject.com/route/120232279/chili-p,3.0,-1,Boulder,V3,1,,31.94376,-109.96778
Hosana,"West Ridge > Dragon Eggz > Mt. Elden Areas > *Flagstaff Bouldering* > *Northern AZ Bouldering* > Northern Arizona > Arizona",https://www.mountainproject.com/route/114808212/hosana,3.0,-1,Boulder,V3,1,20,35.23351,-111.61788
"The Next Generation","Generational Boulder > The Wasteland Bouldering > East Stronghold Bouldering > East Stronghold > Cochise Stronghold > Southern Arizona > Arizona",https://www.mountainproject.com/route/120231666/the-next-generation,3.0,-1,Boulder,V3,1,25,31.94329,-109.96831
Unnamed,"The Warm-Up Wall > East Kelly Canyon > Kelly Canyon > *Flagstaff Bouldering* > *Northern AZ Bouldering* > Northern Arizona > Arizona",https://www.mountainproject.com/route/123109166/unnamed,3.5,-1,Boulder,"V3 R",1,20,35.0655,-111.6959
"RJG #143","Atlantis #1 > Oak Flat > Queen Creek Canyon > Central Arizona > Arizona",https://www.mountainproject.com/route/120221182/rjg-143,3.0,-1,Boulder,V3,1,14,33.3026,-111.05536
"Sad Country Song","Crocodile Rock Area > Euro Dog Valley > Queen Creek Canyon > Central Arizona > Arizona",https://www.mountainproject.com/route/121107558/sad-country-song,3.0,-1,"TR, Boulder",V3,1,10,33.30505,-111.06045
Scrack,"Scrack Area > Gun Gallery > Four Peaks Wilderness > Central Arizona > Arizona",https://www.mountainproject.com/route/121741304/scrack,3.0,-1,Boulder,V3,1,15,33.7126,-111.44861
"RJG #148","Atlantis #1 > Oak Flat > Queen Creek Canyon > Central Arizona > Arizona",https://www.mountainproject.com/route/120221145/rjg-148,3.0,-1,Boulder,V3,1,10,33.3026,-111.05536
"Old Spice","Felch Boulder / Mini Half-Dome > Secret Gully > 5 - Windy Ridge > Mount Lemmon (Catalina Highway) > Mount Lemmon (Santa Catalina Mountains) > Southern Arizona > Arizona",https://www.mountainproject.com/route/113637445/old-spice,3.0,-1,Boulder,V3,1,15,32.38219,-110.69151
"RJG #157","Atlantis #1 > Oak Flat > Queen Creek Canyon > Central Arizona > Arizona",https://www.mountainproject.com/route/120221092/rjg-157,3.0,-1,Boulder,V3,1,14,33.3026,-111.05536
"Tunnel NE","West Elden > Mt. Elden Areas > *Flagstaff Bouldering* > *Northern AZ Bouldering* > Northern Arizona > Arizona",https://www.mountainproject.com/route/113163331/tunnel-ne,3.0,-1,Boulder,V3,1,13,35.25598,-111.62377
"RJG #158","Atlantis #1 > Oak Flat > Queen Creek Canyon > Central Arizona > Arizona",https://www.mountainproject.com/route/120221108/rjg-158,3.0,-1,Boulder,V3,1,14,33.3026,-111.05536
"RJG #140","South Wall > Tinkerbell Wall > Euro Dog Valley > Queen Creek Canyon > Central Arizona > Arizona",https://www.mountainproject.com/route/122073674/rjg-140,3.0,-1,Boulder,V3,1,12,33.30381,-111.06073
Shipwreck,"Shipwreck Boulder > Mormon Trail (Closures in Effect) > South Mountain > **Phoenix Areas > Central Arizona > Arizona",https://www.mountainproject.com/route/111442935/shipwreck,3.0,-1,Boulder,V3,1,13,33.36136,-112.02382
"Unknown, Triple Mantles","Alphabet Boyz Boulder > Linda Vista Bouldering > Linda Vista > Pusch Ridge > Mount Lemmon (Santa Catalina Mountains) > Southern Arizona > Arizona",https://www.mountainproject.com/route/113447618/unknown-triple-mantles,3.0,-1,Boulder,V3,1,22,32.37631,-110.94922
"RJG #234","Mermaid Lagoon > Euro Dog Valley > Queen Creek Canyon > Central Arizona > Arizona",https://www.mountainproject.com/route/122060140/rjg-234,3.0,-1,Boulder,V3,1,15,33.30362,-111.06193
"RJG #222","Mermaid Lagoon > Euro Dog Valley > Queen Creek Canyon > Central Arizona > Arizona",https://www.mountainproject.com/route/122060184/rjg-222,3.0,-1,Boulder,V3,1,12,33.30362,-111.06193
"Chalk Chakra","Alignment Boulder > East Side (Up the Hill) > Antelope Pass > *Northern AZ Bouldering* > Northern Arizona > Arizona",https://www.mountainproject.com/route/112191927/chalk-chakra,3.0,-1,Boulder,V3,1,15,36.65705,-111.63178
"Long Traverse","Lower Boulders > Silverbell Boulders - Closed to all > Tucson Area Bouldering > Southern Arizona > Arizona",https://www.mountainproject.com/route/111649510/long-traverse,3.0,-1,Boulder,V3,1,30,32.39555,-111.14394
"Boxing Glove Boulder","Lower Midgley Wash > *Sedona Bouldering* > *Northern AZ Bouldering* > Northern Arizona > Arizona",https://www.mountainproject.com/route/107220984/boxing-glove-boulder,3.0,-1,Boulder,V3,1,,34.88934,-111.75151
"Crystal Witches","Thor's Chasm > Watson Lake Bouldering > *Prescott Bouldering* > **Prescott Area > Central Arizona > Arizona",https://www.mountainproject.com/route/110475979/crystal-witches,3.0,-1,Boulder,V3,1,25,34.59503,-112.4187
"Pinky Swear","Upper Midgley Wash > *Sedona Bouldering* > *Northern AZ Bouldering* > Northern Arizona > Arizona",https://www.mountainproject.com/route/107220934/pinky-swear,3.0,-1,"TR, Boulder","V3 R",1,25,34.88372,-111.75427
"Ride the Wave","The Block > Lakeview Campground > Lake Mary Areas > *Flagstaff Bouldering* > *Northern AZ Bouldering* > Northern Arizona > Arizona",https://www.mountainproject.com/route/108756935/ride-the-wave,2.5,-1,Boulder,V3,1,12,35.06818,-111.49202
Westright,"Beer Bong Boulder > Icecapades > **Phoenix Areas > Central Arizona > Arizona",https://www.mountainproject.com/route/109077982/westright,3.0,-1,Boulder,V3,1,13,33.7416,-112.17519
"Concho Eliminate","Saddle Boulders > Icecapades > **Phoenix Areas > Central Arizona > Arizona",https://www.mountainproject.com/route/109491435/concho-eliminate,3.0,-1,Boulder,"V3 PG13",1,10,33.74111,-112.17375
"A Clockwork Orange","Clockwork Orange Arete > West Kelly Canyon > Kelly Canyon > *Flagstaff Bouldering* > *Northern AZ Bouldering* > Northern Arizona > Arizona",https://www.mountainproject.com/route/107703459/a-clockwork-orange,3.0,-1,Boulder,V3,1,15,35.05939,-111.71174
"Flying Hummingbird","Beer Bong Boulder > Icecapades > **Phoenix Areas > Central Arizona > Arizona",https://www.mountainproject.com/route/109138312/flying-hummingbird,3.0,-1,Boulder,V3,1,22,33.7416,-112.17519
"Spaceship Stairs","UFO Boulders > Icecapades > **Phoenix Areas > Central Arizona > Arizona",https://www.mountainproject.com/route/109405139/spaceship-stairs,3.0,-1,Boulder,V3,1,13,33.74158,-112.17486
"Back Ally","Joel's House > Icecapades > **Phoenix Areas > Central Arizona > Arizona",https://www.mountainproject.com/route/109717707/back-ally,3.0,-1,Boulder,"V3 PG13",1,18,33.7438,-112.17553
GGC,"GGC boulder. > Turtle Theater > Muh Valley > **Phoenix Areas > Central Arizona > Arizona",https://www.mountainproject.com/route/122687454/ggc,3.0,-1,Boulder,V3,1,12,33.72662,-111.51805
"Pinched Corridor","The Corridor Boulders > Icecapades > **Phoenix Areas > Central Arizona > Arizona",https://www.mountainproject.com/route/109047901/pinched-corridor,3.0,-1,Boulder,V3,1,15,33.74179,-112.17491
"Feet...What Feat?","The Block > Lakeview Campground > Lake Mary Areas > *Flagstaff Bouldering* > *Northern AZ Bouldering* > Northern Arizona > Arizona",https://www.mountainproject.com/route/108757405/feetwhat-feat,2.5,-1,Boulder,V3,1,9,35.06818,-111.49202
"Brown Strain","The Block > Lakeview Campground > Lake Mary Areas > *Flagstaff Bouldering* > *Northern AZ Bouldering* > Northern Arizona > Arizona",https://www.mountainproject.com/route/108757119/brown-strain,2.5,-1,Boulder,V3,1,10,35.06818,-111.49202
"Tea-I-Wanna Toliet","The Block > Lakeview Campground > Lake Mary Areas > *Flagstaff Bouldering* > *Northern AZ Bouldering* > Northern Arizona > Arizona",https://www.mountainproject.com/route/108757274/tea-i-wanna-toliet,2.0,-1,Boulder,V3,1,9,35.06818,-111.49202
"Not Guilty","Eagletail Boulders > Eagletail Mountains > Central Arizona > Arizona",https://www.mountainproject.com/route/108098152/not-guilty,3.0,-1,Boulder,V3,1,10,33.4314,-112.0715
"South Side Mantle","boulder E > Rose Canyon Entrance Boulders > 6 - Mid-Mountain > Mount Lemmon (Catalina Highway) > Mount Lemmon (Santa Catalina Mountains) > Southern Arizona > Arizona",https://www.mountainproject.com/route/106553999/south-side-mantle,3.0,-1,Boulder,V3,1,,32.3973,-110.6911
"Problem B","Zschiesche Boulder > 5 - Windy Ridge > Mount Lemmon (Catalina Highway) > Mount Lemmon (Santa Catalina Mountains) > Southern Arizona > Arizona",https://www.mountainproject.com/route/106570475/problem-b,3.0,-1,Boulder,V3,1,,32.3751,-110.70681
Unhinged,"Fair Oaks Boulders > Outlying  Areas > *Prescott Bouldering* > **Prescott Area > Central Arizona > Arizona",https://www.mountainproject.com/route/106654895/unhinged,3.0,-1,Boulder,V3,1,,34.73284,-112.66631
"Triangle Pinch","South Cluster > Silverbell Boulders - Closed to all > Tucson Area Bouldering > Southern Arizona > Arizona",https://www.mountainproject.com/route/106749779/triangle-pinch,3.0,-1,Boulder,"V3 PG13",1,12,32.3947,-111.14381
Ono,"Boulder G > Rose Canyon Entrance Boulders > 6 - Mid-Mountain > Mount Lemmon (Catalina Highway) > Mount Lemmon (Santa Catalina Mountains) > Southern Arizona > Arizona",https://www.mountainproject.com/route/106553986/ono,3.0,-1,Boulder,V3,1,,32.3973,-110.6911
"Bald Ambition","Ambition Boulder > Peanut Boulders > 2 - Bear Canyon > Mount Lemmon (Catalina Highway) > Mount Lemmon (Santa Catalina Mountains) > Southern Arizona > Arizona",https://www.mountainproject.com/route/106277076/bald-ambition,3.0,-1,Boulder,V3,1,10,32.3783,-110.689
"Burn Notice Sit","Burn Boulder > Peanut Boulders > 2 - Bear Canyon > Mount Lemmon (Catalina Highway) > Mount Lemmon (Santa Catalina Mountains) > Southern Arizona > Arizona",https://www.mountainproject.com/route/106277053/burn-notice-sit,3.0,-1,Boulder,V3,1,8,32.3783,-110.689
"Shootin For Pulleys","Pillar Boulder > The Anvil Boulders > *Sedona Bouldering* > *Northern AZ Bouldering* > Northern Arizona > Arizona",https://www.mountainproject.com/route/109045298/shootin-for-pulleys,2.5,-1,Boulder,V3,1,25,34.87241,-111.75363
F.R.O.W,"Tiger Wall Area > Area 2 > Freidlein Prairie > San Francisco Peaks > *Flagstaff Bouldering* > *Northern AZ Bouldering* > Northern Arizona > Arizona",https://www.mountainproject.com/route/106918105/frow,2.6,-1,Boulder,V3,1,20,35.2976,-111.64939
Equalizer,"Buffalo Park > *Flagstaff Bouldering* > *Northern AZ Bouldering* > Northern Arizona > Arizona",https://www.mountainproject.com/route/106591886/equalizer,2.6,-1,Boulder,V3,1,8,35.2191,-111.6287
"Narrow Path","Ramada Overhangs > Rose Canyon Lake Bouldering > 6 - Mid-Mountain > Mount Lemmon (Catalina Highway) > Mount Lemmon (Santa Catalina Mountains) > Southern Arizona > Arizona",https://www.mountainproject.com/route/120229637/narrow-path,2.9,-1,Boulder,V3,1,,32.39122,-110.70881
"Spiders From Pluto","Outer Space Boulder > Beardsley Bouldering > Beardsley Boulders Area > **Phoenix Areas > Central Arizona > Arizona",https://www.mountainproject.com/route/118700990/spiders-from-pluto,2.8,-1,Boulder,V3,1,6,33.6817,-112.04236
"Easy A Stand","A-Frame > Aspen Trail Boulders > 7 - Upper Highway > Mount Lemmon (Catalina Highway) > Mount Lemmon (Santa Catalina Mountains) > Southern Arizona > Arizona",https://www.mountainproject.com/route/120802708/easy-a-stand,2.8,-1,Boulder,V3,1,10,32.42706,-110.75452
"Don't be a Euro","North Face > Equestrian Area (Closures in Effect) > South Mountain > **Phoenix Areas > Central Arizona > Arizona",https://www.mountainproject.com/route/120286668/dont-be-a-euro,2.8,-1,Boulder,V3,1,,33.34376,-112.01062
"Pink Puff","The BreezeBlocks > *Sedona Bouldering* > *Northern AZ Bouldering* > Northern Arizona > Arizona",https://www.mountainproject.com/route/111491756/pink-puff,2.8,-1,Boulder,V3,1,15,34.87618,-111.72299
"Water Side","Second Area > Grasshopper Point Boulders > *Sedona Bouldering* > *Northern AZ Bouldering* > Northern Arizona > Arizona",https://www.mountainproject.com/route/109117650/water-side,2.8,-1,Boulder,V3,1,15,34.88386,-111.73745
"HCB - Arete","Heart Cave and Surroundings > Gloria's > Mt. Elden Areas > *Flagstaff Bouldering* > *Northern AZ Bouldering* > Northern Arizona > Arizona",https://www.mountainproject.com/route/106585458/hcb-arete,2.8,-1,Boulder,V3,1,12,35.23153,-111.62388
"Puppet Master","Black Wall > Pima Canyon Area > South Mountain > **Phoenix Areas > Central Arizona > Arizona",https://www.mountainproject.com/route/106673515/puppet-master,2.5,-1,Boulder,V3,1,,33.35793,-112.00993
"Tomorrow Never Comes","G. The Booze Pig Wall > A. The Drysdale Trail > Land of High Bouldering aka The Ridge > Lake Mary Areas > *Flagstaff Bouldering* > *Northern AZ Bouldering* > Northern Arizona > Arizona",https://www.mountainproject.com/route/107372199/tomorrow-never-comes,2.1,-1,Boulder,V3,1,15,35.11339,-111.58081
"Exit Stage Right","Basement Wall > Hassayampa Creek > Senator’s Highway Areas- Groom Creek > *Prescott Bouldering* > **Prescott Area > Central Arizona > Arizona",https://www.mountainproject.com/route/107892361/exit-stage-right,2.7,-1,Boulder,V3,1,15,34.4515,-112.4744
"Ninja Parade","Meatwad > Panther Peak > Tucson Area Bouldering > Southern Arizona > Arizona",https://www.mountainproject.com/route/106584096/ninja-parade,2.7,-1,Boulder,V3,1,18,32.3435,-111.1586
"Straight Up","Split Rock Area > Equestrian Area (Closures in Effect) > South Mountain > **Phoenix Areas > Central Arizona > Arizona",https://www.mountainproject.com/route/116757960/straight-up,2.4,-1,Boulder,V3,1,,33.34462,-112.00968
"You're contrived, Profeta!","Coffin Roof > Priest Draw > Priest Draw Area > *Flagstaff Bouldering* > *Northern AZ Bouldering* > Northern Arizona > Arizona",https://www.mountainproject.com/route/107779675/youre-contrived-profeta,2.2,-1,Boulder,V3,1,,35.08098,-111.60413
"Unknown V3","She Lives Roof > Howard Draw > Priest Draw Area > *Flagstaff Bouldering* > *Northern AZ Bouldering* > Northern Arizona > Arizona",https://www.mountainproject.com/route/120892742/unknown-v3,2.5,-1,Boulder,V3,1,8,35.07875,-111.60676
"Main Squeeze","Sunny Perch > Skyline Boulders > Mt. Elden Areas > *Flagstaff Bouldering* > *Northern AZ Bouldering* > Northern Arizona > Arizona",https://www.mountainproject.com/route/115879001/main-squeeze,2.4,-1,Boulder,V3,1,12,35.22798,-111.60874
"JJ eliminate  1","Vista Boulder > 6 - Mid-Mountain > Mount Lemmon (Catalina Highway) > Mount Lemmon (Santa Catalina Mountains) > Southern Arizona > Arizona",https://www.mountainproject.com/route/106545559/jj-eliminate-1,2.5,-1,Boulder,V3,1,8,32.40962,-110.70488
"No Feet Traverse","Gate's Pass > Tucson Area Bouldering > Southern Arizona > Arizona",https://www.mountainproject.com/route/105801188/no-feet-traverse,2.0,-1,Boulder,V3,1,,32.21669,-111.11127
"DJ's Crimps","Davey Jones Locker > Oak Flat > Queen Creek Canyon > Central Arizona > Arizona",https://www.mountainproject.com/route/106959151/djs-crimps,2.3,-1,Boulder,V3,1,15,33.3026,-111.0546
"Main Upper Prow Jug to Right","Gate's Pass > Tucson Area Bouldering > Southern Arizona > Arizona",https://www.mountainproject.com/route/106080583/main-upper-prow-jug-to-right,2.2,-1,Boulder,V3,1,,32.21669,-111.11127
"Two Fingers Straight","G. The Booze Pig Wall > A. The Drysdale Trail > Land of High Bouldering aka The Ridge > Lake Mary Areas > *Flagstaff Bouldering* > *Northern AZ Bouldering* > Northern Arizona > Arizona",https://www.mountainproject.com/route/107393814/two-fingers-straight,2.3,-1,Boulder,V3,1,15,35.11339,-111.58081
Stretch,"Sunny Perch > Skyline Boulders > Mt. Elden Areas > *Flagstaff Bouldering* > *Northern AZ Bouldering* > Northern Arizona > Arizona",https://www.mountainproject.com/route/108687663/stretch,2.3,-1,Boulder,V3,1,15,35.22798,-111.60874
"Stray Kids","Out to Lunge Boulder > Cochise Trail Boulders > Cochise Campground Vicinity Boulders > East Stronghold Bouldering > East Stronghold > Cochise Stronghold > Southern Arizona > Arizona",https://www.mountainproject.com/route/122313920/stray-kids,3.0,-1,Boulder,"V3 R",1,30,31.91905,-109.96485
"Newspaper Arete","Sandbox > Sandbox Area > Redington Pass > Tucson Area Bouldering > Southern Arizona > Arizona",https://www.mountainproject.com/route/122049314/newspaper-arete,2.5,-1,Boulder,V3,1,8,32.25735,-110.65015
Gash,"Anvil Area > Top Area > Area 2 > Freidlein Prairie > San Francisco Peaks > *Flagstaff Bouldering* > *Northern AZ Bouldering* > Northern Arizona > Arizona",https://www.mountainproject.com/route/119539271/gash,2.5,-1,Boulder,V3,1,15,35.2976,-111.64938
"The Tomb","Western Bouldering Area > Camelback Mountain > **Phoenix Areas > Central Arizona > Arizona",https://www.mountainproject.com/route/110612927/the-tomb,2.5,-1,Boulder,V3,1,17,33.52083,-111.97165
"Stones Throw","Across the Creek > Grasshopper Point Boulders > *Sedona Bouldering* > *Northern AZ Bouldering* > Northern Arizona > Arizona",https://www.mountainproject.com/route/118650253/stones-throw,2.3,-1,Boulder,V3,1,15,34.88725,-111.7311
Seamstress,"The Painted Lady > Slavin Gulch > West Stronghold Bouldering > West Stronghold > Cochise Stronghold > Southern Arizona > Arizona",https://www.mountainproject.com/route/116183824/seamstress,2.0,-1,Boulder,V3,1,,31.87672,-110.02736
"Glory Hole (Stand)","West Sanctuary > Tucson Area Bouldering > Southern Arizona > Arizona",https://www.mountainproject.com/route/114094630/glory-hole-stand,2.5,-1,Boulder,V3,1,,32.34923,-111.1653
Illuminatti,"Striped Wall Area > Mormon Trail (Closures in Effect) > South Mountain > **Phoenix Areas > Central Arizona > Arizona",https://www.mountainproject.com/route/116797340/illuminatti,2.5,-1,Boulder,V3,1,,33.36193,-112.02381
"Cover Girl","Crossbones Boulder > Rappel Rock > Summit Bouldering > 8 - Summit Crags > Mount Lemmon (Catalina Highway) > Mount Lemmon (Santa Catalina Mountains) > Southern Arizona > Arizona",https://www.mountainproject.com/route/114981545/cover-girl,2.5,-1,Boulder,V3,1,15,32.43476,-110.79494
"Meat Hook","Atlantis #2 > Oak Flat > Queen Creek Canyon > Central Arizona > Arizona",https://www.mountainproject.com/route/108001347/meat-hook,2.6,-1,Boulder,V3,1,12,33.3023,-111.0561
"No Man's Land","Molino Basin Boulders > 1 -  Lower Highway > Mount Lemmon (Catalina Highway) > Mount Lemmon (Santa Catalina Mountains) > Southern Arizona > Arizona",https://www.mountainproject.com/route/106609300/no-mans-land,2.5,-1,Boulder,"V3 R",1,25,32.32533,-110.7022
"The Fin","Beer Bong Boulder > Icecapades > **Phoenix Areas > Central Arizona > Arizona",https://www.mountainproject.com/route/109405005/the-fin,2.5,-1,Boulder,V3,1,12,33.7416,-112.17519
"Deep Creek","Water Front Area > West Kelly Canyon > Kelly Canyon > *Flagstaff Bouldering* > *Northern AZ Bouldering* > Northern Arizona > Arizona",https://www.mountainproject.com/route/107703357/deep-creek,2.5,-1,Boulder,V3,1,15,35.05838,-111.71687
"Slotted Southside","boulder D > Rose Canyon Entrance Boulders > 6 - Mid-Mountain > Mount Lemmon (Catalina Highway) > Mount Lemmon (Santa Catalina Mountains) > Southern Arizona > Arizona",https://www.mountainproject.com/route/106561801/slotted-southside,2.5,-1,Boulder,V3,1,8,32.3973,-110.6911
"Deku Shield","Sunny Perch > Skyline Boulders > Mt. Elden Areas > *Flagstaff Bouldering* > *Northern AZ Bouldering* > Northern Arizona > Arizona",https://www.mountainproject.com/route/116085107/deku-shield,2.4,-1,Boulder,V3,1,12,35.22798,-111.60874
Catheter,"Public Enema Roof > Equestrian Area (Closures in Effect) > South Mountain > **Phoenix Areas > Central Arizona > Arizona",https://www.mountainproject.com/route/120028215/catheter,2.0,-1,Boulder,V3,1,,33.3438,-112.01244
"Peach Crisp","Sky Cave > Skyline Boulders > Mt. Elden Areas > *Flagstaff Bouldering* > *Northern AZ Bouldering* > Northern Arizona > Arizona",https://www.mountainproject.com/route/115413276/peach-crisp,2.3,-1,Boulder,V3,1,12,35.2314,-111.60676
"The Knob Prob","The Whole World Area > Satellite Areas > Groom Creek > Senator’s Highway Areas- Groom Creek > *Prescott Bouldering* > **Prescott Area > Central Arizona > Arizona",https://www.mountainproject.com/route/108535448/the-knob-prob,2.5,-1,Boulder,V3,1,12,34.46648,-112.44063
"Arête de Palo Verde","UFO Boulders > Icecapades > **Phoenix Areas > Central Arizona > Arizona",https://www.mountainproject.com/route/109237808/arete-de-palo-verde,2.3,-1,Boulder,"V3 PG13",1,18,33.74158,-112.17486
"Splitsville Direct","Splitsville > Equestrian Area (Closures in Effect) > South Mountain > **Phoenix Areas > Central Arizona > Arizona",https://www.mountainproject.com/route/120014198/splitsville-direct,1.9,-1,Boulder,V3,1,,33.34297,-112.01071
"Sunshine Point","The Sunshine Boulder > Beardsley Bouldering > Beardsley Boulders Area > **Phoenix Areas > Central Arizona > Arizona",https://www.mountainproject.com/route/121756671/sunshine-point,2.5,-1,Boulder,V3,1,9,33.67601,-112.04019
"Contorted Lip Traverse","Roof > Hairpin Boulders > 1 -  Lower Highway > Mount Lemmon (Catalina Highway) > Mount Lemmon (Santa Catalina Mountains) > Southern Arizona > Arizona",https://www.mountainproject.com/route/106641869/contorted-lip-traverse,1.9,-1,Boulder,V3,1,,32.31308,-110.74213
"Lost In Space","Split Rock Area > Equestrian Area (Closures in Effect) > South Mountain > **Phoenix Areas > Central Arizona > Arizona",https://www.mountainproject.com/route/116757929/lost-in-space,2.2,-1,Boulder,V3,1,,33.34462,-112.00968
"Lost In Space (var)","Split Rock Area > Equestrian Area (Closures in Effect) > South Mountain > **Phoenix Areas > Central Arizona > Arizona",https://www.mountainproject.com/route/116757946/lost-in-space-var,2.2,-1,Boulder,V3,1,,33.34462,-112.00968
"Direct Rice for Long Men","Ronald's Chasm > Aspen Trail Boulders > 7 - Upper Highway > Mount Lemmon (Catalina Highway) > Mount Lemmon (Santa Catalina Mountains) > Southern Arizona > Arizona",https://www.mountainproject.com/route/112878786/direct-rice-for-long-men,2.2,-1,Boulder,V3,1,20,32.42703,-110.75389
"Two Scoops","World Boulder > Pima Canyon Area > South Mountain > **Phoenix Areas > Central Arizona > Arizona",https://www.mountainproject.com/route/107996915/two-scoops,2.3,-1,Boulder,V3,1,,33.35722,-112.01162
"Hawaiian Punch","Sunny Perch > Skyline Boulders > Mt. Elden Areas > *Flagstaff Bouldering* > *Northern AZ Bouldering* > Northern Arizona > Arizona",https://www.mountainproject.com/route/108687652/hawaiian-punch,2.2,-1,Boulder,V3,1,15,35.22798,-111.60874
"Cruisin For A Bruisin","Quartz Band Boulder > Peanut Boulders > 2 - Bear Canyon > Mount Lemmon (Catalina Highway) > Mount Lemmon (Santa Catalina Mountains) > Southern Arizona > Arizona",https://www.mountainproject.com/route/106269908/cruisin-for-a-bruisin,2.2,-1,Boulder,V3,1,12,32.3783,-110.689
"Gulf of Mosquitos Left","Upper Midgley Wash > *Sedona Bouldering* > *Northern AZ Bouldering* > Northern Arizona > Arizona",https://www.mountainproject.com/route/107220611/gulf-of-mosquitos-left,2.0,-1,Boulder,V3,1,12,34.88372,-111.75427
"Sucka MCs","Lizard Boulders > 5 - Windy Ridge > Mount Lemmon (Catalina Highway) > Mount Lemmon (Santa Catalina Mountains) > Southern Arizona > Arizona",https://www.mountainproject.com/route/106982201/sucka-mcs,2.0,-1,Boulder,V3,1,,32.3751,-110.70681
"Sidepull Slab Variation","Matterhorn Boulder > 5 - Windy Ridge > Mount Lemmon (Catalina Highway) > Mount Lemmon (Santa Catalina Mountains) > Southern Arizona > Arizona",https://www.mountainproject.com/route/106396913/sidepull-slab-variation,1.8,-1,Boulder,"V3 PG13",1,13,32.38276,-110.69378
"Das Boot (Hang Start)","Wiley Thompson Boulder > Beardsley Bouldering > Beardsley Boulders Area > **Phoenix Areas > Central Arizona > Arizona",https://www.mountainproject.com/route/118213375/das-boot-hang-start,2.0,-1,Boulder,V3,1,,33.68197,-112.0423
"Red-Faced Warbler","Warbler Boulder > Entrance Boulders > Wilderness of Rocks > 7 - Upper Highway > Mount Lemmon (Catalina Highway) > Mount Lemmon (Santa Catalina Mountains) > Southern Arizona > Arizona",https://www.mountainproject.com/route/120640345/red-faced-warbler,2.0,-1,"Boulder, Alpine",V3,1,10,32.43281,-110.77507
"Altered States","Split Rock Area > Equestrian Area (Closures in Effect) > South Mountain > **Phoenix Areas > Central Arizona > Arizona",https://www.mountainproject.com/route/116757918/altered-states,2.0,-1,Boulder,V3,1,,33.34462,-112.00968
Kermit,"Sunny Perch > Skyline Boulders > Mt. Elden Areas > *Flagstaff Bouldering* > *Northern AZ Bouldering* > Northern Arizona > Arizona",https://www.mountainproject.com/route/116085125/kermit,1.8,-1,Boulder,V3,1,12,35.22798,-111.60874
"'Yote Toilet","Sunny Perch > Skyline Boulders > Mt. Elden Areas > *Flagstaff Bouldering* > *Northern AZ Bouldering* > Northern Arizona > Arizona",https://www.mountainproject.com/route/116085052/yote-toilet,2.0,-1,Boulder,V3,1,15,35.22798,-111.60874
"El Primero","Midway Boulders > Midway > First Gully Boulders > San Francisco Peaks > *Flagstaff Bouldering* > *Northern AZ Bouldering* > Northern Arizona > Arizona",https://www.mountainproject.com/route/115358614/el-primero,2.0,-1,Boulder,V3,1,15,35.30452,-111.70476
"Endless Summer/Sendless Bummer","Lieback Rock > Main Boulders > Groom Creek > Senator’s Highway Areas- Groom Creek > *Prescott Bouldering* > **Prescott Area > Central Arizona > Arizona",https://www.mountainproject.com/route/110980018/endless-summersendless-bummer,2.0,-1,Boulder,V3,1,,34.46732,-112.43803
"Cantle Lunge","Saddle Boulders > Icecapades > **Phoenix Areas > Central Arizona > Arizona",https://www.mountainproject.com/route/109491421/cantle-lunge,2.0,-1,Boulder,V3,1,20,33.74111,-112.17375
"Dirty Hole","Upper Midgley Wash > *Sedona Bouldering* > *Northern AZ Bouldering* > Northern Arizona > Arizona",https://www.mountainproject.com/route/107220681/dirty-hole,2.0,-1,Boulder,V3,1,16,34.88372,-111.75427
"David's Scoop","The Anchor > F. The Stone Cove > Land of High Bouldering aka The Ridge > Lake Mary Areas > *Flagstaff Bouldering* > *Northern AZ Bouldering* > Northern Arizona > Arizona",https://www.mountainproject.com/route/107075334/davids-scoop,2.0,-1,Boulder,V3,1,12,35.10187,-111.55636
"Running Man","Running Man Boulder > Peanut Boulders > 2 - Bear Canyon > Mount Lemmon (Catalina Highway) > Mount Lemmon (Santa Catalina Mountains) > Southern Arizona > Arizona",https://www.mountainproject.com/route/106270016/running-man,2.0,-1,Boulder,V3,1,10,32.3783,-110.689
"Curious George","Monkey Skull > Panther Peak > Tucson Area Bouldering > Southern Arizona > Arizona",https://www.mountainproject.com/route/106592070/curious-george,2.0,-1,Boulder,V3,1,15,32.3435,-111.1586
CommonWealth,"Crown Boulder > Equestrian Area (Closures in Effect) > South Mountain > **Phoenix Areas > Central Arizona > Arizona",https://www.mountainproject.com/route/119182033/commonwealth,1.8,-1,Boulder,V3,1,,33.34331,-112.01028
Bubbles,"Red Bull and Bananas Boulder > Equestrian Area (Closures in Effect) > South Mountain > **Phoenix Areas > Central Arizona > Arizona",https://www.mountainproject.com/route/118338748/bubbles,2.0,-1,Boulder,V3,1,18,33.34109,-112.01886
Jalapeno,"Jaws Boulder/Pringle Wall > Equestrian Area (Closures in Effect) > South Mountain > **Phoenix Areas > Central Arizona > Arizona",https://www.mountainproject.com/route/119691840/jalapeno,2.0,-1,Boulder,V3,1,,33.34359,-112.01251
"Dog Face","Erratic Shapes > Crozier Canyon > *Northern AZ Bouldering* > Northern Arizona > Arizona",https://www.mountainproject.com/route/114330869/dog-face,2.0,-1,Boulder,V3,1,,35.46104,-113.66876
"Throw Some D's","Creek Boulder > Pima Canyon Area > South Mountain > **Phoenix Areas > Central Arizona > Arizona",https://www.mountainproject.com/route/111863807/throw-some-ds,2.0,-1,Boulder,V3,1,,33.35591,-112.01373
"Route 5","Scrap Metal > Mormon Trail (Closures in Effect) > South Mountain > **Phoenix Areas > Central Arizona > Arizona",https://www.mountainproject.com/route/112039836/route-5,2.0,-1,Boulder,V3,1,10,33.35847,-112.02486
"Footie Pajamas","Sunny Perch > Skyline Boulders > Mt. Elden Areas > *Flagstaff Bouldering* > *Northern AZ Bouldering* > Northern Arizona > Arizona",https://www.mountainproject.com/route/108687643/footie-pajamas,2.0,-1,Boulder,V3,1,12,35.22798,-111.60874
Hairline,"Chossy > Hairpin Boulders > 1 -  Lower Highway > Mount Lemmon (Catalina Highway) > Mount Lemmon (Santa Catalina Mountains) > Southern Arizona > Arizona",https://www.mountainproject.com/route/106618077/hairline,2.0,-1,Boulder,V3,1,,32.31429,-110.7423
"Mocha Chino","Joel's House > Icecapades > **Phoenix Areas > Central Arizona > Arizona",https://www.mountainproject.com/route/109701684/mocha-chino,2.0,-1,Boulder,"V3 PG13",1,13,33.7438,-112.17553
"J Slab Sit","Joel's House > Icecapades > **Phoenix Areas > Central Arizona > Arizona",https://www.mountainproject.com/route/109690051/j-slab-sit,2.0,-1,Boulder,V3,1,12,33.7438,-112.17553
Crabs,"Poor Decisions > Icecapades > **Phoenix Areas > Central Arizona > Arizona",https://www.mountainproject.com/route/109111545/crabs,2.0,-1,Boulder,V3,1,12,33.74009,-112.17517
"Little Fish","Molino Basin Boulders > 1 -  Lower Highway > Mount Lemmon (Catalina Highway) > Mount Lemmon (Santa Catalina Mountains) > Southern Arizona > Arizona",https://www.mountainproject.com/route/106610822/little-fish,2.6,-1,Boulder,V3,1,,32.32533,-110.7022
"Unnamed Seam","Viet Springs > San Francisco Peaks > *Flagstaff Bouldering* > *Northern AZ Bouldering* > Northern Arizona > Arizona",https://www.mountainproject.com/route/107206292/unnamed-seam,2.0,-1,Boulder,V3,1,20,35.30682,-111.71292
"The Nathlete","Tough Landing > Hairpin Boulders > 1 -  Lower Highway > Mount Lemmon (Catalina Highway) > Mount Lemmon (Santa Catalina Mountains) > Southern Arizona > Arizona",https://www.mountainproject.com/route/106650280/the-nathlete,2.0,-1,Boulder,V3,1,,32.31457,-110.74273
Kayak,"boulder A > Rose Canyon Entrance Boulders > 6 - Mid-Mountain > Mount Lemmon (Catalina Highway) > Mount Lemmon (Santa Catalina Mountains) > Southern Arizona > Arizona",https://www.mountainproject.com/route/106545632/kayak,2.0,-1,Boulder,V3,1,10,32.3973,-110.6911
"Left Slab","""END"" Boulder > Gloria's > Mt. Elden Areas > *Flagstaff Bouldering* > *Northern AZ Bouldering* > Northern Arizona > Arizona",https://www.mountainproject.com/route/106586142/left-slab,2.0,-1,Boulder,V3,1,10,35.232,-111.6245
"unknown left side","Vista Boulder > 6 - Mid-Mountain > Mount Lemmon (Catalina Highway) > Mount Lemmon (Santa Catalina Mountains) > Southern Arizona > Arizona",https://www.mountainproject.com/route/106545569/unknown-left-side,2.0,-1,Boulder,V3,1,8,32.40962,-110.70488
"Bear vs Shark","Burn Boulder > Peanut Boulders > 2 - Bear Canyon > Mount Lemmon (Catalina Highway) > Mount Lemmon (Santa Catalina Mountains) > Southern Arizona > Arizona",https://www.mountainproject.com/route/106271007/bear-vs-shark,2.0,-1,Boulder,V3,1,25,32.3783,-110.689
"Breakfast Before Dessert","Middle Section > Granite Mountain > **Prescott Area > Central Arizona > Arizona",https://www.mountainproject.com/route/120123769/breakfast-before-dessert,2.0,-1,"TR, Boulder","5.11 V3",1,20,34.62908,-112.56665
"House Cat Shelf Variation","House Cat > Equestrian Area (Closures in Effect) > South Mountain > **Phoenix Areas > Central Arizona > Arizona",https://www.mountainproject.com/route/119212390/house-cat-shelf-variation,2.0,-1,Boulder,V3,1,,33.33694,-112.02068
"Diamondback gulch bluff","Dry Creek > *Sedona Bouldering* > *Northern AZ Bouldering* > Northern Arizona > Arizona",https://www.mountainproject.com/route/118350863/diamondback-gulch-bluff,3.0,-1,Boulder,V3,1,12,34.84251,-111.87961
"Seeing Red","The Amphitheatre > Pima Canyon Area > South Mountain > **Phoenix Areas > Central Arizona > Arizona",https://www.mountainproject.com/route/118757858/seeing-red,2.0,-1,Boulder,V3,1,9,33.35623,-112.01248
Declawed,"Cat Claw > Equestrian Area (Closures in Effect) > South Mountain > **Phoenix Areas > Central Arizona > Arizona",https://www.mountainproject.com/route/120396749/declawed,2.3,-1,Boulder,V3,1,,33.34147,-112.01523
"Sammy sosa","Salome > Central Arizona > Arizona",https://www.mountainproject.com/route/120036866/sammy-sosa,2.0,-1,Boulder,V3,1,7,33.8488,-113.68882
"Leige Lord","Sandbox > Sandbox Area > Redington Pass > Tucson Area Bouldering > Southern Arizona > Arizona",https://www.mountainproject.com/route/122049325/leige-lord,2.0,-1,Boulder,V3,1,10,32.25735,-110.65015
"Against The Grain (TR)","Little Abner Boulder > Equestrian Area (Closures in Effect) > South Mountain > **Phoenix Areas > Central Arizona > Arizona",https://www.mountainproject.com/route/116797446/against-the-grain-tr,2.0,-1,Boulder,V3,1,,33.3454,-112.00976
Besote,"Lindita > Loma Linda > 7 - Upper Highway > Mount Lemmon (Catalina Highway) > Mount Lemmon (Santa Catalina Mountains) > Southern Arizona > Arizona",https://www.mountainproject.com/route/117719122/besote,2.0,-1,Boulder,V3,1,8,32.43911,-110.75227
"Old School Slab","1) Skeletor Area > Middle Elden > Mt. Elden Areas > *Flagstaff Bouldering* > *Northern AZ Bouldering* > Northern Arizona > Arizona",https://www.mountainproject.com/route/121310169/old-school-slab,2.0,-1,Boulder,V3,1,15,35.2296,-111.60399
"Lemon Press","Lemon Press Boulder > The Wasteland Bouldering > East Stronghold Bouldering > East Stronghold > Cochise Stronghold > Southern Arizona > Arizona",https://www.mountainproject.com/route/120231370/lemon-press,2.0,-1,Boulder,V3,1,20,31.94615,-109.96399
MudStache,"2) Broken Symmetry > Middle Elden > Mt. Elden Areas > *Flagstaff Bouldering* > *Northern AZ Bouldering* > Northern Arizona > Arizona",https://www.mountainproject.com/route/121795307/mudstache,2.0,-1,Boulder,V3,1,10,35.23114,-111.60319
"Operation Ground & Pound","4) Dragonforce > Main Drainage > Dragon Eggz > Mt. Elden Areas > *Flagstaff Bouldering* > *Northern AZ Bouldering* > Northern Arizona > Arizona",https://www.mountainproject.com/route/115412766/operation-ground-pound,2.0,-1,Boulder,V3,1,15,35.23633,-111.61271
"Heaven's Shelter (Sit Start)","The Heaven Boulder > Brown's Parking Lot Boulders > **Phoenix Areas > Central Arizona > Arizona",https://www.mountainproject.com/route/122509735/heavens-shelter-sit-start,3.0,-1,Boulder,V3,1,10,33.75936,-111.84457
"Chockstone Crack","Barracuda Boulders > Euro Dog Valley > Queen Creek Canyon > Central Arizona > Arizona",https://www.mountainproject.com/route/122059398/chockstone-crack,2.0,-1,Boulder,V3,1,9,33.30471,-111.05973
"The Yuuuuuge Traverse","Brush Monkey Boulders > Copper Basin / Thumb Butte Loop > *Prescott Bouldering* > **Prescott Area > Central Arizona > Arizona",https://www.mountainproject.com/route/114617401/the-yuuuuuge-traverse,2.0,-1,Boulder,V3,1,15,34.48828,-112.55576
"Orange Peel","5) Queen Bee Area > Middle Elden > Mt. Elden Areas > *Flagstaff Bouldering* > *Northern AZ Bouldering* > Northern Arizona > Arizona",https://www.mountainproject.com/route/121287067/orange-peel,2.0,-1,Boulder,V3,1,15,35.23168,-111.60301
"Grass Roots","Striped Wall Area > Mormon Trail (Closures in Effect) > South Mountain > **Phoenix Areas > Central Arizona > Arizona",https://www.mountainproject.com/route/116797350/grass-roots,2.0,-1,Boulder,V3,1,,33.36193,-112.02381
"Trail Slab (Blankness)","Dominatrix Crack Boulder > Cochise Trail Boulders > Cochise Campground Vicinity Boulders > East Stronghold Bouldering > East Stronghold > Cochise Stronghold > Southern Arizona > Arizona",https://www.mountainproject.com/route/120709139/trail-slab-blankness,2.0,-1,Boulder,V3,1,14,31.91883,-109.96462
"The Looking glass","Salome > Central Arizona > Arizona",https://www.mountainproject.com/route/120298638/the-looking-glass,2.0,-1,Boulder,V3,1,10,33.8488,-113.68882
"RJG #247","Piranha Flats - East > Oak Flat > Queen Creek Canyon > Central Arizona > Arizona",https://www.mountainproject.com/route/120194066/rjg-247,2.0,-1,Boulder,V3,1,10,33.30167,-111.05566
"RJG #280","Piranha Flats - East > Oak Flat > Queen Creek Canyon > Central Arizona > Arizona",https://www.mountainproject.com/route/120194145/rjg-280,2.0,-1,Boulder,V3,1,10,33.30167,-111.05566
"East Face","Quartzite Spring Boulder > Rappel Rock > Summit Bouldering > 8 - Summit Crags > Mount Lemmon (Catalina Highway) > Mount Lemmon (Santa Catalina Mountains) > Southern Arizona > Arizona",https://www.mountainproject.com/route/114981342/east-face,2.0,-1,Boulder,V3,1,15,32.43544,-110.79488
"Free love","Hippy Boulders > Stewart Pocket > Central Arizona > Arizona",https://www.mountainproject.com/route/122262873/free-love,2.0,-1,Boulder,V3,1,12,34.22235,-111.26139
"Garlic Knot","Pizza Hut Boulder > Gilly Monsters > East Stronghold Bouldering > East Stronghold > Cochise Stronghold > Southern Arizona > Arizona",https://www.mountainproject.com/route/120282875/garlic-knot,2.0,-1,Boulder,V3,1,10,31.92613,-109.96843
"RJG #149","Atlantis #1 > Oak Flat > Queen Creek Canyon > Central Arizona > Arizona",https://www.mountainproject.com/route/120221156/rjg-149,2.0,-1,Boulder,V3,1,10,33.3026,-111.05536
"East Face","Crossbones Boulder > Rappel Rock > Summit Bouldering > 8 - Summit Crags > Mount Lemmon (Catalina Highway) > Mount Lemmon (Santa Catalina Mountains) > Southern Arizona > Arizona",https://www.mountainproject.com/route/114981848/east-face,2.0,-1,Boulder,V3,1,18,32.43476,-110.79494
"The Casket","Casket Boulder > The Wasteland Bouldering > East Stronghold Bouldering > East Stronghold > Cochise Stronghold > Southern Arizona > Arizona",https://www.mountainproject.com/route/120233285/the-casket,2.0,-1,Boulder,V3,1,15,31.94223,-109.96856
"Big Girtha","Double Barrel Boulders > Gun Gallery > Four Peaks Wilderness > Central Arizona > Arizona",https://www.mountainproject.com/route/121805014/big-girtha,2.0,-1,Boulder,V3,1,10,33.7124,-111.45159
"RJG #255","Scatterbrain Boulder > Euro Dog Valley > Queen Creek Canyon > Central Arizona > Arizona",https://www.mountainproject.com/route/122060049/rjg-255,2.0,-1,Boulder,V3,1,12,33.30299,-111.06149
"The Seal","Seal Boulder > Secret Gully > 5 - Windy Ridge > Mount Lemmon (Catalina Highway) > Mount Lemmon (Santa Catalina Mountains) > Southern Arizona > Arizona",https://www.mountainproject.com/route/121162611/the-seal,2.0,-1,Boulder,V3,1,10,32.38221,-110.69184
"RJG #285","Cattleguard Boulders > Euro Dog Valley > Queen Creek Canyon > Central Arizona > Arizona",https://www.mountainproject.com/route/122220110/rjg-285,2.0,-1,Boulder,V3,1,12,33.30223,-111.06064
"Commador 64","Beer Bong Boulder > Icecapades > **Phoenix Areas > Central Arizona > Arizona",https://www.mountainproject.com/route/109077993/commador-64,2.0,-1,Boulder,V3,1,14,33.7416,-112.17519
"RJG #288","Cattleguard Boulders > Euro Dog Valley > Queen Creek Canyon > Central Arizona > Arizona",https://www.mountainproject.com/route/122057448/rjg-288,2.0,-1,Boulder,V3,1,9,33.30223,-111.06064
"RJG #238","The Titanic > Euro Dog Valley > Queen Creek Canyon > Central Arizona > Arizona",https://www.mountainproject.com/route/122060078/rjg-238,2.0,-1,Boulder,V3,1,9,33.30314,-111.06184
"RJG #142","South Wall > Tinkerbell Wall > Euro Dog Valley > Queen Creek Canyon > Central Arizona > Arizona",https://www.mountainproject.com/route/122073692/rjg-142,2.0,-1,Boulder,V3,1,12,33.30381,-111.06073
"RJG #137","South Wall > Tinkerbell Wall > Euro Dog Valley > Queen Creek Canyon > Central Arizona > Arizona",https://www.mountainproject.com/route/122073634/rjg-137,2.0,-1,Boulder,V3,1,11,33.30381,-111.06073
"RJG #138","South Wall > Tinkerbell Wall > Euro Dog Valley > Queen Creek Canyon > Central Arizona > Arizona",https://www.mountainproject.com/route/122073642/rjg-138,2.0,-1,Boulder,V3,1,12,33.30381,-111.06073
"RJG # 236","Mermaid Lagoon > Euro Dog Valley > Queen Creek Canyon > Central Arizona > Arizona",https://www.mountainproject.com/route/122060159/rjg-236,2.0,-1,Boulder,V3,1,15,33.30362,-111.06193
"RJG #229","Mermaid Lagoon > Euro Dog Valley > Queen Creek Canyon > Central Arizona > Arizona",https://www.mountainproject.com/route/122060110/rjg-229,2.0,-1,Boulder,V3,1,10,33.30362,-111.06193
"The Razor's Edge","Lower Midgley Wash > *Sedona Bouldering* > *Northern AZ Bouldering* > Northern Arizona > Arizona",https://www.mountainproject.com/route/107220970/the-razors-edge,2.0,-1,Boulder,V3,1,8,34.88934,-111.75151
"RJG #252","Scatterbrain Boulder > Euro Dog Valley > Queen Creek Canyon > Central Arizona > Arizona",https://www.mountainproject.com/route/122211790/rjg-252,2.0,-1,Boulder,V3,1,8,33.30299,-111.06149
"RJG #298","Cattleguard Boulders > Euro Dog Valley > Queen Creek Canyon > Central Arizona > Arizona",https://www.mountainproject.com/route/122059978/rjg-298,2.0,-1,Boulder,V3,1,10,33.30223,-111.06064
"RJG #254","Scatterbrain Boulder > Euro Dog Valley > Queen Creek Canyon > Central Arizona > Arizona",https://www.mountainproject.com/route/122211800/rjg-254,2.0,-1,Boulder,V3,1,8,33.30299,-111.06149
Projected,"World Boulder > Pima Canyon Area > South Mountain > **Phoenix Areas > Central Arizona > Arizona",https://www.mountainproject.com/route/107996931/projected,1.7,-1,Boulder,V3,1,,33.35722,-112.01162
"Prison break","Salome > Central Arizona > Arizona",https://www.mountainproject.com/route/108107183/prison-break,2.0,-1,"TR, Boulder","5.10 V3",1,25,33.8488,-113.68882
"Last Unclimbed Boulder","The High Island > Satellite Areas > Groom Creek > Senator’s Highway Areas- Groom Creek > *Prescott Bouldering* > **Prescott Area > Central Arizona > Arizona",https://www.mountainproject.com/route/107903773/last-unclimbed-boulder,3.0,-1,"Trad, Boulder",V3,1,20,34.46367,-112.43887
Serpentine,"Fire Road Rocks > Satellite Areas > Groom Creek > Senator’s Highway Areas- Groom Creek > *Prescott Bouldering* > **Prescott Area > Central Arizona > Arizona",https://www.mountainproject.com/route/123098623/serpentine,2.0,-1,Boulder,V3,1,18,34.469,-112.44091
"Route 6","Scrap Metal > Mormon Trail (Closures in Effect) > South Mountain > **Phoenix Areas > Central Arizona > Arizona",https://www.mountainproject.com/route/112053717/route-6,2.0,-1,Boulder,V3,1,,33.35847,-112.02486
Submarine,"Shipwreck Boulder > Mormon Trail (Closures in Effect) > South Mountain > **Phoenix Areas > Central Arizona > Arizona",https://www.mountainproject.com/route/111442960/submarine,2.0,-1,Boulder,V3,1,14,33.36136,-112.02382
"Body Count","The Whole World Area > Satellite Areas > Groom Creek > Senator’s Highway Areas- Groom Creek > *Prescott Bouldering* > **Prescott Area > Central Arizona > Arizona",https://www.mountainproject.com/route/108534182/body-count,2.0,-1,Boulder,V3,1,8,34.46648,-112.44063
"End Bulge","""END"" Boulder > Gloria's > Mt. Elden Areas > *Flagstaff Bouldering* > *Northern AZ Bouldering* > Northern Arizona > Arizona",https://www.mountainproject.com/route/106098773/end-bulge,1.7,-1,Boulder,V3,1,12,35.232,-111.6245
"Lava Bomb","The Balls > *Northern AZ Bouldering* > Northern Arizona > Arizona",https://www.mountainproject.com/route/106592071/lava-bomb,2.0,-1,Boulder,"V3 PG13",1,15,35.60961,-111.53066
Beerlip,"Beer Bong Boulder > Icecapades > **Phoenix Areas > Central Arizona > Arizona",https://www.mountainproject.com/route/109221215/beerlip,2.0,-1,Boulder,"V3 R",1,35,33.7416,-112.17519
"Tiny Visitors","UFO Boulders > Icecapades > **Phoenix Areas > Central Arizona > Arizona",https://www.mountainproject.com/route/109255859/tiny-visitors,2.0,-1,Boulder,V3,1,8,33.74158,-112.17486
"Caked up","Eagles Perch > Muh Valley > **Phoenix Areas > Central Arizona > Arizona",https://www.mountainproject.com/route/122687316/caked-up,2.0,-1,Boulder,V3,1,10,33.72548,-111.51939
"Red Kelly","Red Kelly Wall > West Kelly Canyon > Kelly Canyon > *Flagstaff Bouldering* > *Northern AZ Bouldering* > Northern Arizona > Arizona",https://www.mountainproject.com/route/107703521/red-kelly,2.0,-1,Boulder,V3,1,18,35.06143,-111.71089
"High Lonesome Sound","RRMFP Complex > The Sanctuary > Tucson Area Bouldering > Southern Arizona > Arizona",https://www.mountainproject.com/route/107557656/high-lonesome-sound,2.0,-1,Boulder,V3,1,18,32.3497,-111.149
"Gospel Moment","B. Unsung Wall > Land of High Bouldering aka The Ridge > Lake Mary Areas > *Flagstaff Bouldering* > *Northern AZ Bouldering* > Northern Arizona > Arizona",https://www.mountainproject.com/route/107017723/gospel-moment,2.0,-1,Boulder,"V3 PG13",1,25,35.11084,-111.57696
"Right Arete","Boulder C > Rose Canyon Entrance Boulders > 6 - Mid-Mountain > Mount Lemmon (Catalina Highway) > Mount Lemmon (Santa Catalina Mountains) > Southern Arizona > Arizona",https://www.mountainproject.com/route/106549660/right-arete,2.0,-1,Boulder,V3,1,12,32.3973,-110.6911
"Sharp Traverse","Sharp Boulder > Silverbell Boulders - Closed to all > Tucson Area Bouldering > Southern Arizona > Arizona",https://www.mountainproject.com/route/106664024/sharp-traverse,2.0,-1,Boulder,V3,1,15,32.3954,-111.1428
"Sharp Toss","Sharp Boulder > Silverbell Boulders - Closed to all > Tucson Area Bouldering > Southern Arizona > Arizona",https://www.mountainproject.com/route/106664005/sharp-toss,2.0,-1,Boulder,V3,1,12,32.3954,-111.1428
Pyrrhuloxia,"Meatwad > Panther Peak > Tucson Area Bouldering > Southern Arizona > Arizona",https://www.mountainproject.com/route/106601017/pyrrhuloxia,2.0,-1,Boulder,V3,1,18,32.3435,-111.1586
"The Sound of One Hand Slapping","Eminence Boulder > Peanut Boulders > 2 - Bear Canyon > Mount Lemmon (Catalina Highway) > Mount Lemmon (Santa Catalina Mountains) > Southern Arizona > Arizona",https://www.mountainproject.com/route/106269984/the-sound-of-one-hand-slapping,2.0,-1,Boulder,V3,1,,32.3783,-110.689
"Crystal Meth","Swamp Boulder > Secret Gully > 5 - Windy Ridge > Mount Lemmon (Catalina Highway) > Mount Lemmon (Santa Catalina Mountains) > Southern Arizona > Arizona",https://www.mountainproject.com/route/123345614/crystal-meth,2.0,-1,Boulder,V3,1,12,32.38181,-110.69125
Dogleg,"The Dog's Head > Western Front > West Stronghold Bouldering > West Stronghold > Cochise Stronghold > Southern Arizona > Arizona",https://www.mountainproject.com/route/123360003/dogleg,2.0,-1,Boulder,V3,1,,31.89741,-110.03797
Write-Off,"The Takeoff Boulder > Beardsley Bouldering > Beardsley Boulders Area > **Phoenix Areas > Central Arizona > Arizona",https://www.mountainproject.com/route/123393092/write-off,2.0,-1,Boulder,V3,1,,33.67708,-112.04222
"The Moonboard Right","Molino Basin Boulders > 1 -  Lower Highway > Mount Lemmon (Catalina Highway) > Mount Lemmon (Santa Catalina Mountains) > Southern Arizona > Arizona",https://www.mountainproject.com/route/123512129/the-moonboard-right,2.0,-1,Boulder,V3,1,15,32.32533,-110.7022
Tycho,"Moon Roof > Priest Draw > Priest Draw Area > *Flagstaff Bouldering* > *Northern AZ Bouldering* > Northern Arizona > Arizona",https://www.mountainproject.com/route/114400026/tycho,1.8,-1,Boulder,V3,1,15,35.07963,-111.61653
"Sh*t Stain","Upper Midgley Wash > *Sedona Bouldering* > *Northern AZ Bouldering* > Northern Arizona > Arizona",https://www.mountainproject.com/route/107220677/sht-stain,2.0,-1,Boulder,V3,1,18,34.88372,-111.75427
"The Broken Helm","The Longboat > Equestrian Area (Closures in Effect) > South Mountain > **Phoenix Areas > Central Arizona > Arizona",https://www.mountainproject.com/route/119647863/the-broken-helm,1.7,-1,Boulder,V3,1,10,33.34298,-112.01109
"Witches and Warlocks","Molino Basin Boulders > 1 -  Lower Highway > Mount Lemmon (Catalina Highway) > Mount Lemmon (Santa Catalina Mountains) > Southern Arizona > Arizona",https://www.mountainproject.com/route/107971717/witches-and-warlocks,1.7,-1,Boulder,V3,1,,32.32533,-110.7022
"Crimp Slab","Warm-up > Oak Flat > Queen Creek Canyon > Central Arizona > Arizona",https://www.mountainproject.com/route/106960067/crimp-slab,1.8,-1,Boulder,V3,1,15,33.3022,-111.0532
"Half on a Sack","Luniz Boulder > Equestrian Area (Closures in Effect) > South Mountain > **Phoenix Areas > Central Arizona > Arizona",https://www.mountainproject.com/route/120120168/half-on-a-sack,1.6,-1,Boulder,V3,1,,33.33636,-112.02422
"Man in the Black Pajamas","The Assassin's Cradle > Aspen Trail Boulders > 7 - Upper Highway > Mount Lemmon (Catalina Highway) > Mount Lemmon (Santa Catalina Mountains) > Southern Arizona > Arizona",https://www.mountainproject.com/route/108872628/man-in-the-black-pajamas,1.7,-1,Boulder,V3,1,,32.42705,-110.75406
"Thanks for The Mammaries","The High Island > Satellite Areas > Groom Creek > Senator’s Highway Areas- Groom Creek > *Prescott Bouldering* > **Prescott Area > Central Arizona > Arizona",https://www.mountainproject.com/route/110720037/thanks-for-the-mammaries,1.5,-1,Boulder,V3,1,10,34.46367,-112.43887
Toehook,"Wolf Creek, 384 Boulders > Wolf Creek > Senator’s Highway Areas- Groom Creek > *Prescott Bouldering* > **Prescott Area > Central Arizona > Arizona",https://www.mountainproject.com/route/110763175/toehook,1.5,-1,Boulder,V3,1,9,34.45252,-112.44748
Seamstress,"Wolf Creek, 384 Boulders > Wolf Creek > Senator’s Highway Areas- Groom Creek > *Prescott Bouldering* > **Prescott Area > Central Arizona > Arizona",https://www.mountainproject.com/route/110763144/seamstress,1.5,-1,Boulder,V3,1,8,34.45252,-112.44748
"The Herp","Poor Decisions > Icecapades > **Phoenix Areas > Central Arizona > Arizona",https://www.mountainproject.com/route/109111455/the-herp,1.5,-1,Boulder,V3,1,10,33.74009,-112.17517
"Future Foe Scenario","Molino Basin Boulders > 1 -  Lower Highway > Mount Lemmon (Catalina Highway) > Mount Lemmon (Santa Catalina Mountains) > Southern Arizona > Arizona",https://www.mountainproject.com/route/106939880/future-foe-scenario,1.5,-1,Boulder,V3,1,,32.32533,-110.7022
Deleterious,"BMMFP Boulder > The Sanctuary > Tucson Area Bouldering > Southern Arizona > Arizona",https://www.mountainproject.com/route/107557756/deleterious,1.5,-1,Boulder,V3,1,10,32.35386,-111.04328
(2),"River Boulder > Aspen Trail Boulders > 7 - Upper Highway > Mount Lemmon (Catalina Highway) > Mount Lemmon (Santa Catalina Mountains) > Southern Arizona > Arizona",https://www.mountainproject.com/route/106544934/2,1.1,-1,Boulder,V3,1,20,32.42705,-110.75445
Afterbite,"Rattlesnake Boulder > Beardsley Bouldering > Beardsley Boulders Area > **Phoenix Areas > Central Arizona > Arizona",https://www.mountainproject.com/route/118702602/afterbite,1.4,-1,Boulder,V3,1,6,33.68199,-112.04256
"Snooze You Lose","RRMFP Complex > The Sanctuary > Tucson Area Bouldering > Southern Arizona > Arizona",https://www.mountainproject.com/route/107567633/snooze-you-lose,1.0,-1,Boulder,V3,1,10,32.3497,-111.149
"(2) V2","Weeping Wall > Cataract Boulders > 2 - Bear Canyon > Mount Lemmon (Catalina Highway) > Mount Lemmon (Santa Catalina Mountains) > Southern Arizona > Arizona",https://www.mountainproject.com/route/106544164/2-v2,1.3,-1,Boulder,V3,1,12,32.3606,-110.7195
"Hello Dolly","Sandbox > Sandbox Area > Redington Pass > Tucson Area Bouldering > Southern Arizona > Arizona",https://www.mountainproject.com/route/122049308/hello-dolly,2.0,-1,Boulder,V3,1,10,32.25735,-110.65015
"20 Jump Street","The Sunshine Boulder > Beardsley Bouldering > Beardsley Boulders Area > **Phoenix Areas > Central Arizona > Arizona",https://www.mountainproject.com/route/121756745/20-jump-street,1.0,-1,Boulder,V3,1,8,33.67601,-112.04019
"Acceptable Loss","Warpaint > Equestrian Area (Closures in Effect) > South Mountain > **Phoenix Areas > Central Arizona > Arizona",https://www.mountainproject.com/route/120307211/acceptable-loss,1.0,-1,Boulder,V3,1,,33.34207,-112.01716
"""California V6""","Buttcrack Boulder > Equestrian Area (Closures in Effect) > South Mountain > **Phoenix Areas > Central Arizona > Arizona",https://www.mountainproject.com/route/120293049/california-v6,1.0,-1,Boulder,V3,1,,33.34176,-112.02184
Shorty,"Woodruff > *Northern AZ Bouldering* > Northern Arizona > Arizona",https://www.mountainproject.com/route/116829124/shorty,1.0,-1,Boulder,V3,1,,34.74062,-110.01709
"Big L","Big L > Equestrian Area (Closures in Effect) > South Mountain > **Phoenix Areas > Central Arizona > Arizona",https://www.mountainproject.com/route/120277557/big-l,1.0,-1,Boulder,V3,1,,33.34384,-112.01409
Triangle,"Triangle boulder > Gun Gallery > Four Peaks Wilderness > Central Arizona > Arizona",https://www.mountainproject.com/route/118814949/triangle,1.0,-1,Boulder,V3,1,8,33.71184,-111.45086
"RJG #195","Atlantis #2 > Oak Flat > Queen Creek Canyon > Central Arizona > Arizona",https://www.mountainproject.com/route/122082556/rjg-195,2.5,-1,Boulder,V3,1,12,33.3023,-111.0561
"Big L Right","Big L > Equestrian Area (Closures in Effect) > South Mountain > **Phoenix Areas > Central Arizona > Arizona",https://www.mountainproject.com/route/120277552/big-l-right,1.0,-1,Boulder,V3,1,,33.34384,-112.01409
"Hell Smash","Hell Smash > Gilly Monsters > East Stronghold Bouldering > East Stronghold > Cochise Stronghold > Southern Arizona > Arizona",https://www.mountainproject.com/route/120699923/hell-smash,1.5,-1,Boulder,V3,1,6,31.92628,-109.96861
"finger crack","Rowe well Road cluster > Rowe well Road and Bright Angel Wash > Grand Canyon Bouldering > *Northern AZ Bouldering* > Northern Arizona > Arizona",https://www.mountainproject.com/route/111720100/finger-crack,1.0,-1,Boulder,V3,1,7,36.03257,-112.17479
"Life Like Weeds","Tiny Cities Boulder > Linda Vista Bouldering > Linda Vista > Pusch Ridge > Mount Lemmon (Santa Catalina Mountains) > Southern Arizona > Arizona",https://www.mountainproject.com/route/113497438/life-like-weeds,1.0,-1,Boulder,V3,1,,32.37572,-110.94972
"Who's on First?","Lost World > Copper Basin / Thumb Butte Loop > *Prescott Bouldering* > **Prescott Area > Central Arizona > Arizona",https://www.mountainproject.com/route/110812450/whos-on-first,1.0,-1,Boulder,V3,1,10,34.53796,-112.55684
Matamoros,"Swamp Boulder > Secret Gully > 5 - Windy Ridge > Mount Lemmon (Catalina Highway) > Mount Lemmon (Santa Catalina Mountains) > Southern Arizona > Arizona",https://www.mountainproject.com/route/123321768/matamoros,1.0,-1,Boulder,V3,1,12,32.38181,-110.69125
(5),"Weeping Wall > Cataract Boulders > 2 - Bear Canyon > Mount Lemmon (Catalina Highway) > Mount Lemmon (Santa Catalina Mountains) > Southern Arizona > Arizona",https://www.mountainproject.com/route/106544192/5,1.0,-1,Boulder,V3,1,12,32.3606,-110.7195
"Snake Bite","Rattlesnake Boulder > Beardsley Bouldering > Beardsley Boulders Area > **Phoenix Areas > Central Arizona > Arizona",https://www.mountainproject.com/route/118702528/snake-bite,1.8,-1,Boulder,V3,1,6,33.68199,-112.04256
"Plan C","Frontier Boulder > Frontier Bouldering Area > Beardsley Bouldering > Beardsley Boulders Area > **Phoenix Areas > Central Arizona > Arizona",https://www.mountainproject.com/route/123551375/plan-c,2.0,-1,Boulder,V3,1,14,33.68084,-112.048
"Soft Rail","Frontier Boulder > Frontier Bouldering Area > Beardsley Bouldering > Beardsley Boulders Area > **Phoenix Areas > Central Arizona > Arizona",https://www.mountainproject.com/route/123551405/soft-rail,2.0,-1,Boulder,"V3 PG13",1,16,33.68084,-112.048
"Cheesy Gordita Crunch","Taco Knight > Wild Burro Trail > Tortolita Mountains > Southern Arizona > Arizona",https://www.mountainproject.com/route/123585447/cheesy-gordita-crunch,2.0,-1,"Boulder, Alpine",V3,1,10,32.49092,-111.07084
"Wave Rider (traverse)","Wave Crack Boulder > Frontier Bouldering Area > Beardsley Bouldering > Beardsley Boulders Area > **Phoenix Areas > Central Arizona > Arizona",https://www.mountainproject.com/route/123592766/wave-rider-traverse,2.5,-1,Boulder,"V3 PG13",1,30,33.68263,-112.0477
Keyhole,"The Fortress > Superstition Mountains > **Phoenix Areas > Central Arizona > Arizona",https://www.mountainproject.com/route/123680124/keyhole,3.3,-1,Boulder,"V3 R",1,,33.40915,-111.35184
"Every Hobo Wears a Crown of Thorns","Walnut Creek > Lake Mary Areas > *Flagstaff Bouldering* > *Northern AZ Bouldering* > Northern Arizona > Arizona",https://www.mountainproject.com/route/123812109/every-hobo-wears-a-crown-of-thorns,2.0,-1,Boulder,V3,1,15,35.11439,-111.58814
"39. Mobs are Easy","Ortho Wall > D. The PT (Pain and Torture) Walls > Land of High Bouldering aka The Ridge > Lake Mary Areas > *Flagstaff Bouldering* > *Northern AZ Bouldering* > Northern Arizona > Arizona",https://www.mountainproject.com/route/123822057/39-mobs-are-easy,3.0,-1,Boulder,V3,1,20,35.10453,-111.56214
"44. Floating Away on an Otolithic Membrane","The Neuro Wall > D. The PT (Pain and Torture) Walls > Land of High Bouldering aka The Ridge > Lake Mary Areas > *Flagstaff Bouldering* > *Northern AZ Bouldering* > Northern Arizona > Arizona",https://www.mountainproject.com/route/123823928/44-floating-away-on-an-otolithic-membrane,3.5,-1,Boulder,V3,1,20,35.1047,-111.56244
"43. The Flying Utricle","The Neuro Wall > D. The PT (Pain and Torture) Walls > Land of High Bouldering aka The Ridge > Lake Mary Areas > *Flagstaff Bouldering* > *Northern AZ Bouldering* > Northern Arizona > Arizona",https://www.mountainproject.com/route/123823971/43-the-flying-utricle,3.0,-1,Boulder,V3,1,20,35.1047,-111.56244
Bulge,"Laser Wall > Oak Flat > Queen Creek Canyon > Central Arizona > Arizona",https://www.mountainproject.com/route/123953888/bulge,3.0,-1,Boulder,V3,1,,33.3015,-111.05133
"Urinary tract","Bingham Land > Oak Flat > Queen Creek Canyon > Central Arizona > Arizona",https://www.mountainproject.com/route/123971771/urinary-tract,4.0,-1,Boulder,V3,1,15,33.29944,-111.04426
"Nomenclators Block","North Bluff > Frontier Ridge > Frontier Bouldering Area > Beardsley Bouldering > Beardsley Boulders Area > **Phoenix Areas > Central Arizona > Arizona",https://www.mountainproject.com/route/123943763/nomenclators-block,2.0,-1,Boulder,"V3 R",1,12,33.681,-112.04822
"A Climb Between Two Others","North Bluff > Frontier Ridge > Frontier Bouldering Area > Beardsley Bouldering > Beardsley Boulders Area > **Phoenix Areas > Central Arizona > Arizona",https://www.mountainproject.com/route/123943782/a-climb-between-two-others,2.0,-1,Boulder,V3,1,10,33.681,-112.04822
"Warrior Bee","The Hive > Lime Stone Gulch Bouldering > Lime Stone Gulch > San Francisco River > Clifton/Morenci > Southern Arizona > Arizona",https://www.mountainproject.com/route/124090806/warrior-bee,2.0,-1,Boulder,V3,1,9,33.07814,-109.28511
"Drowned in Tears","Front-Ear Drop Boulder > Frontier Ridge > Frontier Bouldering Area > Beardsley Bouldering > Beardsley Boulders Area > **Phoenix Areas > Central Arizona > Arizona",https://www.mountainproject.com/route/124093968/drowned-in-tears,3.0,-1,Boulder,"V3 PG13",1,12,33.68108,-112.04778
"Joe Camel","Nail up Rock > Main Boulders > Groom Creek > Senator’s Highway Areas- Groom Creek > *Prescott Bouldering* > **Prescott Area > Central Arizona > Arizona",https://www.mountainproject.com/route/124173850/joe-camel,1.0,-1,Boulder,V3,1,15,34.46737,-112.43869
"Unnamed V3","The Island > Howard Draw > Priest Draw Area > *Flagstaff Bouldering* > *Northern AZ Bouldering* > Northern Arizona > Arizona",https://www.mountainproject.com/route/124313676/unnamed-v3,3.0,-1,Boulder,V3,1,,35.08101,-111.605
"Gym Rat","Free Willy/Lazer Cut Boulder > The Anvil Boulders > *Sedona Bouldering* > *Northern AZ Bouldering* > Northern Arizona > Arizona",https://www.mountainproject.com/route/124433135/gym-rat,3.0,-1,Boulder,"V3 PG13",1,,34.87282,-111.75338
"Members Only","The Beta Boulders > Sinclair Wash > *Flagstaff Bouldering* > *Northern AZ Bouldering* > Northern Arizona > Arizona",https://www.mountainproject.com/route/124648527/members-only,3.0,-1,Boulder,V3,1,12,35.1876,-111.63669
"Edge of Darkness","G. End of the Line > Land of High Bouldering aka The Ridge > Lake Mary Areas > *Flagstaff Bouldering* > *Northern AZ Bouldering* > Northern Arizona > Arizona",https://www.mountainproject.com/route/124754214/edge-of-darkness,3.0,-1,Boulder,V3,1,15,35.09806,-111.54769
"Everybody Knows","G. End of the Line > Land of High Bouldering aka The Ridge > Lake Mary Areas > *Flagstaff Bouldering* > *Northern AZ Bouldering* > Northern Arizona > Arizona",https://www.mountainproject.com/route/124754363/everybody-knows,3.0,-1,Boulder,V3,1,12,35.09806,-111.54769
"Zen Mechanism","G. End of the Line > Land of High Bouldering aka The Ridge > Lake Mary Areas > *Flagstaff Bouldering* > *Northern AZ Bouldering* > Northern Arizona > Arizona",https://www.mountainproject.com/route/124754646/zen-mechanism,3.0,-1,Boulder,V3,1,12,35.09806,-111.54769
"Final Destination","G. End of the Line > Land of High Bouldering aka The Ridge > Lake Mary Areas > *Flagstaff Bouldering* > *Northern AZ Bouldering* > Northern Arizona > Arizona",https://www.mountainproject.com/route/124755015/final-destination,3.5,-1,Boulder,V3,1,14,35.09806,-111.54769
"End of the Line","G. End of the Line > Land of High Bouldering aka The Ridge > Lake Mary Areas > *Flagstaff Bouldering* > *Northern AZ Bouldering* > Northern Arizona > Arizona",https://www.mountainproject.com/route/124755396/end-of-the-line,3.0,-1,Boulder,V3,1,15,35.09806,-111.54769
"Mr. Valet","Parking Fun Boulder > The e-Boulders > Beardsley Bouldering > Beardsley Boulders Area > **Phoenix Areas > Central Arizona > Arizona",https://www.mountainproject.com/route/124770106/mr-valet,2.0,-1,Boulder,V3,1,,33.67639,-112.04018
"Lemon Lavender Lane","Celestial Seasons > Deep Space Nine > Summit Bouldering > 8 - Summit Crags > Mount Lemmon (Catalina Highway) > Mount Lemmon (Santa Catalina Mountains) > Southern Arizona > Arizona",https://www.mountainproject.com/route/124265076/lemon-lavender-lane,2.0,-1,"Boulder, Alpine",V3,1,12,32.4282,-110.79803
"Road chill","Guardrail > Campground Area Boulders > Campground and Walk of Nature Loop Boulders > Cochise Campground Vicinity Boulders > East Stronghold Bouldering > East Stronghold > Cochise Stronghold > Southern Arizona > Arizona",https://www.mountainproject.com/route/125145906/road-chill,2.0,-1,Boulder,V3,1,23,31.92367,-109.96751
"The 12th √ of 2","The Triad > The Mage Bank > Margaritaville > Summit Bouldering > 8 - Summit Crags > Mount Lemmon (Catalina Highway) > Mount Lemmon (Santa Catalina Mountains) > Southern Arizona > Arizona",https://www.mountainproject.com/route/125214343/the-12th-of-2,3.5,-1,"Boulder, Alpine",V3,1,12,32.42444,-110.80518
"Pushup Lizard","Flat Top > Cochise Trail Boulders > Cochise Campground Vicinity Boulders > East Stronghold Bouldering > East Stronghold > Cochise Stronghold > Southern Arizona > Arizona",https://www.mountainproject.com/route/125237870/pushup-lizard,2.0,-1,Boulder,V3,1,15,31.91961,-109.96506
"Octopus Crack","Octopus’s Garden > Beardsley Bouldering > Beardsley Boulders Area > **Phoenix Areas > Central Arizona > Arizona",https://www.mountainproject.com/route/125247679/octopus-crack,3.5,-1,"TR, Boulder","V3 R",1,18,33.67654,-112.04076
"Washing Machine Warm up","Sven Slab > McDowell Mountains > **Phoenix Areas > Central Arizona > Arizona",https://www.mountainproject.com/route/125401848/washing-machine-warm-up,4.0,-1,Boulder,V3,1,15,33.69218,-111.79527
"Dress to Impress","Ladies Locker Room > Oak Flat > Queen Creek Canyon > Central Arizona > Arizona",https://www.mountainproject.com/route/125610639/dress-to-impress,2.5,-1,Boulder,V3,1,,33.30252,-111.05445
"No Shoes No Service","Shay's Lounge > Slavin Gulch Wash > Slavin Gulch > West Stronghold Bouldering > West Stronghold > Cochise Stronghold > Southern Arizona > Arizona",https://www.mountainproject.com/route/125731238/no-shoes-no-service,2.5,-1,Boulder,V3,1,10,31.88981,-110.01182
Dynamo,"Supercrack and The Corridor > Flora Street > In-Town Bouldering > *Prescott Bouldering* > **Prescott Area > Central Arizona > Arizona",https://www.mountainproject.com/route/125794886/dynamo,3.0,-1,Boulder,V3,1,15,34.56706,-112.48811
