Route,Location,URL,"Avg Stars","Your Stars","Route Type",Rating,Pitches,Length,"Area Latitude","Area Longitude"
"Montana Beef","Cattle Pond > Homestake Pass > Southwest Region > Montana",https://www.mountainproject.com/route/112354968/montana-beef,4.0,-1,Boulder,V11,1,,45.91589,-112.36259
Decapitated,"Hidden Boulder > Hidden Area > Whiskey Proper > Whiskey Gulch > Southwest Region > Montana",https://www.mountainproject.com/route/119909870/decapitated,4.0,-1,Boulder,V11,1,15,45.8834,-112.30768
"Vanilla Gorilla","High Output Boulder > Gigarete Area > Locomotive Boulders > Yankee Jim > Paradise Valley > Southwest Region > Montana",https://www.mountainproject.com/route/111780999/vanilla-gorilla,3.5,-1,Boulder,V11,1,,45.16956,-110.87096
"Rabbit Hole","Unorganized Boulders > Locomotive Boulders > Yankee Jim > Paradise Valley > Southwest Region > Montana",https://www.mountainproject.com/route/111797143/rabbit-hole,3.7,-1,Boulder,V11,1,,45.16952,-110.86985
"Harmony as a Super Saiyan","Gigarete Boulder > Gigarete Area > Locomotive Boulders > Yankee Jim > Paradise Valley > Southwest Region > Montana",https://www.mountainproject.com/route/111781095/harmony-as-a-super-saiyan,2.5,-1,Boulder,V11,1,,45.16954,-110.87113
