Route,Location,URL,"Avg Stars","Your Stars","Route Type",Rating,Pitches,Length,"Area Latitude","Area Longitude"
"Suzie A","Suzie A Boulders > Trapps Bouldering > The Gunks > New York",https://www.mountainproject.com/route/106529647/suzie-a,3.2,-1,Boulder,V1,1,13,41.737,-74.1882
"Clune Crank","Keyhole Cliff area > Trapps Bouldering > The Gunks > New York",https://www.mountainproject.com/route/106510911/clune-crank,2.8,-1,Boulder,V1,1,10,41.7364,-74.1909
"Blasted Rock","Boxcar Area > Trapps Bouldering > The Gunks > New York",https://www.mountainproject.com/route/106522645/blasted-rock,2.5,-1,Boulder,V1,1,10,41.7475,-74.1756
"High Electricity","High Electricity boulder > Swath Boulders > * Powerlinez Bouldering > Powerlinez > New York",https://www.mountainproject.com/route/113561372/high-electricity,3.1,-1,Boulder,V1,1,20,41.14485,-74.16404
"Consciousness of Self","SPF Boulder > Peterskill Bouldering > The Gunks > New York",https://www.mountainproject.com/route/113255860/consciousness-of-self,3.3,-1,Boulder,V1,1,,41.7389,-74.21422
"Wave Crack","Geoff's Boulder > Fourth Set > Mckenzie Pond Boulders > K: Northern Region > Adirondacks > New York",https://www.mountainproject.com/route/118845907/wave-crack,4.0,-1,Boulder,V1,1,15,44.30837,-74.09681
"Damn Fine Coffee","The Double R Diner > Cookie's Crag > New York",https://www.mountainproject.com/route/121251768/damn-fine-coffee,4.0,-1,Boulder,V1,1,60,41.52575,-73.79247
"Norma's Cherry Pie Traverse","The Double R Diner > Cookie's Crag > New York",https://www.mountainproject.com/route/121251739/normas-cherry-pie-traverse,4.0,-1,Boulder,V1,1,60,41.52575,-73.79247
"Warm Up","Evolution Boulder > Moby Area > Ice Pond > New York",https://www.mountainproject.com/route/109488164/warm-up,3.5,-1,Boulder,"V1 PG13",1,19,41.4556,-73.61632
Looker,"Front Boulder > First Set > Mckenzie Pond Boulders > K: Northern Region > Adirondacks > New York",https://www.mountainproject.com/route/107550102/looker,3.0,-1,Boulder,V1,1,,44.30493,-74.09382
"Jimmy Up!","Freefall / Fringe > Boulder Road > * Powerlinez Bouldering > Powerlinez > New York",https://www.mountainproject.com/route/113562866/jimmy-up,3.3,-1,Boulder,V1,1,,41.14449,-74.16667
"Outbreak Roof","Quarantine Area & Outbreak Boulder > Peterskill Bouldering > The Gunks > New York",https://www.mountainproject.com/route/107877103/outbreak-roof,2.3,-1,Boulder,V1,1,10,41.73937,-74.21526
"South West Overhang Direct","Southern Boulder > Split Rock > Long Island > New York",https://www.mountainproject.com/route/116104466/south-west-overhang-direct,3.3,-1,Boulder,V1,1,15,40.95748,-72.86253
"Rivership Down","Artpark Boulder > Artpark > New York",https://www.mountainproject.com/route/120254280/rivership-down,3.5,-1,Boulder,V1,1,6,43.15894,-79.04349
Andrugen,"Lookout > Middle Earth > Nine Corner Lake > H: Southern Mountains > Adirondacks > New York",https://www.mountainproject.com/route/106402219/andrugen,2.5,-1,Boulder,V1,1,10,43.2044,-74.5323
"Sideways Drifter","Worthless Boulder > Central Park > New York City > New York",https://www.mountainproject.com/route/114490357/sideways-drifter,2.4,-1,Boulder,V1,1,,40.7983,-73.9547
"Fire Escape","Khadejha Area > Peterskill Bouldering > The Gunks > New York",https://www.mountainproject.com/route/107877157/fire-escape,2.7,-1,Boulder,V1,1,15,41.73893,-74.22026
"Naked Convulsions","Pebbles Boulders > Trapps Bouldering > The Gunks > New York",https://www.mountainproject.com/route/106560722/naked-convulsions,3.0,-1,Boulder,V1,1,7,41.7375,-74.1872
"Makaia's Problem","Makaia > First Set > Mckenzie Pond Boulders > K: Northern Region > Adirondacks > New York",https://www.mountainproject.com/route/107550163/makaias-problem,2.1,-1,Boulder,V1,1,,44.30837,-74.09682
Layback,"North Face > Rat Rock > Central Park > New York City > New York",https://www.mountainproject.com/route/112331963/layback,2.0,-1,Boulder,V1,1,,40.76919,-73.97759
"Captain's Corner","Rock City State Forest > New York",https://www.mountainproject.com/route/121130173/captains-corner,3.0,-1,Boulder,V1,1,15,42.2084,-78.7083
TRex,"Split Rock > Central Park > New York City > New York",https://www.mountainproject.com/route/119032008/trex,2.6,-1,Boulder,V1,1,6,40.77639,-73.96881
"Shark Fin Flake","Cliffs Minor > First Overlook > Grand Lake Reserve > New York",https://www.mountainproject.com/route/119217993/shark-fin-flake,3.0,-1,Boulder,V1,1,14,44.32988,-75.7342
Curveball,"The Bowling Alley > Grand Lake Reserve > New York",https://www.mountainproject.com/route/120424354/curveball,3.0,-1,Boulder,V1,1,18,44.33087,-75.73727
"Deer Hunter","Ambush Boulder > Fourth Set > Mckenzie Pond Boulders > K: Northern Region > Adirondacks > New York",https://www.mountainproject.com/route/118855025/deer-hunter,3.0,-1,Boulder,V1,1,12,44.30837,-74.09682
"M60 (stand)","Ambush Boulder > Fourth Set > Mckenzie Pond Boulders > K: Northern Region > Adirondacks > New York",https://www.mountainproject.com/route/118854931/m60-stand,3.0,-1,Boulder,V1,1,12,44.30837,-74.09682
"Right Where I Wanted It","The In Between > Grand Lake Reserve > New York",https://www.mountainproject.com/route/120400973/right-where-i-wanted-it,3.0,-1,Boulder,V1,1,18,44.33048,-75.73285
"Moloch: A New Hope (Pt. 1)","Moloch Boulder > The Bear Caves > New York",https://www.mountainproject.com/route/112506240/moloch-a-new-hope-pt-1,3.0,-1,Boulder,V1,1,15,42.02387,-78.79383
"West Crack","High Ball Boulder > Split Rock > Long Island > New York",https://www.mountainproject.com/route/112521326/west-crack,2.8,-1,Boulder,V1,1,20,40.95778,-72.86244
"QAPF Diagram","The Witches' Circle > New York",https://www.mountainproject.com/route/122559160/qapf-diagram,3.0,-1,Boulder,V1,1,13,42.47073,-75.07421
"The Hunter Exam","Newbie > Chapel Pond Bouldering > B: Chapel Pond Pass > Adirondacks > New York",https://www.mountainproject.com/route/122922792/the-hunter-exam,3.0,-1,Boulder,V1,1,10,44.13599,-73.74231
"One Finger Crystal","Beached Boulder > Wildwood State Park > Long Island > New York",https://www.mountainproject.com/route/118860268/one-finger-crystal,2.5,-1,Boulder,V1,1,11,40.96657,-72.78839
"Don't Forget Chris","Rainy Day > Central Park > New York City > New York",https://www.mountainproject.com/route/119819400/dont-forget-chris,2.3,-1,Boulder,V1,1,,40.77928,-73.97333
Neighbors,"Roadside wall > Inwood Hill Park > New York City > New York",https://www.mountainproject.com/route/120193689/neighbors,3.0,-1,Boulder,V1,1,12,40.87428,-73.92349
"Rostrum Arete","Moby Rising > Boulderwoods > Crane Mountain > G: Indian Lake Region > Adirondacks > New York",https://www.mountainproject.com/route/117516543/rostrum-arete,3.0,-1,Boulder,V1,1,,43.5378,-73.9677
Isoptera,"Termite Boulder > Gull Pond > F: Lake George Region > Adirondacks > New York",https://www.mountainproject.com/route/119532257/isoptera,3.0,-1,Boulder,V1,1,16,43.83282,-73.7061
"Ecstatic Erratic","Rich Lake Boulder > Rich Lake > G: Indian Lake Region > Adirondacks > New York",https://www.mountainproject.com/route/114581663/ecstatic-erratic,3.0,-1,Boulder,V1,1,13,43.9757,-74.19036
"The Jeweler","Mossy Falls Boulder > Central Roundabout > Westchester Wilderness Walk/Zofnass Family Preserve > New York",https://www.mountainproject.com/route/118967837/the-jeweler,3.0,-1,Boulder,"V1 R",1,20,41.18545,-73.59253
"On the Rocks (Stand)","The Witches' Circle > New York",https://www.mountainproject.com/route/120588902/on-the-rocks-stand,3.0,-1,Boulder,V1,1,8,42.47073,-75.07421
"Thin Lizzy","Oliver Leavitt > New York",https://www.mountainproject.com/route/119547238/thin-lizzy,2.5,-1,Boulder,V1,1,18,44.28076,-75.62726
"Log Lady","Owl Cave > Cookie's Crag > New York",https://www.mountainproject.com/route/121249723/log-lady,3.0,-1,Boulder,V1,1,15,41.52595,-73.79197
"Tectonic Fissure","Pluto > Fourth Set > Mckenzie Pond Boulders > K: Northern Region > Adirondacks > New York",https://www.mountainproject.com/route/118845838/tectonic-fissure,3.0,-1,Boulder,V1,1,8,44.30837,-74.09681
"Ungenio Gonzalez","El Condorito Wall > Far East > Glenmeal > New York",https://www.mountainproject.com/route/114549863/ungenio-gonzalez,3.0,-1,Boulder,V1,1,10,44.52321,-75.0123
"Bear Spine","Welcome Boulder > The Bear Caves > New York",https://www.mountainproject.com/route/111820323/bear-spine,3.0,-1,Boulder,V1,1,12,42.0087,-78.79443
"Chalk, Please","Traverse boulder > The Bear Caves > New York",https://www.mountainproject.com/route/111740110/chalk-please,3.0,-1,Boulder,V1,1,12,42.00886,-78.79464
"Hammock of Valor","Valor > Hilltop Drive > Valleyland > E: High Peaks Region > Adirondacks > New York",https://www.mountainproject.com/route/111802364/hammock-of-valor,3.0,-1,Boulder,V1,1,,44.18682,-73.82287
"Onions Have Layers","Funkytown Pyramid > The Bear Caves > New York",https://www.mountainproject.com/route/123135117/onions-have-layers,2.5,-1,Boulder,V1,1,,42.00863,-78.79433
"Otters Are Always Plotting","Table Rock > New York",https://www.mountainproject.com/route/122948626/otters-are-always-plotting,3.0,-1,Boulder,V1,1,10,42.45585,-75.07973
"Hole in One","Toilet Bowl Rock > Above the Narrows > Moss Island Bouldering > Little Falls > New York",https://www.mountainproject.com/route/123499286/hole-in-one,3.0,-1,Boulder,V1,1,10,43.03965,-74.84686
Monorail,"Boxcar Area > Trapps Bouldering > The Gunks > New York",https://www.mountainproject.com/route/106522682/monorail,2.3,-1,Boulder,V1,1,12,41.7475,-74.1756
Godzilla,"Godzilla Boulder > Rock Dojo > * Powerlinez Bouldering > Powerlinez > New York",https://www.mountainproject.com/route/116165075/godzilla,2.7,-1,Boulder,V1,1,,41.14477,-74.16769
"Squash the Slug","Worthless Boulder > Central Park > New York City > New York",https://www.mountainproject.com/route/108085186/squash-the-slug,2.1,-1,Boulder,V1,1,10,40.7983,-73.9547
"Rock Star","Terrace Area > Trapps Bouldering > The Gunks > New York",https://www.mountainproject.com/route/115682170/rock-star,2.3,-1,Boulder,V1,1,15,41.73661,-74.19282
"Thinking Man Slot","Godzilla Boulder > Rock Dojo > * Powerlinez Bouldering > Powerlinez > New York",https://www.mountainproject.com/route/116165060/thinking-man-slot,2.6,-1,Boulder,V1,1,,41.14477,-74.16769
"Where You Fall, Direct","North Face > Rat Rock > Central Park > New York City > New York",https://www.mountainproject.com/route/113286748/where-you-fall-direct,2.0,-1,Boulder,V1,1,10,40.76919,-73.97759
"Middle Traverse","Doug's Roof > Trapps Bouldering > The Gunks > New York",https://www.mountainproject.com/route/106528074/middle-traverse,2.4,-1,Boulder,V1,1,25,41.7369,-74.1892
Lollipop,"Second Set Boulder > Second Set > Mckenzie Pond Boulders > K: Northern Region > Adirondacks > New York",https://www.mountainproject.com/route/107550232/lollipop,2.1,-1,Boulder,V1,1,,44.30837,-74.09682
"Stained Boulder Problem","Steel Bridge Boulders > Trapps Bouldering > The Gunks > New York",https://www.mountainproject.com/route/106516211/stained-boulder-problem,1.6,-1,Boulder,V1,1,8,41.7368,-74.194
"Tarzan Swing Right","Tarzan Swing > Welcome Boulders > * Powerlinez Bouldering > Powerlinez > New York",https://www.mountainproject.com/route/113574565/tarzan-swing-right,2.2,-1,Boulder,V1,1,,41.14487,-74.16231
"No Place Like Home","North Shore Boulder > Central Park > New York City > New York",https://www.mountainproject.com/route/119479526/no-place-like-home,2.5,-1,Boulder,V1,1,6,40.77592,-73.97137
"Left of Waterfall","The Witches' Circle > New York",https://www.mountainproject.com/route/117384819/left-of-waterfall,2.5,-1,Boulder,V1,1,12,42.47073,-75.07421
"The People's Crossing","Cop Cot Rock > Central Park > New York City > New York",https://www.mountainproject.com/route/119047113/the-peoples-crossing,2.3,-1,Boulder,V1,1,120,40.76657,-73.97623
"Around the Rock House","Rock City State Forest > New York",https://www.mountainproject.com/route/109027708/around-the-rock-house,2.5,-1,Boulder,V1,1,16,42.2084,-78.7083
"Average Joe","The Witches' Circle > New York",https://www.mountainproject.com/route/117384829/average-joe,2.5,-1,Boulder,V1,1,10,42.47073,-75.07421
"The Kicker!","Whetstone Wall > Swath Boulders > * Powerlinez Bouldering > Powerlinez > New York",https://www.mountainproject.com/route/122408271/the-kicker,2.0,-1,Boulder,V1,1,,41.14481,-74.16419
"Buddha Belly Warmup Right","Table Rock > New York",https://www.mountainproject.com/route/118734537/buddha-belly-warmup-right,2.5,-1,Boulder,V1,1,8,42.45585,-75.07973
"Roosevelt's Flake","Swampy Boulder > Roosevelt Farm Drive > Hyde Park Boulders > New York",https://www.mountainproject.com/route/107800129/roosevelts-flake,2.5,-1,Boulder,V1,1,12,41.7929,-73.932
Rooked,"Chess Rock > Central Park > New York City > New York",https://www.mountainproject.com/route/116771352/rooked,2.1,-1,Boulder,V1,1,10,40.7689,-73.9748
"Upper Section Warm Up","Warm Up Wall > Mercury Area > Ice Pond > New York",https://www.mountainproject.com/route/110826867/upper-section-warm-up,1.9,-1,Boulder,V1,1,12,41.45428,-73.61922
"More Than Meets the Eye","Optimus Prime Boulder > The Meadows > Nine Corner Lake > H: Southern Mountains > Adirondacks > New York",https://www.mountainproject.com/route/106502935/more-than-meets-the-eye,2.3,-1,Boulder,V1,1,,43.19439,-74.54234
"La Quarantena","Pinebank Rocks > Central Park > New York City > New York",https://www.mountainproject.com/route/118692182/la-quarantena,2.5,-1,Boulder,V1,1,25,40.76949,-73.97906
"Full Metal Jacket","Ambush Boulder > Fourth Set > Mckenzie Pond Boulders > K: Northern Region > Adirondacks > New York",https://www.mountainproject.com/route/118855170/full-metal-jacket,2.3,-1,Boulder,V1,1,8,44.30837,-74.09682
"South East Arete","Lower Wawarsing Boulder > Wawarsing Parking Lot Boulders > Trapps Bouldering > The Gunks > New York",https://www.mountainproject.com/route/106552395/south-east-arete,2.3,-1,Boulder,V1,1,10,41.736,-74.1851
Slice,"Front Boulder > First Set > Mckenzie Pond Boulders > K: Northern Region > Adirondacks > New York",https://www.mountainproject.com/route/107550033/slice,1.7,-1,Boulder,V1,1,,44.30493,-74.09382
"The Conductor","Boxcar Area > Trapps Bouldering > The Gunks > New York",https://www.mountainproject.com/route/106522668/the-conductor,1.8,-1,Boulder,V1,1,10,41.7475,-74.1756
"Good Morning","Lookout > Middle Earth > Nine Corner Lake > H: Southern Mountains > Adirondacks > New York",https://www.mountainproject.com/route/114297168/good-morning,2.0,-1,Boulder,V1,1,,43.2044,-74.5323
"Larsen's Problem","Keyhole Cliff area > Trapps Bouldering > The Gunks > New York",https://www.mountainproject.com/route/106671208/larsens-problem,2.0,-1,Boulder,V1,1,,41.7364,-74.1909
Cooker,"Front Boulder > First Set > Mckenzie Pond Boulders > K: Northern Region > Adirondacks > New York",https://www.mountainproject.com/route/107550118/cooker,1.8,-1,Boulder,V1,1,,44.30493,-74.09382
"Root Canal","Tooth Rock > Central Park > New York City > New York",https://www.mountainproject.com/route/112777829/root-canal,1.9,-1,Boulder,V1,1,,40.76749,-73.97357
"Funky Overhanging Traverse","Life is Beautiful Boulder > Fort Tryon Park > New York City > New York",https://www.mountainproject.com/route/110382236/funky-overhanging-traverse,2.2,-1,Boulder,V1,1,,40.86287,-73.93324
"Somewhere Over The Rainbow","North Shore Boulder > Central Park > New York City > New York",https://www.mountainproject.com/route/118692235/somewhere-over-the-rainbow,2.0,-1,Boulder,V1,1,10,40.77592,-73.97137
"La Roca","Rock City State Forest > New York",https://www.mountainproject.com/route/112926515/la-roca,2.0,-1,Boulder,V1,1,20,42.2084,-78.7083
"Split Peas","Split Rock > Central Park > New York City > New York",https://www.mountainproject.com/route/111958251/split-peas,1.7,-1,Boulder,V1,1,,40.77639,-73.96881
Hmnn,"Andrew Area > Trapps Bouldering > The Gunks > New York",https://www.mountainproject.com/route/106632067/hmnn,1.7,-1,Boulder,V1,1,15,41.74324,-74.17965
"Flex Traverse","Unsorted Boulders To Be Placed In Their Appropriate Subareas > Ice Pond > New York",https://www.mountainproject.com/route/120617768/flex-traverse,2.0,-1,Boulder,V1,1,10,41.4542,-73.61917
"True Snake","Fake Snakes Boulder > Diesel and Ice Cube Area > Ice Pond > New York",https://www.mountainproject.com/route/120642676/true-snake,2.0,-1,Boulder,V1,1,12,41.45111,-73.62149
"High Traverse","North Face > Rat Rock > Central Park > New York City > New York",https://www.mountainproject.com/route/112331939/high-traverse,1.7,-1,Boulder,V1,1,,40.76919,-73.97759
"Taco Tuesday","Kings Park Bluff Boulder > Long Island > New York",https://www.mountainproject.com/route/121893143/taco-tuesday,2.0,-1,Boulder,V1,1,,40.90317,-73.23602
"Little Bit Of That","Dorson's Rock > New York",https://www.mountainproject.com/route/118573454/little-bit-of-that,2.0,-1,Boulder,V1,1,,42.42855,-73.56969
Audience,"High Bridge Park > New York City > New York",https://www.mountainproject.com/route/116499300/audience,2.0,-1,Boulder,V1,1,,40.83732,-73.9358
Jitters,"The Witches' Circle > New York",https://www.mountainproject.com/route/117350863/jitters,2.0,-1,Boulder,V1,1,10,42.47073,-75.07421
"Senor Scruffy Face","Lookout > Middle Earth > Nine Corner Lake > H: Southern Mountains > Adirondacks > New York",https://www.mountainproject.com/route/116757697/senor-scruffy-face,2.3,-1,Boulder,V1,1,15,43.2044,-74.5323
"Honey Roasted Pistachio","Boomerang Boulder > The Boondocks > Grand Lake Reserve > New York",https://www.mountainproject.com/route/122281438/honey-roasted-pistachio,2.0,-1,Boulder,V1,1,11,44.33563,-75.73124
"Beeners and Weeners","Fairyland Wall > Grand Lake Reserve > New York",https://www.mountainproject.com/route/120424440/beeners-and-weeners,2.3,-1,Boulder,V1,1,10,44.33155,-75.73617
Embolism,"Tombstone Boulder > Swath Boulders > * Powerlinez Bouldering > Powerlinez > New York",https://www.mountainproject.com/route/113561450/embolism,2.0,-1,Boulder,V1,1,,41.1448,-74.16447
"Houston, We Have A Problem","Apollo > Hilltop Drive > Valleyland > E: High Peaks Region > Adirondacks > New York",https://www.mountainproject.com/route/111802474/houston-we-have-a-problem,2.0,-1,Boulder,V1,1,,44.1885,-73.82223
"Hairpin Turn","Warwarsing Boulder > Wawarsing Parking Lot Boulders > Trapps Bouldering > The Gunks > New York",https://www.mountainproject.com/route/106553014/hairpin-turn,2.0,-1,Boulder,V1,1,8,41.7364,-74.1848
"Rumble Strip","Warwarsing Boulder > Wawarsing Parking Lot Boulders > Trapps Bouldering > The Gunks > New York",https://www.mountainproject.com/route/106553002/rumble-strip,2.0,-1,Boulder,V1,1,10,41.7364,-74.1848
"Body Brush","Belly Button Boyz Boulder > The Boondocks > Grand Lake Reserve > New York",https://www.mountainproject.com/route/123240587/body-brush,2.0,-1,Boulder,V1,1,12,44.33479,-75.73096
"Dark Hammo","Arch Rock > Central Park > New York City > New York",https://www.mountainproject.com/route/122882445/dark-hammo,1.5,-1,Boulder,V1,1,11,40.77839,-73.97134
"It Is Wet","Main Wall > Clark Reservation State Park > New York",https://www.mountainproject.com/route/116686824/it-is-wet,2.0,-1,Boulder,V1,1,12,42.99565,-76.09534
"Classic Dog","Green Lakes State Park > New York",https://www.mountainproject.com/route/120489319/classic-dog,2.0,-1,Boulder,V1,1,8,43.0388,-75.97993
Serpentine,"Snake Rock > The Blockhouse > Central Park > New York City > New York",https://www.mountainproject.com/route/120449462/serpentine,1.5,-1,Boulder,V1,1,,40.79875,-73.95629
Silt,"Green Lakes State Park > New York",https://www.mountainproject.com/route/120490105/silt,2.0,-1,Boulder,V1,1,,43.0388,-75.97993
"Earth Birth","Main Wall > Clark Reservation State Park > New York",https://www.mountainproject.com/route/120719084/earth-birth,2.0,-1,Boulder,V1,1,,42.99565,-76.09534
"Kitty Scratches","Kitten's Paw Boulder > Blue Mountain Park > New York",https://www.mountainproject.com/route/122557644/kitty-scratches,2.0,-1,Boulder,V1,1,10,41.25958,-73.90928
"Dr. Wormhat","Bike Trail Boulder > New York",https://www.mountainproject.com/route/118860514/dr-wormhat,2.0,-1,Boulder,V1,1,12,41.41662,-73.66523
"Sloppy Joe","Dojo Left > Rock Dojo > * Powerlinez Bouldering > Powerlinez > New York",https://www.mountainproject.com/route/121831209/sloppy-joe,2.0,-1,Boulder,V1,1,,41.14504,-74.16775
"East Coast Angler","Trudeau Boulders > Southern Loop > Westchester Wilderness Walk/Zofnass Family Preserve > New York",https://www.mountainproject.com/route/118908332/east-coast-angler,2.0,-1,Boulder,V1,1,8,41.17954,-73.60076
"Hot Mexican Moon","Gore Mtn Road Boulders > G: Indian Lake Region > Adirondacks > New York",https://www.mountainproject.com/route/120418501/hot-mexican-moon,2.0,-1,Boulder,V1,1,15,43.66992,-73.9997
"North Face","Bald Peak > E: High Peaks Region > Adirondacks > New York",https://www.mountainproject.com/route/120091901/north-face,2.0,-1,Boulder,V1,1,12,44.15892,-73.66843
"Matter of Convenience","Rocky Glen Pond > Blue Mountain Park > New York",https://www.mountainproject.com/route/122012444/matter-of-convenience,2.0,-1,Boulder,V1,1,15,41.26524,-73.91676
"Platform Mantle Left","Platform Boulder > The Playground: Area 1 > Near Trapps Bouldering > The Gunks > New York",https://www.mountainproject.com/route/122478637/platform-mantle-left,2.0,-1,Boulder,V1,1,4,41.73712,-74.18313
"Snowball Earth","Glacial Erratic > Southern Loop > Westchester Wilderness Walk/Zofnass Family Preserve > New York",https://www.mountainproject.com/route/118904689/snowball-earth,2.0,-1,Boulder,V1,1,12,41.17852,-73.60304
"Red Dawn","Splitting Headache > Boulderwoods > Crane Mountain > G: Indian Lake Region > Adirondacks > New York",https://www.mountainproject.com/route/117963053/red-dawn,2.0,-1,Boulder,V1,1,,43.5378,-73.9677
"Fazers on Stun","Forest Home Road Boulder (Pandemic Block) > K: Northern Region > Adirondacks > New York",https://www.mountainproject.com/route/121413493/fazers-on-stun,2.0,-1,Boulder,V1,1,10,44.32955,-74.21318
"Hunters Retreat","Camp Kitchen Boulder > Rattlesnake Cobble > F: Lake George Region > Adirondacks > New York",https://www.mountainproject.com/route/122445313/hunters-retreat,2.0,-1,Boulder,V1,1,15,43.41751,-73.72678
"Lightyear (5.88 Trillion Miles)","The Mothership > Fourth Set > Mckenzie Pond Boulders > K: Northern Region > Adirondacks > New York",https://www.mountainproject.com/route/118845736/lightyear-588-trillion-miles,2.0,-1,Boulder,V1,1,30,44.30837,-74.09681
"Twin Scoops","St. Nicks Wall > St. Nicholas Park > New York City > New York",https://www.mountainproject.com/route/118904655/twin-scoops,2.0,-1,Boulder,V1,1,12,40.81432,-73.9499
"Iron Cross","Geoff's Boulder > Fourth Set > Mckenzie Pond Boulders > K: Northern Region > Adirondacks > New York",https://www.mountainproject.com/route/118845929/iron-cross,2.0,-1,Boulder,V1,1,12,44.30837,-74.09681
"Choss Wrangler","Grand Stone Staircase > Eastern Loop > Westchester Wilderness Walk/Zofnass Family Preserve > New York",https://www.mountainproject.com/route/118968040/choss-wrangler,2.0,-1,Boulder,"V1 PG13",1,16,41.18381,-73.58902
"The Good Book","Cliffs Minor > First Overlook > Grand Lake Reserve > New York",https://www.mountainproject.com/route/119217988/the-good-book,2.0,-1,Boulder,V1,1,14,44.32988,-75.7342
Invader,"Main Area > Canada Lake Boulders (aka Pinnacle Pull-Off) > H: Southern Mountains > Adirondacks > New York",https://www.mountainproject.com/route/116840352/invader,2.0,-1,Boulder,V1,1,20,43.16734,-74.50018
"Seaside Arete","Roanoke Point Boulder > Roanoke Avenue > Baiting Hollow/Riverhead Area > Long Island > New York",https://www.mountainproject.com/route/121792483/seaside-arete,2.0,-1,Boulder,V1,1,11,40.97975,-72.68142
"Pentagon Confirmed","Flying Saucer > Fourth Set > Mckenzie Pond Boulders > K: Northern Region > Adirondacks > New York",https://www.mountainproject.com/route/118845849/pentagon-confirmed,2.0,-1,Boulder,V1,1,20,44.30837,-74.09681
"That Gum You Like","Owl Cave > Cookie's Crag > New York",https://www.mountainproject.com/route/121249688/that-gum-you-like,2.0,-1,Boulder,V1,1,13,41.52595,-73.79197
"Easy Overhang","Big Bertha > Hill Boulders > Woods Lake Bouldering > H: Southern Mountains > Adirondacks > New York",https://www.mountainproject.com/route/118810699/easy-overhang,2.0,-1,Boulder,V1,1,10,43.25592,-74.30497
Bermuda,"Fairyland Wall > Grand Lake Reserve > New York",https://www.mountainproject.com/route/120424463/bermuda,2.5,-1,Boulder,V1,1,10,44.33155,-75.73617
"Lump's Insane Brain","Lump Boulder > Bridge Boulders > Woods Lake Bouldering > H: Southern Mountains > Adirondacks > New York",https://www.mountainproject.com/route/118730047/lumps-insane-brain,2.0,-1,Boulder,V1,1,12,43.25363,-74.30612
"Spider Eggs","Trihedral Wall > Woods Lake Bouldering > H: Southern Mountains > Adirondacks > New York",https://www.mountainproject.com/route/118729908/spider-eggs,2.0,-1,Boulder,V1,1,15,43.25181,-74.30818
"Klingon Problem","Hydra > Fourth Set > Mckenzie Pond Boulders > K: Northern Region > Adirondacks > New York",https://www.mountainproject.com/route/118845831/klingon-problem,2.0,-1,Boulder,V1,1,10,44.30837,-74.09681
"DP for Mayor","Middle East Boulder > Near East > Glenmeal > New York",https://www.mountainproject.com/route/114540038/dp-for-mayor,2.0,-1,Boulder,V1,1,10,44.52451,-75.02104
"Sloth Beta","Kings Park Bluff Boulder > Long Island > New York",https://www.mountainproject.com/route/122824316/sloth-beta,2.0,-1,Boulder,V1,1,,40.90317,-73.23602
"Tree Hugers","Main Cliff > Cliff-Band Bouldering at Panther Mt. > H: Southern Mountains > Adirondacks > New York",https://www.mountainproject.com/route/110923840/tree-hugers,2.0,-1,Boulder,V1,1,12,43.41358,-74.56201
Entrance,"Khadejha Area > Peterskill Bouldering > The Gunks > New York",https://www.mountainproject.com/route/106552482/entrance,2.5,-1,Boulder,V1,1,23,41.73893,-74.22026
Crossbeds,"Table Rock > New York",https://www.mountainproject.com/route/122948660/crossbeds,2.0,-1,Boulder,V1,1,20,42.45585,-75.07973
"Risky Biscuits","The Tower > King's Valley > Valleyland > E: High Peaks Region > Adirondacks > New York",https://www.mountainproject.com/route/110514429/risky-biscuits,2.0,-1,Boulder,V1,1,,44.18052,-73.83221
"Clean As You Go (Sit)","Rubble Boulder > Blue Mountain Park > New York",https://www.mountainproject.com/route/122942696/clean-as-you-go-sit,2.0,-1,Boulder,V1,1,15,41.28205,-73.9125
"Caught Inside","Bad Things > Hilltop Drive > Valleyland > E: High Peaks Region > Adirondacks > New York",https://www.mountainproject.com/route/110508481/caught-inside,2.0,-1,Boulder,V1,1,,44.18899,-73.82439
"Rubble Bubble","Rubble Boulder > Blue Mountain Park > New York",https://www.mountainproject.com/route/122942679/rubble-bubble,2.0,-1,Boulder,V1,1,15,41.28205,-73.9125
Pirates,"Jäger > Joe Indian Island > K: Northern Region > Adirondacks > New York",https://www.mountainproject.com/route/108113458/pirates,2.0,-1,Boulder,V1,1,,44.1676,-74.8369
"Slippery When Dry","Warwarsing Boulder > Wawarsing Parking Lot Boulders > Trapps Bouldering > The Gunks > New York",https://www.mountainproject.com/route/106556583/slippery-when-dry,2.0,-1,Boulder,V1,1,8,41.7364,-74.1848
"North East Arete","Lower Wawarsing Boulder > Wawarsing Parking Lot Boulders > Trapps Bouldering > The Gunks > New York",https://www.mountainproject.com/route/106552436/north-east-arete,1.8,-1,Boulder,V1,1,10,41.736,-74.1851
"Prop Strike (Stand)","The Manatee > Sea Side > Grand Lake Reserve > New York",https://www.mountainproject.com/route/123236166/prop-strike-stand,2.0,-1,Boulder,V1,1,10,44.32828,-75.74189
"Faucet Head Arete","Toilet Bowl Rock > Above the Narrows > Moss Island Bouldering > Little Falls > New York",https://www.mountainproject.com/route/123498294/faucet-head-arete,2.0,-1,Boulder,V1,1,12,43.03965,-74.84686
"Flake Problem","Cracked Boulder > Above the Narrows > Moss Island Bouldering > Little Falls > New York",https://www.mountainproject.com/route/123498461/flake-problem,2.0,-1,Boulder,V1,1,10,43.03961,-74.84707
Overcast,"Balance Bar > Chapel Pond Bouldering > B: Chapel Pond Pass > Adirondacks > New York",https://www.mountainproject.com/route/123529763/overcast,2.0,-1,Boulder,V1,1,10,44.13601,-73.74228
Director,"Worthless Boulder > Central Park > New York City > New York",https://www.mountainproject.com/route/118043495/director,1.3,-1,Boulder,V1,1,,40.7983,-73.9547
Grimper,"Worthless Boulder > Central Park > New York City > New York",https://www.mountainproject.com/route/118043502/grimper,1.4,-1,Boulder,V1,1,,40.7983,-73.9547
"Shits and Giggles","Worthless Boulder > Central Park > New York City > New York",https://www.mountainproject.com/route/112012161/shits-and-giggles,1.6,-1,Boulder,V1,1,12,40.7983,-73.9547
"North West Arete","Lower Wawarsing Boulder > Wawarsing Parking Lot Boulders > Trapps Bouldering > The Gunks > New York",https://www.mountainproject.com/route/106552454/north-west-arete,1.6,-1,Boulder,V1,1,10,41.736,-74.1851
"Before Tragedy","Makaia > First Set > Mckenzie Pond Boulders > K: Northern Region > Adirondacks > New York",https://www.mountainproject.com/route/119727672/before-tragedy,1.8,-1,Boulder,V1,1,12,44.30837,-74.09682
"Mr. Jones","Nick Stoner > Middle Earth > Nine Corner Lake > H: Southern Mountains > Adirondacks > New York",https://www.mountainproject.com/route/116757740/mr-jones,2.0,-1,Boulder,V1,1,,43.2044,-74.5323
"Warp Jump","The Mothership > Fourth Set > Mckenzie Pond Boulders > K: Northern Region > Adirondacks > New York",https://www.mountainproject.com/route/118845745/warp-jump,1.7,-1,Boulder,V1,1,15,44.30837,-74.09681
"High Chair Right Exit","Rookie Boulder > Green Lake Boulders > H: Southern Mountains > Adirondacks > New York",https://www.mountainproject.com/route/112827228/high-chair-right-exit,1.5,-1,Boulder,V1,1,12,43.17925,-74.50656
"Gear Ledge Face","Uberfall problems > Trapps Bouldering > The Gunks > New York",https://www.mountainproject.com/route/106542072/gear-ledge-face,1.7,-1,Boulder,V1,1,20,41.7371,-74.1887
Osmosis,"Alien > Third Set > Mckenzie Pond Boulders > K: Northern Region > Adirondacks > New York",https://www.mountainproject.com/route/107550266/osmosis,1.4,-1,Boulder,V1,1,,44.30837,-74.09682
"Lift Off","Makaia > First Set > Mckenzie Pond Boulders > K: Northern Region > Adirondacks > New York",https://www.mountainproject.com/route/107550193/lift-off,1.5,-1,Boulder,V1,1,,44.30837,-74.09682
"New York Cheesecake","Cat Rock > Central Park > New York City > New York",https://www.mountainproject.com/route/121405260/new-york-cheesecake,1.8,-1,Boulder,V1,1,13,40.7683,-73.9737
"North Face","Lower Wawarsing Boulder > Wawarsing Parking Lot Boulders > Trapps Bouldering > The Gunks > New York",https://www.mountainproject.com/route/106552443/north-face,1.5,-1,Boulder,V1,1,10,41.736,-74.1851
Kilter,"Whetstone Wall > Swath Boulders > * Powerlinez Bouldering > Powerlinez > New York",https://www.mountainproject.com/route/115961213/kilter,1.4,-1,Boulder,V1,1,12,41.14481,-74.16419
"Baby Step","The Ice Cube > Diesel and Ice Cube Area > Ice Pond > New York",https://www.mountainproject.com/route/118759362/baby-step,2.0,-1,Boulder,V1,1,9,41.4511,-73.62152
"Two Tops","Main Wall > Clark Reservation State Park > New York",https://www.mountainproject.com/route/116772482/two-tops,1.5,-1,Boulder,V1,1,15,42.99565,-76.09534
Wedgewood,"Godzilla Boulder > Rock Dojo > * Powerlinez Bouldering > Powerlinez > New York",https://www.mountainproject.com/route/119915583/wedgewood,1.7,-1,Boulder,V1,1,,41.14477,-74.16769
"Potent Potables","Rick Ross Boulder > Near East > Glenmeal > New York",https://www.mountainproject.com/route/114539984/potent-potables,1.5,-1,Boulder,V1,1,10,44.52395,-75.02173
Crosshair,"Rookie Boulder > Green Lake Boulders > H: Southern Mountains > Adirondacks > New York",https://www.mountainproject.com/route/112847254/crosshair,1.7,-1,Boulder,V1,1,12,43.17925,-74.50656
"Drunken Sailor","A-Frame > Hilltop Drive > Valleyland > E: High Peaks Region > Adirondacks > New York",https://www.mountainproject.com/route/110508334/drunken-sailor,1.5,-1,Boulder,V1,1,,44.18785,-73.82109
"Blasting Hole Problem Left","Doug's Roof > Trapps Bouldering > The Gunks > New York",https://www.mountainproject.com/route/106533191/blasting-hole-problem-left,1.5,-1,Boulder,V1,1,12,41.7369,-74.1892
"Stay off the Crystal","N Country Rd Boulder > Long Island > New York",https://www.mountainproject.com/route/122184534/stay-off-the-crystal,1.3,-1,Boulder,V1,1,,40.9566,-72.87211
"Arm Eater Crack","Pebbles Boulders > Trapps Bouldering > The Gunks > New York",https://www.mountainproject.com/route/106542194/arm-eater-crack,1.1,-1,Boulder,V1,1,10,41.7375,-74.1872
"Feeling Handsy","N Country Rd Boulder > Long Island > New York",https://www.mountainproject.com/route/122184582/feeling-handsy,1.3,-1,Boulder,V1,1,,40.9566,-72.87211
"The Watchtower","Gorilla Monsoon Boulder > Monsoon / Swamp > * Powerlinez Bouldering > Powerlinez > New York",https://www.mountainproject.com/route/116298099/the-watchtower,1.8,-1,Boulder,"V1 R",1,10,41.14703,-74.17105
"The Sharp District","Sunkist Boulder > The Playground: Area 1 > Near Trapps Bouldering > The Gunks > New York",https://www.mountainproject.com/route/113278454/the-sharp-district,1.3,-1,Boulder,V1,1,,41.73563,-74.18401
Static,"High Electricity boulder > Swath Boulders > * Powerlinez Bouldering > Powerlinez > New York",https://www.mountainproject.com/route/113561357/static,1.0,-1,Boulder,V1,1,20,41.14485,-74.16404
"Rock and Roll","Freestanding Rock > Central Park > New York City > New York",https://www.mountainproject.com/route/111950764/rock-and-roll,1.6,-1,Boulder,V1,1,,40.77633,-73.9688
"Sleepy Hollow","Second Set Boulder > Second Set > Mckenzie Pond Boulders > K: Northern Region > Adirondacks > New York",https://www.mountainproject.com/route/107456360/sleepy-hollow,1.7,-1,Boulder,V1,1,,44.30837,-74.09682
"Left Cheek Sneak","Slabasaurus Boulder > Monsoon / Swamp > * Powerlinez Bouldering > Powerlinez > New York",https://www.mountainproject.com/route/113574065/left-cheek-sneak,1.0,-1,Boulder,V1,1,,41.147,-74.17105
Awkward,"Area 1 > Canada Lake Boulders (aka Pinnacle Pull-Off) > H: Southern Mountains > Adirondacks > New York",https://www.mountainproject.com/route/106502717/awkward,1.0,-1,Boulder,V1,1,,43.16734,-74.50018
Lumpy,"Satellite Area > Canada Lake Boulders (aka Pinnacle Pull-Off) > H: Southern Mountains > Adirondacks > New York",https://www.mountainproject.com/route/106501977/lumpy,1.0,-1,Boulder,V1,1,,43.16734,-74.50018
"Loose Change","Rocky Glen Pond > Blue Mountain Park > New York",https://www.mountainproject.com/route/121818592/loose-change,1.0,-1,Boulder,V1,1,10,41.26524,-73.91676
"Arête Direct","Westside Outcrops > Central Park > New York City > New York",https://www.mountainproject.com/route/116668582/arete-direct,1.0,-1,Boulder,V1,1,,40.79721,-73.96069
"Roll of Quarters","Rocky Glen Pond > Blue Mountain Park > New York",https://www.mountainproject.com/route/121818620/roll-of-quarters,1.0,-1,Boulder,V1,1,10,41.26524,-73.91676
"Bloody Knees and Shitty Trees","Boomerang Boulder > The Boondocks > Grand Lake Reserve > New York",https://www.mountainproject.com/route/122281396/bloody-knees-and-shitty-trees,1.0,-1,Boulder,V1,1,11,44.33563,-75.73124
Riptide,"Swell Boulder > The Halfway Cluster > Duck Pond Point Boulders > Long Island > New York",https://www.mountainproject.com/route/119574808/riptide,1.0,-1,Boulder,V1,1,,41.03453,-72.5264
"Undercling Mantel","Freefall / Fringe > Boulder Road > * Powerlinez Bouldering > Powerlinez > New York",https://www.mountainproject.com/route/113562839/undercling-mantel,1.0,-1,Boulder,V1,1,,41.14449,-74.16667
"Tiny Cities Made of Ashes","Firepit Boulder > The Meadows > Nine Corner Lake > H: Southern Mountains > Adirondacks > New York",https://www.mountainproject.com/route/106500913/tiny-cities-made-of-ashes,1.0,-1,Boulder,V1,1,,43.19439,-74.54234
Stumpy,"Main Area > Canada Lake Boulders (aka Pinnacle Pull-Off) > H: Southern Mountains > Adirondacks > New York",https://www.mountainproject.com/route/106501805/stumpy,1.0,-1,Boulder,V1,1,,43.16734,-74.50018
"Rock Bottom","American Flag Boulder > Long Island > New York",https://www.mountainproject.com/route/121816003/rock-bottom,1.0,-1,Boulder,V1,1,,40.89125,-73.2078
"Metal Traverse","Slab Town > Central Park > New York City > New York",https://www.mountainproject.com/route/122451209/metal-traverse,1.0,-1,Boulder,V1,1,10,40.77599,-73.96969
"West Face Overhang","Turtle Rock > Long Island > New York",https://www.mountainproject.com/route/121940029/west-face-overhang,1.0,-1,Boulder,V1,1,,40.87462,-72.90917
Preemo,"Upper Trail Peninsula > Colonial Greenway > New York",https://www.mountainproject.com/route/121820750/preemo,1.0,-1,Boulder,V1,1,10,40.95057,-73.77473
Spotlight,"Rock City State Forest > New York",https://www.mountainproject.com/route/112939379/spotlight,1.0,-1,Boulder,V1,1,15,42.2084,-78.7083
Confusion,"Nick Stoner > Middle Earth > Nine Corner Lake > H: Southern Mountains > Adirondacks > New York",https://www.mountainproject.com/route/116991020/confusion,1.0,-1,Boulder,V1,1,10,43.2044,-74.5323
"Hungry for Layback","Whale Wall > Rock Dojo > * Powerlinez Bouldering > Powerlinez > New York",https://www.mountainproject.com/route/113573953/hungry-for-layback,1.0,-1,Boulder,V1,1,,41.14538,-74.16762
"Auburn Arete","Cliff Walk > Southern Loop > Westchester Wilderness Walk/Zofnass Family Preserve > New York",https://www.mountainproject.com/route/118908089/auburn-arete,1.0,-1,Boulder,V1,1,8,41.18071,-73.59692
"K Spar Arete","Edwards Avenue > Baiting Hollow/Riverhead Area > Long Island > New York",https://www.mountainproject.com/route/121680821/k-spar-arete,1.0,-1,Boulder,V1,1,10,40.96599,-72.76712
Leicestonian,"St. Nicks Wall > St. Nicholas Park > New York City > New York",https://www.mountainproject.com/route/118904678/leicestonian,1.0,-1,Boulder,V1,1,12,40.81432,-73.9499
Smooches,"Area 1 > Canada Lake Boulders (aka Pinnacle Pull-Off) > H: Southern Mountains > Adirondacks > New York",https://www.mountainproject.com/route/116811205/smooches,1.0,-1,Boulder,V1,1,10,43.16734,-74.50018
Digweed,"Residue Boulder > Middle Earth > Nine Corner Lake > H: Southern Mountains > Adirondacks > New York",https://www.mountainproject.com/route/116762855/digweed,1.0,-1,Boulder,V1,1,12,43.2044,-74.5323
"Lock and Lock","Cliffs Minor > First Overlook > Grand Lake Reserve > New York",https://www.mountainproject.com/route/119218235/lock-and-lock,1.0,-1,Boulder,V1,1,13,44.32988,-75.7342
"ABC Arete","Troll > Middle Earth > Nine Corner Lake > H: Southern Mountains > Adirondacks > New York",https://www.mountainproject.com/route/117002471/abc-arete,1.0,-1,Boulder,V1,1,10,43.2044,-74.5323
"5 Across, Rhymes With Moss","Trihedral Wall > Woods Lake Bouldering > H: Southern Mountains > Adirondacks > New York",https://www.mountainproject.com/route/118729885/5-across-rhymes-with-moss,1.0,-1,Boulder,"V1 PG13",1,25,43.25181,-74.30818
"Even Chubby","Sleepy Hollow > Trapps Bouldering > The Gunks > New York",https://www.mountainproject.com/route/113250804/even-chubby,1.0,-1,Boulder,V1,1,,41.75144,-74.17269
Dunfer,"Residue Boulder > Middle Earth > Nine Corner Lake > H: Southern Mountains > Adirondacks > New York",https://www.mountainproject.com/route/117916541/dunfer,1.0,-1,Boulder,V1,1,10,43.2044,-74.5323
"Fistful of Something","Middle East Boulder > Near East > Glenmeal > New York",https://www.mountainproject.com/route/114540101/fistful-of-something,1.0,-1,Boulder,V1,1,10,44.52451,-75.02104
"1,000,000 Points","Blaze Wall > Far East > Glenmeal > New York",https://www.mountainproject.com/route/114544878/1000000-points,1.0,-1,Boulder,V1,1,,44.52408,-75.01352
"El Condorito","El Condorito Wall > Far East > Glenmeal > New York",https://www.mountainproject.com/route/114549854/el-condorito,1.0,-1,Boulder,V1,1,10,44.52321,-75.0123
"Banana Sling Shot","Puggle Me Elmo Wall > Far East > Glenmeal > New York",https://www.mountainproject.com/route/114551951/banana-sling-shot,1.0,-1,Boulder,V1,1,10,44.5232,-75.01261
"Utica’s Club","Lu's Wall > The West Side > Glenmeal > New York",https://www.mountainproject.com/route/114539461/uticas-club,1.0,-1,Boulder,V1,1,10,44.5275,-75.03133
"The Knife","Puggle Me Elmo Wall > Far East > Glenmeal > New York",https://www.mountainproject.com/route/114551930/the-knife,1.0,-1,Boulder,V1,1,,44.5232,-75.01261
"Corner Pocket","Lost Dog Boulder > Middle Earth > Nine Corner Lake > H: Southern Mountains > Adirondacks > New York",https://www.mountainproject.com/route/112209472/corner-pocket,1.0,-1,Boulder,V1,1,20,43.1944,-74.5423
"Slopey Seconds","Flatrock Boulders > I: Old Forge Region > Adirondacks > New York",https://www.mountainproject.com/route/108331551/slopey-seconds,1.0,-1,Boulder,V1,1,,43.66801,-75.06726
Kahpooya,"Pretty Face > King's Valley > Valleyland > E: High Peaks Region > Adirondacks > New York",https://www.mountainproject.com/route/110510315/kahpooya,1.0,-1,Boulder,V1,1,,44.1803,-73.82972
"Blue Ice","Iceberg Boulder > Summit Boulders > Roadside Nine > Nine Corner Lake > H: Southern Mountains > Adirondacks > New York",https://www.mountainproject.com/route/122821584/blue-ice,1.0,-1,Boulder,V1,1,8,43.18192,-74.56463
"Tweedle Dumb","Roadside Boulders > Roadside Nine > Nine Corner Lake > H: Southern Mountains > Adirondacks > New York",https://www.mountainproject.com/route/122813701/tweedle-dumb,1.0,-1,Boulder,V1,1,8,43.1805,-74.56369
"Electric Slide","Satellite Area > Canada Lake Boulders (aka Pinnacle Pull-Off) > H: Southern Mountains > Adirondacks > New York",https://www.mountainproject.com/route/106501990/electric-slide,1.0,-1,Boulder,V1,1,,43.16734,-74.50018
"Meteor Traverse","Meteor Boulder > Point Au Roche > New York",https://www.mountainproject.com/route/123456478/meteor-traverse,1.0,-1,Boulder,V1,1,12,44.78271,-73.37119
Water,"Ice Block > Sloper City > Ice Pond > New York",https://www.mountainproject.com/route/123596198/water,2.0,-1,Boulder,V1,1,10,41.45244,-73.61704
"Tombstone Arete","Triple Threat/Ghost Boulder > Moby Area > Ice Pond > New York",https://www.mountainproject.com/route/123596271/tombstone-arete,3.4,-1,Boulder,V1,1,15,41.45601,-73.61624
"Interstate 1","Ye Olde White Plains Rd Boulders > Saxon Woods South > Colonial Greenway > New York",https://www.mountainproject.com/route/123602187/interstate-1,1.0,-1,Boulder,V1,1,10,40.9636,-73.74795
"Glacial Waters","Sore Spot > Saxon Woods South > Colonial Greenway > New York",https://www.mountainproject.com/route/123602960/glacial-waters,2.8,-1,Boulder,V1,1,20,40.96649,-73.74482
Filet-O-Boulder,"Filet-O-Boulder Area > Blue Mountain Park > New York",https://www.mountainproject.com/route/123634910/filet-o-boulder,2.0,-1,Boulder,V1,1,12,41.28122,-73.90983
De-fanged,"Snake Rock > The Blockhouse > Central Park > New York City > New York",https://www.mountainproject.com/route/123699670/de-fanged,1.0,-1,Boulder,V1,1,10,40.79875,-73.95629
"Lichen this rock","The Lost Spire > Calverton Pine Barrens > Long Island > New York",https://www.mountainproject.com/route/124018577/lichen-this-rock,1.0,-1,Boulder,V1,1,,40.88357,-72.74819
"Exploding Stones","Vile Boulder > Grand Lake Reserve > New York",https://www.mountainproject.com/route/124050093/exploding-stones,1.0,-1,Boulder,V1,1,10,44.33182,-75.73818
Ecstasy,"Cliffs Minor > First Overlook > Grand Lake Reserve > New York",https://www.mountainproject.com/route/124050116/ecstasy,3.0,-1,Boulder,V1,1,15,44.32988,-75.7342
Gubernaculum,"Brain Boulder > North County Trail Bouldering > New York",https://www.mountainproject.com/route/124306561/gubernaculum,2.0,-1,Boulder,V1,1,17,41.09836,-73.81158
Seven,"Sore Spot > Saxon Woods South > Colonial Greenway > New York",https://www.mountainproject.com/route/123602854/seven,4.0,-1,Boulder,"V1 PG13",1,20,40.96649,-73.74482
"Crack Sniffer","Sherman Boulders > Fort Tryon Park > New York City > New York",https://www.mountainproject.com/route/124581973/crack-sniffer,2.0,-1,Boulder,"V1 PG13",1,15,40.86091,-73.93143
"Rain Dogs","Pitchoff Chimney Cliff > C: Keene Region > Adirondacks > New York",https://www.mountainproject.com/route/124651042/rain-dogs,4.0,-1,"TR, Boulder","5.11 V1",1,60,44.23598,-73.86449
"Secret Fennel","Fennel Boulder > Fenimore Road Area > Colonial Greenway > New York",https://www.mountainproject.com/route/124704469/secret-fennel,1.0,-1,Boulder,V1,1,10,40.95357,-73.74982
"Step the Mast","Jumping Rock > East Marion Boulders > Long Island > New York",https://www.mountainproject.com/route/124746570/step-the-mast,3.0,-1,Boulder,V1,1,13,41.13855,-72.35539
"7th Chevron","Atlantis Boulder > Wildwood State Park > Long Island > New York",https://www.mountainproject.com/route/124849749/7th-chevron,1.0,-1,Boulder,V1,1,,40.96664,-72.7951
Barnacles!,"Bikini Atoll Boulder > Wildwood State Park > Long Island > New York",https://www.mountainproject.com/route/124849901/barnacles,1.0,-1,Boulder,V1,1,,40.9661,-72.78441
Inspection,"Inspection Boulder > Hartzfelt Mountain > New York",https://www.mountainproject.com/route/124925641/inspection,3.0,-1,Boulder,V1,1,15,42.02427,-78.45717
"Fantasy Mission Force","Kung Fu Slab > The Loop > * Powerlinez Bouldering > Powerlinez > New York",https://www.mountainproject.com/route/124959969/fantasy-mission-force,1.0,-1,Boulder,V1,1,10,41.14677,-74.1708
Re-Pete,"Pete's Prow > Welcome Boulders > * Powerlinez Bouldering > Powerlinez > New York",https://www.mountainproject.com/route/124960085/re-pete,1.0,-1,Boulder,V1,1,10,41.14466,-74.16373
"Pete's Bail","Pete's Prow > Welcome Boulders > * Powerlinez Bouldering > Powerlinez > New York",https://www.mountainproject.com/route/124960112/petes-bail,1.0,-1,Boulder,V1,1,10,41.14466,-74.16373
"Pete and Pete","Pete's Prow > Welcome Boulders > * Powerlinez Bouldering > Powerlinez > New York",https://www.mountainproject.com/route/124960376/pete-and-pete,2.0,-1,Boulder,V1,1,10,41.14466,-74.16373
"Mt. Pete","Pete's Prow > Welcome Boulders > * Powerlinez Bouldering > Powerlinez > New York",https://www.mountainproject.com/route/124960407/mt-pete,1.0,-1,Boulder,V1,1,10,41.14466,-74.16373
Dynosore,"Dorson's Rock > New York",https://www.mountainproject.com/route/124987678/dynosore,2.0,-1,Boulder,V1,1,10,42.42855,-73.56969
"Labia Majora","Rock City State Forest > New York",https://www.mountainproject.com/route/125031684/labia-majora,3.0,-1,Boulder,V1,1,,42.2084,-78.7083
Rumble,"Turtle Rock > Long Island > New York",https://www.mountainproject.com/route/125068905/rumble,3.0,-1,Boulder,V1,1,10,40.87462,-72.90917
"Side Winder","Wild Pines > F: Lake George Region > Adirondacks > New York",https://www.mountainproject.com/route/125168545/side-winder,2.0,-1,Boulder,V1,1,7,43.65359,-73.59532
"Tiny Dancer","The Crypt > Forager’s Path > Grand Lake Reserve > New York",https://www.mountainproject.com/route/125277291/tiny-dancer,2.0,-1,Boulder,V1,1,9,44.32975,-75.73763
Sunnyside,"Butter Boulders > Butter Cliffs > New York",https://www.mountainproject.com/route/125294755/sunnyside,2.0,-1,Boulder,V1,1,6,44.30737,-75.79204
"Cwisp Airette","Butter Boulders > Butter Cliffs > New York",https://www.mountainproject.com/route/125294786/cwisp-airette,3.0,-1,Boulder,V1,1,10,44.30737,-75.79204
"Sticky Business","Bleacher Rock > Morningside Park > New York City > New York",https://www.mountainproject.com/route/125370289/sticky-business,2.0,-1,Boulder,"V1 R",1,18,40.80334,-73.95954
"NYPD Goo","Bleacher Rock > Morningside Park > New York City > New York",https://www.mountainproject.com/route/125370502/nypd-goo,3.0,-1,Boulder,"V1 PG13",1,18,40.80334,-73.95954
"Slime Line","Bleacher Rock > Morningside Park > New York City > New York",https://www.mountainproject.com/route/125370552/slime-line,1.0,-1,Boulder,"V1 R",1,18,40.80334,-73.95954
"Slim Jim","Bleacher Rock > Morningside Park > New York City > New York",https://www.mountainproject.com/route/125370615/slim-jim,3.0,-1,Boulder,V1,1,18,40.80334,-73.95954
"I Hate My Kong","Bleacher Rock > Morningside Park > New York City > New York",https://www.mountainproject.com/route/125370641/i-hate-my-kong,2.0,-1,Boulder,"V1 R",1,18,40.80334,-73.95954
"Reclaimed AKA [Redacted]","Bleacher Rock > Morningside Park > New York City > New York",https://www.mountainproject.com/route/125370661/reclaimed-aka-redacted,3.0,-1,Boulder,"V1 PG13",1,,40.80334,-73.95954
"No Hyuck","Headrush Boulder > Moby Area > Ice Pond > New York",https://www.mountainproject.com/route/125409261/no-hyuck,1.0,-1,Boulder,V1,1,10,41.4558,-73.61632
"Chord Alley","Hutch Hollow (Ferrone Woods Preserve) > New York",https://www.mountainproject.com/route/125435676/chord-alley,4.0,-1,Boulder,V1,1,10,44.42484,-75.63216
"Cascading Coagulation","Hutch Hollow (Ferrone Woods Preserve) > New York",https://www.mountainproject.com/route/125438238/cascading-coagulation,2.0,-1,Boulder,"V1 PG13",1,18,44.42484,-75.63216
Katana,"Kung Fu Slab > The Loop > * Powerlinez Bouldering > Powerlinez > New York",https://www.mountainproject.com/route/125455977/katana,2.0,-1,Boulder,V1,1,12,41.14677,-74.1708
"Brad, It's Bad","The In Between > Grand Lake Reserve > New York",https://www.mountainproject.com/route/125488929/brad-its-bad,3.5,-1,Boulder,V1,1,18,44.33048,-75.73285
"Any Day Now","Tree God > Monsoon / Swamp > * Powerlinez Bouldering > Powerlinez > New York",https://www.mountainproject.com/route/125500378/any-day-now,2.0,-1,Boulder,V1,1,12,41.14704,-74.171
"Ride the Bullet Marks","Tree God > Monsoon / Swamp > * Powerlinez Bouldering > Powerlinez > New York",https://www.mountainproject.com/route/125500396/ride-the-bullet-marks,2.0,-1,Boulder,V1,1,10,41.14704,-74.171
"Dynamite Shuffle","Granite Knolls > Granite Knolls Park and Sylvan Glen Park > New York",https://www.mountainproject.com/route/125625739/dynamite-shuffle,4.0,-1,Boulder,"V1 PG13",1,20,41.31154,-73.83051
"Slick Upper Lip","Upper Lip Wall > Starry Night > Grand Lake Reserve > New York",https://www.mountainproject.com/route/125668619/slick-upper-lip,2.0,-1,Boulder,V1,1,13,44.32707,-75.74416
