Route,Location,URL,"Avg Stars","Your Stars","Route Type",Rating,Pitches,Length,"Area Latitude","Area Longitude"
"Black Rock Traverse","Black Rock on Maui > Maui > Hawaii",https://www.mountainproject.com/route/108343271/black-rock-traverse,2.6,-1,Boulder,V0-1,1,80,20.92654,-156.69681
"Da Coconut Wireless","Pahala Pocket > Pi'ikea Gulch > Hawaii (Big Island) > Hawaii",https://www.mountainproject.com/route/121701334/da-coconut-wireless,2.0,-1,Boulder,V0-1,1,40,19.22358,-155.45907
"Crab Skitter","Hideaways Beach > Kauai > Hawaii",https://www.mountainproject.com/route/120910816/crab-skitter,2.0,-1,Boulder,V0-1,1,15,22.22355,-159.49437
"Wet Dream","Wet Cave (Blue Room) > Haena State Park > Kauai > Hawaii",https://www.mountainproject.com/route/112425356/wet-dream,1.5,-1,Boulder,"V0-1 PG13",1,20,22.22046,-159.58056
"By the water log","Beach 69 > Hawaii (Big Island) > Hawaii",https://www.mountainproject.com/route/122566463/by-the-water-log,2.0,-1,Boulder,V0-1,1,7,19.98221,-155.82853
"The Blowhole DWS","South Point Cliffs > Hawaii (Big Island) > Hawaii",https://www.mountainproject.com/route/110138512/the-blowhole-dws,1.0,-1,"TR, Boulder","5.6 V0-1 R",1,35,18.91458,-155.683
"Stranded Bikini Bottoms","Kahili Beach (Rock Quarry) > Kauai > Hawaii",https://www.mountainproject.com/route/123822122/stranded-bikini-bottoms,2.0,-1,Boulder,V0-1,1,10,22.22098,-159.38338
