Route,Location,URL,"Avg Stars","Your Stars","Route Type",Rating,Pitches,Length,"Area Latitude","Area Longitude"
Ultrasaurus,"Ultrasaurus Boulder > Rewilding Boulders > Lost Lake Boulders > Mt. Hood National Forest > Oregon",https://www.mountainproject.com/route/110632017/ultrasaurus,3.6,-1,Boulder,V6-7,1,10,45.49723,-121.84328
Ginsu,"The Depot > Bend Area > Central Oregon Bouldering > Central Oregon > Oregon",https://www.mountainproject.com/route/111763795/ginsu,3.2,-1,Boulder,V6-7,1,10,44.03134,-121.33324
"Baby Behemoth","Stevens Cave > Bend Area > Central Oregon Bouldering > Central Oregon > Oregon",https://www.mountainproject.com/route/120456598/baby-behemoth,3.0,-1,Boulder,V6-7,1,40,44.03668,-121.25685
"Surfer on Acid","Wee Peabody > Hart Mountain Wildlfe Rufuge > Southeast Oregon > Oregon",https://www.mountainproject.com/route/122928693/surfer-on-acid,3.0,-1,Boulder,V6-7,1,25,42.51495,-119.79644
"Southern Discomfort Direct","Meth Lab Boulder > The Garden Boulders > The Garden > Willamette Valley > Oregon",https://www.mountainproject.com/route/124378728/southern-discomfort-direct,3.0,-1,Boulder,V6-7,1,15,44.44109,-122.57454
