Route,Location,URL,"Avg Stars","Your Stars","Route Type",Rating,Pitches,Length,"Area Latitude","Area Longitude"
"Treacherous Sand Flea","Shuffled Truffles > Cannon Beach > Coastal Region > Oregon",https://www.mountainproject.com/route/119148483/treacherous-sand-flea,2.9,-1,Boulder,V4-5,1,12,45.85895,-123.9636
Intruder,"b. Tim's Boulder > c. Triangle Boulders > Main Forest > Carver Bouldering > Carver > Portland & The Gorge > Oregon",https://www.mountainproject.com/route/119699006/intruder,2.7,-1,Boulder,V4-5,1,,45.39157,-122.4992
"Underpull Pillar Route","Meadow Camp > Central Oregon > Oregon",https://www.mountainproject.com/route/114973801/underpull-pillar-route,2.3,-1,"TR, Boulder","5.11+ V4-5",1,25,44.00144,-121.37788
"Frye Sauce","The Homeless Shelter > Bend Area > Central Oregon Bouldering > Central Oregon > Oregon",https://www.mountainproject.com/route/116747030/frye-sauce,2.5,-1,Boulder,V4-5,1,15,44.05093,-121.32043
"Animal Magnetism","a. Animal Magnetism > e. Yosemite Boulders > Main Forest > Carver Bouldering > Carver > Portland & The Gorge > Oregon",https://www.mountainproject.com/route/124822903/animal-magnetism,3.0,-1,Boulder,V4-5,1,15,45.39166,-122.49966
