Route,Location,URL,"Avg Stars","Your Stars","Route Type",Rating,Pitches,Length,"Area Latitude","Area Longitude"
"Hell Belly","Chaos Boulder > Big Bend Bouldering Area > River Road > Southeast Utah > Utah",https://www.mountainproject.com/route/106379808/hell-belly,4.0,-1,Boulder,V10-11,1,,38.65058,-109.48477
"Euro Boof","Euro Roof Boulder > Party Pit Area > White Pine South > White Pine Boulders > Boulders - Little Cottonwood > Little Cottonwood Canyon > Central Wasatch > Wasatch Range > Utah",https://www.mountainproject.com/route/121164480/euro-boof,3.5,-1,Boulder,V10-11,1,10,40.57335,-111.68828
"Ochre & Ash","Spirit Walker Cave > Upper Boulder Field > Ogden Boulder Field > Ogden > Northern Wasatch > Wasatch Range > Utah",https://www.mountainproject.com/route/111314793/ochre-ash,2.0,-1,Boulder,V10-11,1,15,41.21752,-111.92429
"Middle Earth","Baggins Boulder > Cabbage Patch > Boulders - Little Cottonwood > Little Cottonwood Canyon > Central Wasatch > Wasatch Range > Utah",https://www.mountainproject.com/route/117967475/middle-earth,1.5,-1,Boulder,V10-11,1,14,40.57203,-111.77031
Project,"Chossosaurus > Triassic > Central Utah > Utah",https://www.mountainproject.com/route/121795092/project,1.0,-1,Boulder,V10-11,1,,39.32896,-110.74253
"We Call Him Michael","Right Sign Area > Left Fork > Joe's Valley > Central Utah > Utah",https://www.mountainproject.com/route/123450128/we-call-him-michael,3.0,-1,Boulder,V10-11,1,15,39.27583,-111.22354
"Heart of Coal Sit","Mine Cart Area > Left Fork > Joe's Valley > Central Utah > Utah",https://www.mountainproject.com/route/124144461/heart-of-coal-sit,2.0,-1,Boulder,V10-11,1,,39.27542,-111.20602
