Route,Location,URL,"Avg Stars","Your Stars","Route Type",Rating,Pitches,Length,"Area Latitude","Area Longitude"
Islander,"Prow Area > Governor Dick Park (aka Mount Gretna) > South Central PA > Pennsylvania",https://www.mountainproject.com/route/107938124/islander,3.8,-1,Boulder,V7-8,1,,40.243,-76.45189
"Herr Right","Herr Brothers > Governor Stable > South Central PA > Pennsylvania",https://www.mountainproject.com/route/107421264/herr-right,3.5,-1,Boulder,V7-8,1,18,40.13189,-76.69519
"resin run","Problem list > The Main Area > Hunter's Rocks (Rocky Ridge Natural Area) > Central PA > Pennsylvania",https://www.mountainproject.com/route/113325512/resin-run,3.5,-1,Boulder,V7-8,1,,40.5503,-77.8587
"The Hoagie","The Big Area > Haycock Mountain (Nockamixon) > Southeastern Lowlands > Pennsylvania",https://www.mountainproject.com/route/112502165/the-hoagie,3.0,-1,Boulder,V7-8,1,15,40.4856,-75.21668
45,"Circuit Area is CLOSED > Governor Stable > South Central PA > Pennsylvania",https://www.mountainproject.com/route/107430746/45,2.3,-1,Boulder,V7-8,1,12,40.13189,-76.69518
"45 Degree Wall Sit Start","Circuit Area is CLOSED > Governor Stable > South Central PA > Pennsylvania",https://www.mountainproject.com/route/108139905/45-degree-wall-sit-start,2.0,-1,Boulder,V7-8,1,12,40.13189,-76.69518
Equilateral,"The Adjustor Boulder > 45 Area > Governor Dick Park (aka Mount Gretna) > South Central PA > Pennsylvania",https://www.mountainproject.com/route/121682546/equilateral,2.0,-1,Boulder,V7-8,1,13,40.23978,-76.45348
"Temporary Temptation","Gladiator > Highball Area > Governor Dick Park (aka Mount Gretna) > South Central PA > Pennsylvania",https://www.mountainproject.com/route/123786042/temporary-temptation,3.0,-1,Boulder,V7-8,1,8,40.23975,-76.44914
"Monkey Business","Entrance Overhang > Bilger's Rocks > South Central PA > Pennsylvania",https://www.mountainproject.com/route/125349415/monkey-business,3.0,-1,Boulder,V7-8,1,15,40.99346,-78.59218
