Route,Location,URL,"Avg Stars","Your Stars","Route Type",Rating,Pitches,Length,"Area Latitude","Area Longitude"
"Painted Like a Warrior","Choss Overhang > Tamposi Trail Cluster > Willard Pond > Monadnock Region > New Hampshire",https://www.mountainproject.com/route/118596695/painted-like-a-warrior,2.8,-1,Boulder,V10-11,1,,43.01968,-72.02285
"Check Your Head Sit","Cliff Boulders > *Pawtuckaway > New Hampshire",https://www.mountainproject.com/route/113917184/check-your-head-sit,2.0,-1,Boulder,V10-11,1,21,43.1181,-71.1787
Revolution,"The Storm Boulders > Boulder Natural > *Pawtuckaway > New Hampshire",https://www.mountainproject.com/route/106121528/revolution,1.7,-1,Boulder,V10-11,1,10,42.6787,-70.93804
"Monsters And Mermaids","Tin Can Alley > Hillside > *Pawtuckaway > New Hampshire",https://www.mountainproject.com/route/108437432/monsters-and-mermaids,1.7,-1,Boulder,V10-11,1,15,43.1163,-71.17782
"The Mammoth Dyno Project","The Mammoth Rock > Mammoth Rock Area > The North End > Clough State Park > Merrimack Valley > New Hampshire",https://www.mountainproject.com/route/112133110/the-mammoth-dyno-project,1.0,-1,Boulder,V10-11,1,8,43.09347,-71.66363
