Route,Location,URL,"Avg Stars","Your Stars","Route Type",Rating,Pitches,Length,"Area Latitude","Area Longitude"
"Hershey's Symphony","Sign of the Choss > North Mountain > Hueco Tanks > Texas",https://www.mountainproject.com/route/106412481/hersheys-symphony,3.6,-1,Boulder,"V1 PG13",1,25,31.9255,-106.04368
"Que Lindo","Little New Wall > Rogers Park > Lake Belton > Texas",https://www.mountainproject.com/route/107065501/que-lindo,3.1,-1,Boulder,V1,1,15,31.15923,-97.49166
"Satan, Satan, Satan","Dragon's Den > East Mountain > Hueco Tanks > Texas",https://www.mountainproject.com/route/110828642/satan-satan-satan,2.9,-1,Boulder,V1,1,12,31.9171,-106.0391
"The Backscratcher","Warm Up Wall > North Mountain > Hueco Tanks > Texas",https://www.mountainproject.com/route/106432685/the-backscratcher,3.3,-1,Boulder,V1,1,,31.9225,-106.0445
"The Laughing Sutra","See-thru Hueco Boulder > North Mountain > Hueco Tanks > Texas",https://www.mountainproject.com/route/107052309/the-laughing-sutra,3.0,-1,Boulder,V1,1,18,31.92284,-106.04686
"Lunch Rock Direct","Lunch Rock Area > Echo Canyon > Enchanted Rock State Natural Area > Texas",https://www.mountainproject.com/route/106967320/lunch-rock-direct,2.6,-1,Boulder,V1,1,25,30.505,-98.82189
"Mrs. Potatohead","The Small Potatoes > North Mountain > Hueco Tanks > Texas",https://www.mountainproject.com/route/107063494/mrs-potatohead,2.1,-1,Boulder,V1,1,8,31.9224,-106.0433
"Flying Irishman","Alpha Group > The River Boulders > Paluxy River Boulders > Texas",https://www.mountainproject.com/route/107185847/flying-irishman,4.0,-1,Boulder,V1,1,12,32.237,-97.7413
"Left of Classic","Frontside Boulders > Parking Lot Boulders > Bull Creek Park > Austin Area > Texas",https://www.mountainproject.com/route/109214643/left-of-classic,2.5,-1,Boulder,V1,1,,30.36603,-97.78626
"Clay and Garry","Old Bailey > Bailey Hollow > Texas",https://www.mountainproject.com/route/122446433/clay-and-garry,4.0,-1,Boulder,V1,1,23,32.1697,-97.4558
"Stress Fracture","Injury Wall > Kingdom of Zilch > Little Dome > Enchanted Rock State Natural Area > Texas",https://www.mountainproject.com/route/106961969/stress-fracture,3.6,-1,Boulder,V1,1,15,30.4996,-98.8224
"Mr. Potato Head","The Small Potatoes > North Mountain > Hueco Tanks > Texas",https://www.mountainproject.com/route/108780091/mr-potato-head,2.5,-1,Boulder,V1,1,14,31.9224,-106.0433
"Pull the Pin","The Grenade > North Mountain > Hueco Tanks > Texas",https://www.mountainproject.com/route/105811235/pull-the-pin,2.0,-1,Boulder,V1,1,,31.9221,-106.0438
"Dung Hold","The Enclave (Bouldering) > Barton Creek Greenbelt > Austin Area > Texas",https://www.mountainproject.com/route/117285326/dung-hold,3.4,-1,Boulder,V1,1,8,30.25616,-97.79329
"Left of Crack","[Redacted] > Barton Creek Greenbelt > Austin Area > Texas",https://www.mountainproject.com/route/113331515/left-of-crack,2.6,-1,Boulder,V1,1,,30.24853,-97.79687
"NE Face","Deliverance area > North Mountain > Hueco Tanks > Texas",https://www.mountainproject.com/route/118246152/ne-face,3.0,-1,Boulder,"V1 PG13",1,20,31.92392,-106.04797
"Skull Fracture","Injury Wall > Kingdom of Zilch > Little Dome > Enchanted Rock State Natural Area > Texas",https://www.mountainproject.com/route/106961978/skull-fracture,3.0,-1,Boulder,V1,1,10,30.4996,-98.8224
"Woman Of Leisure","The Big Time > North Mountain > Hueco Tanks > Texas",https://www.mountainproject.com/route/107072230/woman-of-leisure,2.1,-1,Boulder,V1,1,15,31.9222,-106.0434
"Wonderhole (CLOSED)","Lunch Rocks > North Mountain > Hueco Tanks > Texas",https://www.mountainproject.com/route/107062767/wonderhole-closed,1.9,-1,Boulder,V1,1,10,31.92393,-106.04793
Megatron,"The Dugout (West) > Reimers Ranch North Boulders > Austin Area > Texas",https://www.mountainproject.com/route/117397821/megatron,3.0,-1,Boulder,V1,1,,30.37409,-98.1253
"Short Stuff","Short Stuff Boulder > The Boulder Gardens > Palo Duro Canyon State Park > Texas",https://www.mountainproject.com/route/107092695/short-stuff,2.6,-1,Boulder,V1,1,10,34.94156,-101.65225
Underdog,"Frontside Boulders > Parking Lot Boulders > Bull Creek Park > Austin Area > Texas",https://www.mountainproject.com/route/113210867/underdog,2.9,-1,Boulder,V1,1,,30.36603,-97.78626
"Afterburn LS","Rival Wall > Tonkawa Falls > Texas",https://www.mountainproject.com/route/106992355/afterburn-ls,2.7,-1,Boulder,V1,1,12,31.53632,-97.43188
"Chronicles of JAD","Project Wall > McKinney Falls State Park > Austin Area > Texas",https://www.mountainproject.com/route/119208042/chronicles-of-jad,3.2,-1,Boulder,V1,1,12,30.1862,-97.72235
"Sloper Groper","Big Chief Boulder > Parking Lot Boulders > Bull Creek Park > Austin Area > Texas",https://www.mountainproject.com/route/113239374/sloper-groper,2.7,-1,Boulder,V1,1,,30.36604,-97.78611
Bird,"Villas Wall > Austin Area > Texas",https://www.mountainproject.com/route/119942158/bird,3.0,-1,Boulder,V1,1,12,30.28586,-97.74378
"Unknown wall 1","The Maze > East Spur > Hueco Tanks > Texas",https://www.mountainproject.com/route/107505504/unknown-wall-1,3.0,-1,Boulder,V1,1,15,31.9108,-106.0372
"Bad Route","Girls of Juarez > North Mountain > Hueco Tanks > Texas",https://www.mountainproject.com/route/122029371/bad-route,3.0,-1,Boulder,V1,1,10,31.92249,-106.04448
"Bull Knose","The Dairy Farm / Frog Pond Boulders > Main Dome South > Main Dome > Enchanted Rock State Natural Area > Texas",https://www.mountainproject.com/route/108365330/bull-knose,3.0,-1,Boulder,V1,1,10,30.5031,-98.8158
"East face","Deliverance area > North Mountain > Hueco Tanks > Texas",https://www.mountainproject.com/route/111459954/east-face,2.7,-1,Boulder,V1,1,,31.92392,-106.04797
"The Board Walk","Main Wall > Tonkawa Falls > Texas",https://www.mountainproject.com/route/107129845/the-board-walk,2.8,-1,Boulder,V1,1,20,31.536,-97.43044
"Real Boat","Split Rocks > Little Dome > Enchanted Rock State Natural Area > Texas",https://www.mountainproject.com/route/112074992/real-boat,3.0,-1,Boulder,"V1 R",1,25,30.49896,-98.82201
"Flexin Texan","The Maze > East Spur > Hueco Tanks > Texas",https://www.mountainproject.com/route/112429268/flexin-texan,2.2,-1,Boulder,V1,1,,31.9108,-106.0372
"Guy Smiley","Main Wall > Tonkawa Falls > Texas",https://www.mountainproject.com/route/107162078/guy-smiley,3.0,-1,Boulder,V1,1,12,31.536,-97.43044
"The Butt Grab","5.8 Sanctuary > Barton Creek Greenbelt > Austin Area > Texas",https://www.mountainproject.com/route/120359777/the-butt-grab,2.7,-1,Boulder,V1,1,10,30.2451,-97.7979
"Serpentine Crack","Little Cave > Rogers Park > Lake Belton > Texas",https://www.mountainproject.com/route/118970051/serpentine-crack,2.2,-1,Boulder,V1,1,12,31.15981,-97.48779
"Spud Boy","The Big Time > North Mountain > Hueco Tanks > Texas",https://www.mountainproject.com/route/107072264/spud-boy,2.2,-1,Boulder,V1,1,10,31.9222,-106.0434
"The Worm","The Dugout (East) > Reimers Ranch North Boulders > Austin Area > Texas",https://www.mountainproject.com/route/117539669/the-worm,3.0,-1,Boulder,V1,1,,30.37289,-98.12622
"Bubbles the Monkey","The Dugout (East) > Reimers Ranch North Boulders > Austin Area > Texas",https://www.mountainproject.com/route/117397918/bubbles-the-monkey,3.0,-1,Boulder,V1,1,,30.37289,-98.12622
Galvatron,"The Dugout (West) > Reimers Ranch North Boulders > Austin Area > Texas",https://www.mountainproject.com/route/117397793/galvatron,3.0,-1,Boulder,V1,1,,30.37409,-98.1253
"Look Out Below","Backyard Bouldering Wall > Barton Creek Greenbelt > Austin Area > Texas",https://www.mountainproject.com/route/120679251/look-out-below,3.0,-1,Boulder,V1,1,12,30.25467,-97.79145
"Your Mother And I Are Separating","Dad Boulder > Springfield Park > Austin Area > Texas",https://www.mountainproject.com/route/121119761/your-mother-and-i-are-separating,3.0,-1,"Boulder, Alpine",V1,1,10,30.17148,-97.73353
Wildflower,"Ship Yard Rocks > Tonkawa Falls > Texas",https://www.mountainproject.com/route/121985054/wildflower,3.0,-1,Boulder,V1,1,,31.53632,-97.43188
"Teenage Wasteland","Main Wall > Tonkawa Falls > Texas",https://www.mountainproject.com/route/112192008/teenage-wasteland,3.0,-1,Boulder,V1,1,,31.536,-97.43044
"Come and Take It","Tinaja Boulder > Ernst Tinaja Canyon > Big Bend National Park > Texas",https://www.mountainproject.com/route/112562591/come-and-take-it,3.0,-1,Boulder,V1,1,,29.25642,-103.01123
"4T (Tufa Tufa Tufa Traverse)","Hidden Cave > Tonkawa Falls > Texas",https://www.mountainproject.com/route/107162193/4t-tufa-tufa-tufa-traverse,3.0,-1,Boulder,V1,1,60,31.5373,-97.43111
"Hoppity Spills His Guts","Wall of the rumbling rabbits > West Mountain > Hueco Tanks > Texas",https://www.mountainproject.com/route/110130073/hoppity-spills-his-guts,2.8,-1,Boulder,"V1 PG13",1,,31.9129,-106.0456
"Wanna Throw Up?","Big Rocks Park > Paluxy River Boulders > Texas",https://www.mountainproject.com/route/107005535/wanna-throw-up,3.0,-1,Boulder,V1,1,8,32.2381,-97.7456
"Sol Worship","Big Rocks Park > Paluxy River Boulders > Texas",https://www.mountainproject.com/route/107030906/sol-worship,3.0,-1,Boulder,V1,1,9,32.2381,-97.7456
"The Creep","Poison Ivy Boulder > The Boulder Gardens > Palo Duro Canyon State Park > Texas",https://www.mountainproject.com/route/107250032/the-creep,3.0,-1,Boulder,V1,1,14,34.9435,-101.6534
MotherTrucker,"The New Meadow > North Mountain > Hueco Tanks > Texas",https://www.mountainproject.com/route/109916389/mothertrucker,2.3,-1,Boulder,V1,1,10,31.9232,-106.0437
"Will All The Real Spray Lords Please Stand Up","Injury Wall > Kingdom of Zilch > Little Dome > Enchanted Rock State Natural Area > Texas",https://www.mountainproject.com/route/106972681/will-all-the-real-spray-lords-please-stand-up,2.8,-1,Boulder,V1,1,10,30.4996,-98.8224
"The Shield","The Shield > Tonkawa Falls > Texas",https://www.mountainproject.com/route/106992411/the-shield,2.8,-1,Boulder,V1,1,,31.53632,-97.43188
Barnstormer,"Warm Up Boulder > North Mountain > Hueco Tanks > Texas",https://www.mountainproject.com/route/107063012/barnstormer,2.4,-1,Boulder,V1,1,15,31.926,-106.0449
"Little Wimpy","Frontside Boulders > Parking Lot Boulders > Bull Creek Park > Austin Area > Texas",https://www.mountainproject.com/route/113239402/little-wimpy,2.4,-1,Boulder,V1,1,,30.36603,-97.78626
"Milk Moustache","The Dairy Farm / Frog Pond Boulders > Main Dome South > Main Dome > Enchanted Rock State Natural Area > Texas",https://www.mountainproject.com/route/108365307/milk-moustache,2.6,-1,Boulder,V1,1,10,30.5031,-98.8158
"General Malaise","Little Cave > Rogers Park > Lake Belton > Texas",https://www.mountainproject.com/route/107233386/general-malaise,2.1,-1,Boulder,V1,1,13,31.15981,-97.48779
"Anything but Dull","The Aircraft Carrier > East Mountain > Hueco Tanks > Texas",https://www.mountainproject.com/route/107030056/anything-but-dull,2.7,-1,Boulder,V1,1,20,31.9171,-106.0391
Willis,"Different Strokes Wall > Nolan River > Texas",https://www.mountainproject.com/route/106994639/willis,2.7,-1,Boulder,V1,1,,32.15015,-97.40418
"The Aret","Two Pin Boulder > The Boulder Gardens > Palo Duro Canyon State Park > Texas",https://www.mountainproject.com/route/107186713/the-aret,2.7,-1,Boulder,V1,1,15,34.94047,-101.64799
"Beech Nut","Lone Wall > Tonkawa Falls > Texas",https://www.mountainproject.com/route/107018031/beech-nut,2.7,-1,Boulder,V1,1,15,31.5367,-97.4312
Longhorn,"The Enclave (Bouldering) > Barton Creek Greenbelt > Austin Area > Texas",https://www.mountainproject.com/route/114535342/longhorn,2.5,-1,Boulder,V1,1,10,30.25616,-97.79329
"Oreo Warmup","Oreo Boulder > The Boulder Gardens > Palo Duro Canyon State Park > Texas",https://www.mountainproject.com/route/107135907/oreo-warmup,2.4,-1,Boulder,V1,1,14,34.94214,-101.65214
Layback,"Frontside Boulders > Parking Lot Boulders > Bull Creek Park > Austin Area > Texas",https://www.mountainproject.com/route/113210837/layback,1.9,-1,Boulder,V1,1,,30.36603,-97.78626
"Gumby Traverse","The New Meadow > North Mountain > Hueco Tanks > Texas",https://www.mountainproject.com/route/107995325/gumby-traverse,1.7,-1,Boulder,V1,1,,31.9232,-106.0437
Word,"[Redacted] > Barton Creek Greenbelt > Austin Area > Texas",https://www.mountainproject.com/route/113331614/word,1.9,-1,Boulder,V1,1,,30.24853,-97.79687
"Big Chief","Big Chief Boulder > Parking Lot Boulders > Bull Creek Park > Austin Area > Texas",https://www.mountainproject.com/route/109214774/big-chief,2.1,-1,Boulder,V1,1,,30.36604,-97.78611
"Cottage Cheese Face","The Dairy Farm / Frog Pond Boulders > Main Dome South > Main Dome > Enchanted Rock State Natural Area > Texas",https://www.mountainproject.com/route/110003556/cottage-cheese-face,2.3,-1,Boulder,V1,1,10,30.5031,-98.8158
"Banana Man","Rope Swing Boulder > Parking Lot Boulders > Bull Creek Park > Austin Area > Texas",https://www.mountainproject.com/route/116135243/banana-man,2.4,-1,Boulder,V1,1,,30.36616,-97.78605
"Sick Cat left","Crazy Cat a.k.a. Palisades > Franklin Mountain Range > Texas",https://www.mountainproject.com/route/108325467/sick-cat-left,2.3,-1,Boulder,V1,1,7,31.79399,-106.49088
"Vertical Tooth Fracture 5.7 V1","Doogie Howser alcove > Medicine Wall > Texas",https://www.mountainproject.com/route/122024984/vertical-tooth-fracture-57-v1,2.5,-1,"Trad, TR, Boulder",V1,1,20,29.60354,-98.55184
[Redacted],"The Dugout (East) > Reimers Ranch North Boulders > Austin Area > Texas",https://www.mountainproject.com/route/117536514/redacted,2.5,-1,Boulder,V1,1,,30.37289,-98.12622
Frankenstem,"The Small Potatoes > North Mountain > Hueco Tanks > Texas",https://www.mountainproject.com/route/118329012/frankenstem,2.5,-1,Boulder,"V1 R",1,30,31.9224,-106.0433
"Con Cuidado","Little New Wall > Rogers Park > Lake Belton > Texas",https://www.mountainproject.com/route/109249885/con-cuidado,2.1,-1,Boulder,V1,1,15,31.15923,-97.49166
"Ghherkin in a Merkin","Hairy Boulder > North Mountain > Hueco Tanks > Texas",https://www.mountainproject.com/route/111459930/ghherkin-in-a-merkin,2.3,-1,Boulder,V1,1,,31.92476,-106.04707
"Cheese Grater Simulator","Simulator Slab > The Boulder Gardens > Palo Duro Canyon State Park > Texas",https://www.mountainproject.com/route/107388989/cheese-grater-simulator,2.5,-1,Boulder,V1,1,14,34.9419,-101.6512
"Texas Is The Reason For The Season","Alpha Group > The River Boulders > Paluxy River Boulders > Texas",https://www.mountainproject.com/route/106834498/texas-is-the-reason-for-the-season,2.0,-1,Boulder,V1,1,10,32.237,-97.7413
"Milk Belly","The Dairy Farm / Frog Pond Boulders > Main Dome South > Main Dome > Enchanted Rock State Natural Area > Texas",https://www.mountainproject.com/route/110003580/milk-belly,2.1,-1,Boulder,V1,1,10,30.5031,-98.8158
"Smooth Criminal","Georgetown Hospital > Austin Area > Texas",https://www.mountainproject.com/route/120519672/smooth-criminal,2.8,-1,Boulder,"V1 R",1,15,30.6266,-97.6895
"Chocolate Thunder","Michael Kenyon > North Mountain > Hueco Tanks > Texas",https://www.mountainproject.com/route/118246238/chocolate-thunder,2.3,-1,Boulder,V1,1,20,31.9225,-106.0445
"Human Shot Putt","Tabloid Pass > East Mountain > Hueco Tanks > Texas",https://www.mountainproject.com/route/111402577/human-shot-putt,2.0,-1,Boulder,V1,1,8,31.914,-106.0376
"Twice as Nice","Nice Boulder > Fossil Ridge > Eisenhower State Park > Texas",https://www.mountainproject.com/route/111320141/twice-as-nice,2.3,-1,Boulder,V1,1,10,33.82469,-96.61498
"A Wing And A Prayer","Big Rocks Park > Paluxy River Boulders > Texas",https://www.mountainproject.com/route/106834533/a-wing-and-a-prayer,2.3,-1,Boulder,V1,1,10,32.2381,-97.7456
"Overhang Left","The Overhang > The Fourth Water Crossing Boulders > Palo Duro Canyon State Park > Texas",https://www.mountainproject.com/route/107187552/overhang-left,2.3,-1,Boulder,V1,1,8,34.9845,-101.7017
"Pussy Route","Lost Cause Boulder > Lower Lost Boulders > North Mountain > Hueco Tanks > Texas",https://www.mountainproject.com/route/120135516/pussy-route,2.2,-1,Boulder,V1,1,,31.92198,-106.04174
"Nice Arete","Nice Boulder > Fossil Ridge > Eisenhower State Park > Texas",https://www.mountainproject.com/route/111320149/nice-arete,2.3,-1,Boulder,V1,1,10,33.82469,-96.61498
"mopboys crack right","Mopboys > North Mountain > Hueco Tanks > Texas",https://www.mountainproject.com/route/110020169/mopboys-crack-right,2.3,-1,Boulder,V1,1,,31.9235,-106.04536
Barefoot,"Barefoot Boulder > The Boulder Gardens > Palo Duro Canyon State Park > Texas",https://www.mountainproject.com/route/107185166/barefoot,2.3,-1,Boulder,V1,1,10,34.94137,-101.65241
"Beach Time","The New Meadow > North Mountain > Hueco Tanks > Texas",https://www.mountainproject.com/route/111000415/beach-time,1.8,-1,Boulder,V1,1,,31.9232,-106.0437
"Automatic Choke","Warm Up Roof > East Mountain > Hueco Tanks > Texas",https://www.mountainproject.com/route/116641363/automatic-choke,2.2,-1,Boulder,V1,1,,31.91964,-106.03994
Pho,"CAB boulder > Fossil Ridge > Eisenhower State Park > Texas",https://www.mountainproject.com/route/109994310/pho,2.0,-1,Boulder,V1,1,10,33.82474,-96.61499
"Left Wannabe","Mushroom Boulder > North Mountain > Hueco Tanks > Texas",https://www.mountainproject.com/route/105810994/left-wannabe,1.9,-1,Boulder,V1,1,,31.92169,-106.0425
Starscape,"Right of The Bow > Fiesta Wall > Texas",https://www.mountainproject.com/route/118139567/starscape,2.0,-1,Boulder,V1,1,8,29.60195,-98.60255
"Purple Rain","Left of The Bow > Fiesta Wall > Texas",https://www.mountainproject.com/route/118215277/purple-rain,2.0,-1,Boulder,V1,1,12,29.60171,-98.60214
"Swiss High","Left of The Bow > Fiesta Wall > Texas",https://www.mountainproject.com/route/118623509/swiss-high,2.0,-1,Boulder,V1,1,12,29.60171,-98.60214
Mid-term,"Term Boulder > North Mountain > Hueco Tanks > Texas",https://www.mountainproject.com/route/107154009/mid-term,2.0,-1,Boulder,V1,1,10,31.92435,-106.04371
"The Humidifier","The Beehives > East Mountain > Hueco Tanks > Texas",https://www.mountainproject.com/route/111452215/the-humidifier,1.9,-1,Boulder,V1,1,,31.9171,-106.0391
Chimera,"Left of The Bow > Fiesta Wall > Texas",https://www.mountainproject.com/route/118215199/chimera,2.0,-1,Boulder,V1,1,15,29.60171,-98.60214
"Card Tricks","Illusion boulder > Elm Point > Eisenhower State Park > Texas",https://www.mountainproject.com/route/113704358/card-tricks,2.0,-1,Boulder,V1,1,15,33.82998,-96.61996
"Wolf Spider","Project Wall > McKinney Falls State Park > Austin Area > Texas",https://www.mountainproject.com/route/109168628/wolf-spider,1.7,-1,Boulder,V1,1,,30.1862,-97.72235
Anthem,"The Dugout (West) > Reimers Ranch North Boulders > Austin Area > Texas",https://www.mountainproject.com/route/117390612/anthem,1.7,-1,Boulder,V1,1,,30.37409,-98.1253
"Dug In","Tora Bora Cave > Bottlecap (Austin) > Austin Area > Texas",https://www.mountainproject.com/route/114043264/dug-in,2.0,-1,Boulder,V1,1,,30.3907,-97.8491
"Boogie Chillun","Main Wall > Tonkawa Falls > Texas",https://www.mountainproject.com/route/112191989/boogie-chillun,2.0,-1,Boulder,"V1 PG13",1,,31.536,-97.43044
"Mopboys Crack Right","Mopboys > North Mountain > Hueco Tanks > Texas",https://www.mountainproject.com/route/110020167/mopboys-crack-right,2.0,-1,Boulder,V1,1,,31.9235,-106.04536
"Sad Cyclops","Sad Cyclops > Rogers Park > Lake Belton > Texas",https://www.mountainproject.com/route/107535744/sad-cyclops,1.6,-1,Boulder,V1,1,13,31.15989,-97.49176
"Like A G6","Big Rocks Park > Paluxy River Boulders > Texas",https://www.mountainproject.com/route/106984971/like-a-g6,2.0,-1,Boulder,V1,1,8,32.2381,-97.7456
"Unknown Left Overhang","North Of The Chains Overhang > North Mountain > Hueco Tanks > Texas",https://www.mountainproject.com/route/107072293/unknown-left-overhang,1.8,-1,Boulder,V1,1,25,31.9225,-106.0445
"Schedule II Substance","Doogie Howser alcove > Medicine Wall > Texas",https://www.mountainproject.com/route/122030255/schedule-ii-substance,2.0,-1,Boulder,"V1 X",1,15,29.60354,-98.55184
"Unknown (right side)","Cub Cave > Texas",https://www.mountainproject.com/route/113803551/unknown-right-side,2.0,-1,Boulder,V1,1,12,29.64744,-98.47002
"The Blocque [name pending]","Mr. Bubble Boulder > Urban Assault Bouldering > Barton Creek Greenbelt > Austin Area > Texas",https://www.mountainproject.com/route/117663365/the-blocque-name-pending,2.0,-1,Boulder,V1,1,10,30.24757,-97.79185
Dubstep,"Main Boulder > UTSA Boulders > Texas",https://www.mountainproject.com/route/114148127/dubstep,2.0,-1,Boulder,V1,1,15,29.57861,-98.60768
"V1 Vert","Dam Boulders > West Mountain > Hueco Tanks > Texas",https://www.mountainproject.com/route/120268523/v1-vert,2.0,-1,Boulder,V1,1,10,31.91559,-106.04608
"Opps I Missed The Bucket","The Dairy Farm / Frog Pond Boulders > Main Dome South > Main Dome > Enchanted Rock State Natural Area > Texas",https://www.mountainproject.com/route/109955620/opps-i-missed-the-bucket,2.0,-1,Boulder,V1,1,10,30.5031,-98.8158
"Little Brother","The Maze / Stairs > Brownwood > Texas",https://www.mountainproject.com/route/114018971/little-brother,2.0,-1,"TR, Boulder","5.8 V1 PG13",1,20,31.83665,-99.0069
"White Tree Arête","Bravo Group > The River Boulders > Paluxy River Boulders > Texas",https://www.mountainproject.com/route/112792752/white-tree-arete,2.0,-1,Boulder,V1,1,10,32.2403,-97.7397
"Just Say Yes To Drugs","Big Rocks Park > Paluxy River Boulders > Texas",https://www.mountainproject.com/route/107005548/just-say-yes-to-drugs,2.0,-1,Boulder,V1,1,8,32.2381,-97.7456
"Slab Shot","Main Wall > Tonkawa Falls > Texas",https://www.mountainproject.com/route/106992389/slab-shot,2.0,-1,Boulder,V1,1,,31.536,-97.43044
"Meet me at the Stardust","Main Wall > Tonkawa Falls > Texas",https://www.mountainproject.com/route/106992382/meet-me-at-the-stardust,2.0,-1,Boulder,V1,1,,31.536,-97.43044
"Slab Left","The Slab > The Fourth Water Crossing Boulders > Palo Duro Canyon State Park > Texas",https://www.mountainproject.com/route/107187512/slab-left,2.0,-1,Boulder,V1,1,8,34.9845,-101.7017
"Chain Gang","The Small Potatoes > North Mountain > Hueco Tanks > Texas",https://www.mountainproject.com/route/123457496/chain-gang,2.0,-1,Boulder,V1,1,,31.9224,-106.0433
"Gerry Mandering","The Industrial Wall > Bottlecap (Austin) > Austin Area > Texas",https://www.mountainproject.com/route/121896247/gerry-mandering,2.0,-1,Boulder,V1,1,12,30.3907,-97.8491
Phoenix,"Purgatory Creek Natural Area > Texas",https://www.mountainproject.com/route/120013423/phoenix,2.0,-1,Boulder,"V1 R",1,16,29.87519,-97.97601
"Wife on Ice","The Big Time > North Mountain > Hueco Tanks > Texas",https://www.mountainproject.com/route/118331318/wife-on-ice,2.0,-1,Boulder,"V1 PG13",1,17,31.9222,-106.0434
"Love Joy Left Exit","The Dugout (East) > Reimers Ranch North Boulders > Austin Area > Texas",https://www.mountainproject.com/route/117400889/love-joy-left-exit,2.0,-1,Boulder,V1,1,,30.37289,-98.12622
Sweet-n-Low,"Bluff Street > Reimers Ranch North Boulders > Austin Area > Texas",https://www.mountainproject.com/route/117390061/sweet-n-low,2.0,-1,Boulder,V1,1,,30.37346,-98.12546
"Standing Ovation","Big Rocks Park > Paluxy River Boulders > Texas",https://www.mountainproject.com/route/120248967/standing-ovation,2.0,-1,Boulder,V1,1,12,32.2381,-97.7456
"Split Grain","Split & Malice Boulders > North Mountain > Hueco Tanks > Texas",https://www.mountainproject.com/route/117927308/split-grain,2.0,-1,Boulder,"V1 PG13",1,25,31.92249,-106.04812
"Big shot","Warm Up Boulder > North Mountain > Hueco Tanks > Texas",https://www.mountainproject.com/route/114576686/big-shot,2.0,-1,Boulder,V1,1,,31.926,-106.0449
"Lava River A.K.A. Arachnophobia","Hydrophobia area > Nolan River > Texas",https://www.mountainproject.com/route/118817153/lava-river-aka-arachnophobia,2.0,-1,Boulder,V1,1,,32.1464,-97.39547
"Needs A Name 5","Billiards Wall > Rogers Park > Lake Belton > Texas",https://www.mountainproject.com/route/120376975/needs-a-name-5,2.0,-1,Boulder,V1,1,,31.16031,-97.48947
"Daivd's Warm Up","Nautilus Cave > Tonkawa Falls > Texas",https://www.mountainproject.com/route/121985082/daivds-warm-up,2.5,-1,Boulder,V1,1,,31.53713,-97.43121
Odin,"Main Boulder > UTSA Boulders > Texas",https://www.mountainproject.com/route/114148158/odin,2.0,-1,Boulder,V1,1,,29.57861,-98.60768
"Tough Drive","Main Boulder > UTSA Boulders > Texas",https://www.mountainproject.com/route/114148150/tough-drive,2.0,-1,Boulder,V1,1,,29.57861,-98.60768
"Summer Sunset","Solstice Slabset > Stonehenge Odessa > Texas",https://www.mountainproject.com/route/118575185/summer-sunset,2.0,-1,Boulder,V1,1,10,31.89185,-102.32618
"Summer Sunrise","Solstice Slabset > Stonehenge Odessa > Texas",https://www.mountainproject.com/route/118575119/summer-sunrise,2.0,-1,Boulder,V1,1,10,31.89185,-102.32618
"Pop a squat","Factor Boulder > Grapevine North > Grapevine Hills Bouldering > Big Bend National Park > Texas",https://www.mountainproject.com/route/112793081/pop-a-squat,2.0,-1,Boulder,V1,1,,29.41139,-103.20442
"Ten Inch Plastic Boyfriend","The Maze > East Spur > Hueco Tanks > Texas",https://www.mountainproject.com/route/110535197/ten-inch-plastic-boyfriend,1.9,-1,Boulder,V1,1,10,31.9108,-106.0372
Confused,"The Maze / Stairs > Brownwood > Texas",https://www.mountainproject.com/route/114018942/confused,2.0,-1,Boulder,"V1 PG13",1,20,31.83665,-99.0069
"Choss Boss","The Maze / Stairs > Brownwood > Texas",https://www.mountainproject.com/route/114019046/choss-boss,2.0,-1,Boulder,"V1 PG13",1,20,31.83665,-99.0069
Teahupoo,"Big Rocks Park > Paluxy River Boulders > Texas",https://www.mountainproject.com/route/106992421/teahupoo,2.0,-1,Boulder,V1,1,6,32.2381,-97.7456
"Sweet Nebula","The Mothership > Back Country > Palo Duro Canyon State Park > Texas",https://www.mountainproject.com/route/108331876/sweet-nebula,2.0,-1,Boulder,V1,1,7,34.92668,-101.61852
"Home Is Wherever I'm With You","Bravo Group > The River Boulders > Paluxy River Boulders > Texas",https://www.mountainproject.com/route/107188786/home-is-wherever-im-with-you,2.0,-1,Boulder,V1,1,20,32.2403,-97.7397
"Short Buzz","Lonesome Wasp Boulder > Sorenson Point (Bouldering) > Palo Duro Canyon State Park > Texas",https://www.mountainproject.com/route/107371408/short-buzz,2.0,-1,Boulder,V1,1,7,34.97059,-101.66924
Fici’s,"The New Meadow > North Mountain > Hueco Tanks > Texas",https://www.mountainproject.com/route/123356545/ficis,1.7,-1,Boulder,V1,1,,31.9232,-106.0437
"Splitter Splatter","Split & Malice Boulders > North Mountain > Hueco Tanks > Texas",https://www.mountainproject.com/route/123522916/splitter-splatter,2.0,-1,Boulder,V1,1,,31.92249,-106.04812
"Gravel Left","Gravel Boulder > The Boulder Gardens > Palo Duro Canyon State Park > Texas",https://www.mountainproject.com/route/107187711/gravel-left,1.8,-1,Boulder,V1,1,12,34.94134,-101.65067
"Heel My Eye","Secret Clubhouse > Point of Rocks > Texas",https://www.mountainproject.com/route/114084881/heel-my-eye,1.6,-1,Boulder,V1,1,12,30.53537,-104.06372
"Spud Boy","The Small Potatoes > North Mountain > Hueco Tanks > Texas",https://www.mountainproject.com/route/111233090/spud-boy,1.8,-1,Boulder,"V1 PG13",1,9,31.9224,-106.0433
"Wanksters Make The World Go Round","Big Rocks Park > Paluxy River Boulders > Texas",https://www.mountainproject.com/route/106984959/wanksters-make-the-world-go-round,1.8,-1,Boulder,V1,1,8,32.2381,-97.7456
"Pooper Scooper","Pilgrims Pride & Jizzercise Boulders > Nolan River > Texas",https://www.mountainproject.com/route/112572252/pooper-scooper,1.7,-1,Boulder,V1,1,,32.14974,-97.40493
"Tell Mama","Lunch Rocks > North Mountain > Hueco Tanks > Texas",https://www.mountainproject.com/route/109743663/tell-mama,1.4,-1,Boulder,V1,1,,31.92393,-106.04793
"Rocking Cradle","Sign of the Cross > North Mountain > Hueco Tanks > Texas",https://www.mountainproject.com/route/110033738/rocking-cradle,1.3,-1,Boulder,V1,1,,31.9246,-106.0433
"The Prow (jump start)","The Dairy Farm / Frog Pond Boulders > Main Dome South > Main Dome > Enchanted Rock State Natural Area > Texas",https://www.mountainproject.com/route/114009379/the-prow-jump-start,1.7,-1,Boulder,V1,1,10,30.5031,-98.8158
Rotgut,"White Trash Wall > Wimberley > Texas",https://www.mountainproject.com/route/118707021/rotgut,1.5,-1,Boulder,V1,1,,29.98432,-98.1133
Ascension,"Main Boulder > UTSA Boulders > Texas",https://www.mountainproject.com/route/114148122/ascension,1.5,-1,Boulder,V1,1,15,29.57861,-98.60768
Peckercracker,"Raging Pecker Area > East Mountain > Hueco Tanks > Texas",https://www.mountainproject.com/route/114287248/peckercracker,1.5,-1,Boulder,V1,1,12,31.9171,-106.0391
"A Lil Ripe","Ripe Boulders > Grapevine North > Grapevine Hills Bouldering > Big Bend National Park > Texas",https://www.mountainproject.com/route/112793120/a-lil-ripe,1.5,-1,Boulder,V1,1,,29.41168,-103.20424
"""Just Dyno To The Top!""","Alpha Group > The River Boulders > Paluxy River Boulders > Texas",https://www.mountainproject.com/route/107197662/just-dyno-to-the-top,1.5,-1,Boulder,V1,1,12,32.237,-97.7413
"Ranga Seat","Vortex Boulder > The Boulder Gardens > Palo Duro Canyon State Park > Texas",https://www.mountainproject.com/route/107204607/ranga-seat,1.5,-1,Boulder,V1,1,13,34.94226,-101.64966
"Southwest Arête","[Redacted] > Barton Creek Greenbelt > Austin Area > Texas",https://www.mountainproject.com/route/113396269/southwest-arete,1.0,-1,Boulder,V1,1,,30.24853,-97.79687
"Woman of Leisure","The Small Potatoes > North Mountain > Hueco Tanks > Texas",https://www.mountainproject.com/route/122995009/woman-of-leisure,2.0,-1,Boulder,V1,1,10,31.9224,-106.0433
"The Reject","Trac II > North Mountain > Hueco Tanks > Texas",https://www.mountainproject.com/route/111615394/the-reject,1.0,-1,Boulder,V1,1,,31.9217,-106.0456
"Term Crack","Term Boulder > North Mountain > Hueco Tanks > Texas",https://www.mountainproject.com/route/107154015/term-crack,1.3,-1,Boulder,V1,1,10,31.92435,-106.04371
"The First Stroke","Different Strokes Wall > Nolan River > Texas",https://www.mountainproject.com/route/122172015/the-first-stroke,1.0,-1,Boulder,V1,1,,32.15015,-97.40418
Scoop,"Slab Fracture Boulder > Medicine Wall > Texas",https://www.mountainproject.com/route/122024039/scoop,1.0,-1,Boulder,V1,1,9,29.60372,-98.54812
"The Thighburner","Lunch Rocks > North Mountain > Hueco Tanks > Texas",https://www.mountainproject.com/route/116162828/the-thighburner,1.0,-1,Boulder,V1,1,14,31.92393,-106.04793
Soundwave,"The Dugout (West) > Reimers Ranch North Boulders > Austin Area > Texas",https://www.mountainproject.com/route/117397783/soundwave,1.0,-1,Boulder,V1,1,,30.37409,-98.1253
"Big Dipper","North Star Boulder > Stonehenge Odessa > Texas",https://www.mountainproject.com/route/118560728/big-dipper,1.0,-1,Boulder,V1,1,11,31.89224,-102.32556
"Slick Willy's Lament","Water boulder #2 > Parking Lot Boulders > Bull Creek Park > Austin Area > Texas",https://www.mountainproject.com/route/118223457/slick-willys-lament,1.0,-1,Boulder,V1,1,,30.36613,-97.78551
"The Promise of Addiction","The errorzone > Miller Springs Bouldering > Miller Springs > Lake Belton > Texas",https://www.mountainproject.com/route/120245535/the-promise-of-addiction,1.0,-1,Boulder,V1,1,12,31.10648,-97.46298
Forgotten,"Forgotten Boulder > Bike Trail Area > Lake Palo Duro > Texas",https://www.mountainproject.com/route/118754861/forgotten,1.0,-1,Boulder,V1,1,13,36.33992,-101.155
"Out of the Woods","The Woods > Bike Trail Area > Lake Palo Duro > Texas",https://www.mountainproject.com/route/118800009/out-of-the-woods,1.0,-1,Boulder,V1,1,12,36.33985,-101.15491
Welcome,"The Maze / Stairs > Brownwood > Texas",https://www.mountainproject.com/route/114018904/welcome,1.0,-1,Boulder,"V1 PG13",1,10,31.83665,-99.0069
"The Spread","The Maze / Stairs > Brownwood > Texas",https://www.mountainproject.com/route/114018979/the-spread,1.0,-1,Boulder,"V1 PG13",1,20,31.83665,-99.0069
"Cheap and Easy","The Last Wall > Brownwood > Texas",https://www.mountainproject.com/route/114015515/cheap-and-easy,1.0,-1,"TR, Boulder",V1,1,15,31.83697,-99.00573
Fin,"The Maze / Stairs > Brownwood > Texas",https://www.mountainproject.com/route/114018988/fin,1.0,-1,Boulder,"V1 PG13",1,20,31.83665,-99.0069
Acrylic,"Crazy Cat a.k.a. Palisades > Franklin Mountain Range > Texas",https://www.mountainproject.com/route/108325444/acrylic,1.0,-1,Boulder,"V1 PG13",1,9,31.79399,-106.49088
"Last Train to Clarksville","The Gunks > East Spur > Hueco Tanks > Texas",https://www.mountainproject.com/route/110091907/last-train-to-clarksville,1.0,-1,Boulder,V1,1,,31.9108,-106.0372
"man in a cage","The Gunks > East Spur > Hueco Tanks > Texas",https://www.mountainproject.com/route/110091889/man-in-a-cage,1.0,-1,Boulder,V1,1,,31.9108,-106.0372
"Goodnight Tree","Goodnight Boulder > The Boulder Gardens > Palo Duro Canyon State Park > Texas",https://www.mountainproject.com/route/107371399/goodnight-tree,1.0,-1,Boulder,"V1 PG13",1,13,34.9407,-101.6502
Postverse,"Sign of the Cross > North Mountain > Hueco Tanks > Texas",https://www.mountainproject.com/route/123238482/postverse,1.5,-1,Boulder,V1,1,,31.9246,-106.0433
"Playtex Wife","The Morgue > North Mountain > Hueco Tanks > Texas",https://www.mountainproject.com/route/123554540/playtex-wife,2.5,-1,Boulder,V1,1,,31.92538,-106.04439
Larry,"The Morgue > North Mountain > Hueco Tanks > Texas",https://www.mountainproject.com/route/123554768/larry,2.0,-1,Boulder,V1,1,12,31.92538,-106.04439
"Three Step Corner","Bridge - North Wall > Renner Road > Texas",https://www.mountainproject.com/route/123592800/three-step-corner,2.0,-1,Boulder,V1,1,13,32.99465,-96.70704
"Tiger Beat","Warm Up Roof > East Mountain > Hueco Tanks > Texas",https://www.mountainproject.com/route/123614176/tiger-beat,2.3,-1,Boulder,V1,1,11,31.91964,-106.03994
"Butt Buddy","The Three Stack > North Mountain > Hueco Tanks > Texas",https://www.mountainproject.com/route/123627415/butt-buddy,1.3,-1,Boulder,V1,1,8,31.9225,-106.0445
Cheapskate,"Lost Puppy Boulder > North Mountain > Hueco Tanks > Texas",https://www.mountainproject.com/route/123632173/cheapskate,1.3,-1,Boulder,V1,1,8,31.9225,-106.0445
"Rainbow Trout","Yellow Pages Wall > Freshman Mountain > Enchanted Rock State Natural Area > Texas",https://www.mountainproject.com/route/123795035/rainbow-trout,2.0,-1,Boulder,V1,1,15,30.50829,-98.81132
"Spearpoint Slab","The Enclave (Bouldering) > Barton Creek Greenbelt > Austin Area > Texas",https://www.mountainproject.com/route/123810014/spearpoint-slab,4.0,-1,Boulder,V1,1,,30.25616,-97.79329
"Right Arete","Hueco Bouldering Wall > Dedman Center for Lifetime Sports at SMU > Texas",https://www.mountainproject.com/route/123945198/right-arete,3.0,-1,Boulder,V1,1,12,32.83923,-96.78106
"Cathedral Corner","Sign of the Cross > North Mountain > Hueco Tanks > Texas",https://www.mountainproject.com/route/124123856/cathedral-corner,2.6,-1,Boulder,V1,1,,31.9246,-106.0433
Spinner,"Sign of the Cross > North Mountain > Hueco Tanks > Texas",https://www.mountainproject.com/route/124124016/spinner,1.5,-1,Boulder,V1,1,,31.9246,-106.0433
"Drawn to the Blood","Fort Worth Urban Bouldering > Texas",https://www.mountainproject.com/route/124830209/drawn-to-the-blood,2.0,-1,Boulder,V1,1,12,32.75047,-97.34938
"Just for the Heel of It","Rockslide Boulder > Quiet Canyon > Big Bend National Park > Texas",https://www.mountainproject.com/route/125096669/just-for-the-heel-of-it,2.0,-1,Boulder,V1,1,8,29.27784,-103.7889
"Easy Peezy Lemon Squeezy","Crazy Cat a.k.a. Palisades > Franklin Mountain Range > Texas",https://www.mountainproject.com/route/125153413/easy-peezy-lemon-squeezy,3.0,-1,Boulder,V1,1,16,31.79399,-106.49088
"Where's the Hypotenuse","Stan and Lou's Boulders > Main Dome South > Main Dome > Enchanted Rock State Natural Area > Texas",https://www.mountainproject.com/route/125283350/wheres-the-hypotenuse,2.0,-1,Boulder,V1,1,12,30.50357,-98.81618
"Stan and Lou Meet Their Maker","Stan and Lou's Boulders > Main Dome South > Main Dome > Enchanted Rock State Natural Area > Texas",https://www.mountainproject.com/route/125283411/stan-and-lou-meet-their-maker,2.0,-1,Boulder,V1,1,14,30.50357,-98.81618
"Strap on the Depends","Carnivore Boulders > Little Dome > Enchanted Rock State Natural Area > Texas",https://www.mountainproject.com/route/125286286/strap-on-the-depends,2.0,-1,Boulder,"V1 R",1,30,30.49822,-98.82783
"Options LTD","Chert Face > Bike Trail Area > Lake Palo Duro > Texas",https://www.mountainproject.com/route/125767868/options-ltd,1.0,-1,Boulder,V1,1,18,36.33962,-101.15492
