Route,Location,URL,"Avg Stars","Your Stars","Route Type",Rating,Pitches,Length,"Area Latitude","Area Longitude"
"john coal train","Browns Island > Richmond Vicinity > Central & Southern VA Region > Virginia",https://www.mountainproject.com/route/119096684/john-coal-train,3.5,-1,Sport,5.12a/b,1,60,37.53372,-77.44224
"Don't Pro the Flake Bro","Reflector Oven > Old Rag > Shenandoah National Park > Shenandoah & NW VA Region > Virginia",https://www.mountainproject.com/route/107486515/dont-pro-the-flake-bro,3.2,-1,"Trad, Sport","5.12a/b PG13",2,190,38.55,-78.3089
"It Takes A Village","Big Shot > Mile 3 Routes > (3) Mile Three > Guest River Gorge > Southwest Virginia (Appalachia) > Virginia",https://www.mountainproject.com/route/116512352/it-takes-a-village,3.0,-1,Sport,5.12a/b,1,75,36.90262,-82.39906
"Postmaster General","Postal Crag > Lower Lightside Routes > Lower Lightside > Lightside > (6) Jaybird Gorge > Guest River Gorge > Southwest Virginia (Appalachia) > Virginia",https://www.mountainproject.com/route/117378150/postmaster-general,3.0,-1,Sport,5.12a/b,1,45,36.89937,-82.41859
"Lenten Temptations","New Beginnings Wall > New Beginnings Area > Mile Two Routes > (2) Mile Two > Guest River Gorge > Southwest Virginia (Appalachia) > Virginia",https://www.mountainproject.com/route/108826729/lenten-temptations,3.0,-1,Sport,5.12a/b,1,90,37.06165,-81.65342
"Shade Tree","Lodges > Towers/Lodges > Breaks Interstate Park > Southwest Virginia (Appalachia) > Virginia",https://www.mountainproject.com/route/124054935/shade-tree,3.0,-1,Sport,5.12a/b,1,65,37.15873,-82.40324
