Route,Location,URL,"Avg Stars","Your Stars","Route Type",Rating,Pitches,Length,"Area Latitude","Area Longitude"
Sigma,"Sigma Wall > Robinson Park > Sandstone > Minnesota",https://www.mountainproject.com/route/105912205/sigma,3.9,-1,Sport,5.12a/b,1,60,46.13653,-92.86031
"Preemptive Strike","Winter Wall > Red Wing (a.k.a. He Mni Can, Barn Bluff) > Minnesota",https://www.mountainproject.com/route/105825179/preemptive-strike,3.5,-1,Sport,5.12a/b,1,60,44.56899,-92.52106
"Sierra Madre","Large Roof Area > Red Wing (a.k.a. He Mni Can, Barn Bluff) > Minnesota",https://www.mountainproject.com/route/119175548/sierra-madre,3.1,-1,Sport,5.12a/b,1,55,44.56992,-92.52484
"Technical Difficulties","Perfect Crimb Area > Red Wing (a.k.a. He Mni Can, Barn Bluff) > Minnesota",https://www.mountainproject.com/route/105831580/technical-difficulties,2.4,-1,Sport,5.12a/b,1,,44.5696,-92.52273
"The Fool's Progress","Palisade Head > Tettegouche SP (North Shore) > Minnesota",https://www.mountainproject.com/route/107244923/the-fools-progress,2.6,-1,Sport,5.12a/b,1,100,47.32016,-91.21086
"Piranha Blues Direct","Cyclops Area > Red Wing (a.k.a. He Mni Can, Barn Bluff) > Minnesota",https://www.mountainproject.com/route/118754122/piranha-blues-direct,2.4,-1,Sport,5.12a/b,1,45,44.56905,-92.52198
"Arbor Day","Relationship Wall > Robinson Park > Sandstone > Minnesota",https://www.mountainproject.com/route/106069804/arbor-day,2.1,-1,"Sport, TR",5.12a/b,1,45,46.13405,-92.85854
