Route,Location,URL,"Avg Stars","Your Stars","Route Type",Rating,Pitches,Length,"Area Latitude","Area Longitude"
Jill's,"A. Shelter 1 Bluff > Giant City State Park > Illinois",https://www.mountainproject.com/route/108992646/jills,2.8,-1,Sport,5.11b/c,1,,37.62644,-89.20137
"They Shoot Horses Don't They","J. Vista Wall > E. South Canyon > *Jackson Falls > Illinois",https://www.mountainproject.com/route/109853117/they-shoot-horses-dont-they,3.1,-1,Sport,5.11b/c,1,30,37.49973,-88.68704
"Leaving the Nest","H: Eagle Wall > Pere Marquette State Park > Illinois",https://www.mountainproject.com/route/113869069/leaving-the-nest,2.9,-1,Sport,5.11b/c,1,35,38.97088,-90.48845
"Crybaby club","A. The Gallery > B. West Falls > *Jackson Falls > Illinois",https://www.mountainproject.com/route/107957576/crybaby-club,2.5,-1,Sport,"5.11b/c PG13",1,40,37.50699,-88.68508
"What's the Deal with Tim?","H. Wizard Wall > C. North Falls > *Jackson Falls > Illinois",https://www.mountainproject.com/route/107017102/whats-the-deal-with-tim,2.3,-1,Sport,5.11b/c,1,45,37.50783,-88.68397
"Moon Beam","Main Amphitheater > Cove Hollow > Illinois",https://www.mountainproject.com/route/124371680/moon-beam,4.0,-1,Sport,5.11b/c,1,45,37.6403,-89.2999
Puma,"E: Goreville Theatre > Ferne Clyffe State Park > Ferne Clyffe State Park > Illinois",https://www.mountainproject.com/route/124999580/puma,2.7,-1,Sport,5.11b/c,1,,37.54196,-88.97696
