Route,Location,URL,"Avg Stars","Your Stars","Route Type",Rating,Pitches,Length,"Area Latitude","Area Longitude"
"Repeat After Me","Lower Mount Scott > Mount Scott > Wichita Mountains Wildlife Refuge > Oklahoma",https://www.mountainproject.com/route/105892450/repeat-after-me,3.4,-1,Sport,"5.10c PG13",1,50,34.7486,-98.5273
"Creek Show","Thunderdome Wall > The Meadows > Wichita Mountains Wildlife Refuge > Oklahoma",https://www.mountainproject.com/route/105906034/creek-show,3.0,-1,"Sport, TR",5.10c,1,45,34.7085,-98.64618
"Lycra Sheath","Leaning Tower > The Narrows > Wichita Mountains Wildlife Refuge > Oklahoma",https://www.mountainproject.com/route/105869006/lycra-sheath,3.0,-1,"Trad, Sport, TR",5.10c,1,,34.69659,-98.66857
"Atomic Dust Dance","07. Atlantic > Quartz Mountain > Oklahoma",https://www.mountainproject.com/route/107355909/atomic-dust-dance,3.3,-1,"Trad, Sport","5.10c R",1,,34.89827,-99.33199
Moonraker,"Moon Rock > Treasure Cove > Charon's Gardens > Wichita Mountains Wildlife Refuge > Oklahoma",https://www.mountainproject.com/route/105862804/moonraker,3.2,-1,"Sport, TR",5.10c,1,60,34.7204,-98.7267
"JB Trout","Lost City > Lost City Area > Avery Drive > Tulsa Area > Oklahoma",https://www.mountainproject.com/route/107728735/jb-trout,2.6,-1,"Sport, TR, Boulder","5.10c V3+",1,30,36.12126,-96.10245
Pyromania,"Pyromania Area > Treasure Cove > Charon's Gardens > Wichita Mountains Wildlife Refuge > Oklahoma",https://www.mountainproject.com/route/106117866/pyromania,3.0,-1,"Trad, Sport","5.10c R",1,70,34.7193,-98.7288
