Route,Location,URL,"Avg Stars","Your Stars","Route Type",Rating,Pitches,Length,"Area Latitude","Area Longitude"
"The Deep End","Easy Gully Buttress > Smugglers' Notch > 1. Northern Vermont > Vermont",https://www.mountainproject.com/route/108284804/the-deep-end,3.2,-1,Sport,5.11b,4,390,44.5569,-72.7982
"Full Circle","A - Booty Wall Area > Upper West > Bolton Area > 1. Northern Vermont > Vermont",https://www.mountainproject.com/route/107560622/full-circle,3.0,-1,Sport,5.11b,1,35,44.41969,-72.90161
"Doug the Subway Fugitive","D - Hidden Ledge > Upper West > Bolton Area > 1. Northern Vermont > Vermont",https://www.mountainproject.com/route/110515228/doug-the-subway-fugitive,2.8,-1,Sport,5.11b,1,70,44.42053,-72.90172
"Goin' Postal","Carcass Crag > Bolton Area > 1. Northern Vermont > Vermont",https://www.mountainproject.com/route/106840639/goin-postal,2.7,-1,Sport,5.11b,1,,44.37506,-72.86669
"Hands Up, Don't Shoot","Revolution Wall > Bolton Area > 1. Northern Vermont > Vermont",https://www.mountainproject.com/route/119827978/hands-up-dont-shoot,3.0,-1,Sport,5.11b,1,70,44.38487,-72.85311
"Chalk Bomb Antics","D - Hidden Ledge > Upper West > Bolton Area > 1. Northern Vermont > Vermont",https://www.mountainproject.com/route/111787438/chalk-bomb-antics,2.5,-1,Sport,5.11b,1,65,44.42053,-72.90172
"Declaration of Crushdependence","07. The Pirate's Cove > Bolton Dome > Bolton Area > 1. Northern Vermont > Vermont",https://www.mountainproject.com/route/120433104/declaration-of-crushdependence,2.4,-1,Sport,5.11b,1,40,44.3706,-72.8578
"The Alter Boy","Chapel Crag > 82 Crag > Bolton Area > 1. Northern Vermont > Vermont",https://www.mountainproject.com/route/107896821/the-alter-boy,2.0,-1,Sport,5.11b,1,50,44.37893,-72.85944
