Route,Location,URL,"Avg Stars","Your Stars","Route Type",Rating,Pitches,Length,"Area Latitude","Area Longitude"
"Empire of the Sun","(c) Earwax Wall > Upper Town Wall > Index > Skykomish Valley > Central-West Cascades & Seattle > Washington",https://www.mountainproject.com/route/114370878/empire-of-the-sun,4.0,-1,Sport,5.13-,1,90,47.82329,-121.5678
"The Apiary","The Honeycomb Buttress > Tieton River > South-Central & Yakima > Washington",https://www.mountainproject.com/route/107292549/the-apiary,4.0,-1,Sport,5.13-,1,70,46.66863,-121.14727
"[E] Oval Orifice","World Wall > World Wall Group > Exit 32; Little Si > North Bend & Vicinity > Central-West Cascades & Seattle > Washington",https://www.mountainproject.com/route/106209312/e-oval-orifice,3.2,-1,Sport,5.13-,1,120,47.49795,-121.7549
"Heart Transplant","(b) Cave Wall > Nason Ridge > Leavenworth > Central-East Cascades, Wenatchee, & Leavenworth > Washington",https://www.mountainproject.com/route/116785703/heart-transplant,2.9,-1,Sport,5.13-,1,60,47.78101,-120.83446
"Stig's Rig","Mid Wall > Middle Town Walls > Index > Skykomish Valley > Central-West Cascades & Seattle > Washington",https://www.mountainproject.com/route/114579215/stigs-rig,3.0,-1,Sport,5.13-,1,30,47.8191,-121.5719
"Citizen Caned","North End Wall > Marcus > Northeast Corner & Spokane > Washington",https://www.mountainproject.com/route/107225150/citizen-caned,3.0,-1,Sport,5.13-,1,,48.6971,-118.0072
"Madness Among Us","Granite Point Roped > Granite Point > Southeast Corner > Washington",https://www.mountainproject.com/route/106816896/madness-among-us,3.0,-1,"Sport, TR",5.13-,1,50,46.60465,-117.35937
Bluebell,"North Norwegian Buttress > Middle Peak > Mount Index > Skykomish Valley > Central-West Cascades & Seattle > Washington",https://www.mountainproject.com/route/124804426/bluebell,4.0,-1,"Sport, Alpine",5.13-,21,2000,47.78021,-121.57762
