Route,Location,URL,"Avg Stars","Your Stars","Route Type",Rating,Pitches,Length,"Area Latitude","Area Longitude"
Encryption,"82 Steep Wall > 82 Crag > Bolton Area > 1. Northern Vermont > Vermont",https://www.mountainproject.com/route/106734776/encryption,3.9,-1,Sport,5.12d,1,65,44.37792,-72.85986
"Team America","82 Steep Wall > 82 Crag > Bolton Area > 1. Northern Vermont > Vermont",https://www.mountainproject.com/route/107553612/team-america,4.0,-1,Sport,5.12d,1,85,44.37792,-72.85986
Unleashed,"The Hunter and His Dog > Smugglers' Notch > 1. Northern Vermont > Vermont",https://www.mountainproject.com/route/117788761/unleashed,4.0,-1,Sport,5.12d,1,50,44.55526,-72.79484
"New American","ENT Gully > Smugglers' Notch > 1. Northern Vermont > Vermont",https://www.mountainproject.com/route/122655165/new-american,3.0,-1,Sport,5.12d,1,60,44.55772,-72.79327
"Secret Chord","Lower Ragnarock > Smugglers' Notch > 1. Northern Vermont > Vermont",https://www.mountainproject.com/route/117676979/secret-chord,3.0,-1,Sport,5.12d,1,50,44.55295,-72.79426
"Blood for Oil","Carcass Crag > Bolton Area > 1. Northern Vermont > Vermont",https://www.mountainproject.com/route/125002606/blood-for-oil,3.5,-1,Sport,5.12d,1,,44.37506,-72.86669
