Route,Location,URL,"Avg Stars","Your Stars","Route Type",Rating,Pitches,Length,"Area Latitude","Area Longitude"
"The Corner","The Quarry Area > Dorset Drive Crag (Langsford Pond in Boston Rocks) > Cape Ann > North Shore > Massachusetts",https://www.mountainproject.com/route/107398118/the-corner,3.6,-1,Sport,5.10+,1,25,42.6188,-70.6668
"Eric's Route","Down Under > Redrocks and Vicinity > Cape Ann > North Shore > Massachusetts",https://www.mountainproject.com/route/107450446/erics-route,3.0,-1,"Trad, Sport, TR",5.10+,1,40,42.6196,-70.7266
"Right Route (AKA ""Quill"")","Roadside Crag Routes > Roadside Crag > Western MA > Massachusetts",https://www.mountainproject.com/route/112454579/right-route-aka-quill,2.8,-1,Sport,5.10+,1,24,42.568,-72.47491
"Ray's Picture","Red Rock Main Area > Redrocks and Vicinity > Cape Ann > North Shore > Massachusetts",https://www.mountainproject.com/route/107440436/rays-picture,2.6,-1,"Trad, Sport, TR",5.10+,1,40,42.61668,-70.72752
"Ruby Slippers","Oz > Redrocks and Vicinity > Cape Ann > North Shore > Massachusetts",https://www.mountainproject.com/route/107410941/ruby-slippers,2.7,-1,Sport,5.10+,1,25,42.6181,-70.7266
Carin,"Main Wall > Dorset Drive Crag (Langsford Pond in Boston Rocks) > Cape Ann > North Shore > Massachusetts",https://www.mountainproject.com/route/107397942/carin,2.5,-1,Sport,5.10+,1,30,42.6188,-70.6668
