Route,Location,URL,"Avg Stars","Your Stars","Route Type",Rating,Pitches,Length,"Area Latitude","Area Longitude"
Wood,"Hueco Wall > Northern Box areas > The Box Climbing Areas > Socorro Area > New Mexico",https://www.mountainproject.com/route/106096092/wood,2.1,-1,Sport,5.8-,1,50,34.00056,-106.99002
"Harley Quinn Devotion","Villain Wall > Bat Cave Area > Caballo Lake > Truth or Consequences Area > New Mexico",https://www.mountainproject.com/route/107023777/harley-quinn-devotion,2.9,-1,Sport,5.8-,1,70,32.93189,-107.2343
"Lowly Worm's Applecopter Express","Scarry Wall > Southern Box areas > The Box Climbing Areas > Socorro Area > New Mexico",https://www.mountainproject.com/route/111154354/lowly-worms-applecopter-express,2.2,-1,"Sport, TR",5.8-,1,52,33.98639,-106.99529
"Holy Smokes","West Rock > Tres Piedras > Taos Area > New Mexico",https://www.mountainproject.com/route/122205423/holy-smokes,2.7,-1,Sport,5.8-,1,105,36.66129,-105.98487
"Open Book","Carnuel Crag > Albuquerque Area > New Mexico",https://www.mountainproject.com/route/113929311/open-book,2.1,-1,Sport,5.8-,1,35,35.06512,-106.46885
"Not Slytherin","Upper Park > Luna Park > Red Rock Arroyo > Truth or Consequences Area > New Mexico",https://www.mountainproject.com/route/112930383/not-slytherin,2.2,-1,Sport,5.8-,1,90,33.49902,-107.41772
"Right 2","Right > The Terrace > Albuquerque Area > New Mexico",https://www.mountainproject.com/route/108102839/right-2,1.9,-1,Sport,5.8-,1,45,35.25583,-106.40573
"Tastes Like Squirrel","Possum Junction > The Terrace > Albuquerque Area > New Mexico",https://www.mountainproject.com/route/108666795/tastes-like-squirrel,1.8,-1,Sport,5.8-,1,40,35.25822,-106.40616
"Behind The Spire","(B) Jungle Gym Area > Rough and Ready Hills > Las Cruces Area Climbing > New Mexico",https://www.mountainproject.com/route/115168598/behind-the-spire,1.5,-1,Sport,5.8-,1,60,32.39489,-107.0372
