Route,Location,URL,"Avg Stars","Your Stars","Route Type",Rating,Pitches,Length,"Area Latitude","Area Longitude"
[Redacted],"Kyhv Peak > Rock Canyon > Southern Wasatch > Wasatch Range > Utah",https://www.mountainproject.com/route/106897735/redacted,3.4,-1,Sport,5.11b,22,1900,40.26788,-111.6188
Streak,"Pictograph Wall > Left Fork > Maple Canyon > Central Utah > Utah",https://www.mountainproject.com/route/107534234/streak,3.6,-1,Sport,5.11b,1,105,39.5557,-111.6869
"Simple Simon","Super Bowl Wall > Rock Canyon > Southern Wasatch > Wasatch Range > Utah",https://www.mountainproject.com/route/106111104/simple-simon,3.5,-1,Sport,5.11b,1,30,40.26656,-111.62635
K-8,"Kelly's Rock > Woodbury Road Crags > Utah Hills > Saint George > Southwest Utah > Utah",https://www.mountainproject.com/route/105938441/k-8,3.4,-1,Sport,5.11b,1,60,37.0183,-113.8498
"Pocket Line","The Alcove > Sunset Alley > Beaver Dam Road > Saint George > Southwest Utah > Utah",https://www.mountainproject.com/route/111671870/pocket-line,3.5,-1,Sport,5.11b,1,,37.13291,-113.84322
"The Angry Inch","The Pipeline > Left Fork > Maple Canyon > Central Utah > Utah",https://www.mountainproject.com/route/106028095/the-angry-inch,3.4,-1,Sport,5.11b,1,40,39.5555,-111.687
K-6,"Kelly's Rock > Woodbury Road Crags > Utah Hills > Saint George > Southwest Utah > Utah",https://www.mountainproject.com/route/105938903/k-6,3.3,-1,Sport,5.11b,1,55,37.0183,-113.8498
Fernando,"Wall Street > Potash Road > Southeast Utah > Utah",https://www.mountainproject.com/route/106353378/fernando,3.1,-1,Sport,5.11b,1,50,38.54668,-109.59959
"Worshipping The Limestone Gods","The Cathedral > Welcome Springs > Saint George > Southwest Utah > Utah",https://www.mountainproject.com/route/105839767/worshipping-the-limestone-gods,3.1,-1,Sport,5.11b,1,60,37.10116,-113.89875
Godfrees,"Shady Lane > Right Fork > Maple Canyon > Central Utah > Utah",https://www.mountainproject.com/route/106129074/godfrees,3.1,-1,Sport,5.11b,1,50,39.5613,-111.6893
"Suicide Blonde","Hard Rock > American Fork Canyon > Southern Wasatch > Wasatch Range > Utah",https://www.mountainproject.com/route/105837850/suicide-blonde,3.0,-1,Sport,5.11b,1,40,40.4507,-111.6717
Juggernaut,"Hard Rock > American Fork Canyon > Southern Wasatch > Wasatch Range > Utah",https://www.mountainproject.com/route/105837865/juggernaut,3.0,-1,Sport,5.11b,1,50,40.4507,-111.6717
"As the Crows Fly","Chuckwalla Wall > Saint George > Southwest Utah > Utah",https://www.mountainproject.com/route/105718486/as-the-crows-fly,3.0,-1,Sport,5.11b,1,60,37.13919,-113.60558
"The Bulge","The Appendage > Rock Canyon > Southern Wasatch > Wasatch Range > Utah",https://www.mountainproject.com/route/105741917/the-bulge,2.9,-1,"Sport, TR",5.11b,1,35,40.2661,-111.6208
"Brain Doner","The Melting Mud Wall > East Hellgate > Hellgate Cliffs > Little Cottonwood Canyon > Central Wasatch > Wasatch Range > Utah",https://www.mountainproject.com/route/106020437/brain-doner,2.9,-1,Sport,5.11b,1,75,40.58991,-111.64385
"The Atheist","Division Wall > American Fork Canyon > Southern Wasatch > Wasatch Range > Utah",https://www.mountainproject.com/route/105739964/the-atheist,2.9,-1,Sport,5.11b,1,,40.4503,-111.668
"Rush Hour","Division Wall > American Fork Canyon > Southern Wasatch > Wasatch Range > Utah",https://www.mountainproject.com/route/105741959/rush-hour,2.8,-1,Sport,5.11b,1,,40.4503,-111.668
"Cries of Impending Doom","Stone Garden > Uinta Mountains > Northeast Utah > Utah",https://www.mountainproject.com/route/106421407/cries-of-impending-doom,3.0,-1,Sport,5.11b,1,45,40.74985,-110.87912
"Reverse Osmosis","The Membrane > American Fork Canyon > Southern Wasatch > Wasatch Range > Utah",https://www.mountainproject.com/route/114551519/reverse-osmosis,2.7,-1,Sport,5.11b,1,65,40.44666,-111.68668
39,"Division Wall > American Fork Canyon > Southern Wasatch > Wasatch Range > Utah",https://www.mountainproject.com/route/105984801/39,2.7,-1,Sport,5.11b,1,60,40.4503,-111.668
"Shallow Beginning","Division Wall > American Fork Canyon > Southern Wasatch > Wasatch Range > Utah",https://www.mountainproject.com/route/106267782/shallow-beginning,2.7,-1,Sport,5.11b,1,60,40.4503,-111.668
Oneida,"Low Standard Cave > Maple Canyon Road > Maple Canyon > Central Utah > Utah",https://www.mountainproject.com/route/107129115/oneida,3.4,-1,Sport,5.11b,1,100,39.55839,-111.68761
"Electric Company","Cannabis Wall > American Fork Canyon > Southern Wasatch > Wasatch Range > Utah",https://www.mountainproject.com/route/106473854/electric-company,2.6,-1,Sport,5.11b,1,50,40.44647,-111.68747
Downloader,"Ammo Dump Wall > Box Canyon > Maple Canyon Road > Maple Canyon > Central Utah > Utah",https://www.mountainproject.com/route/106211767/downloader,2.5,-1,Sport,5.11b,1,70,39.55602,-111.6754
"Sand Witch","Chuckwalla Wall > Saint George > Southwest Utah > Utah",https://www.mountainproject.com/route/106181792/sand-witch,2.4,-1,Sport,5.11b,1,45,37.13919,-113.60558
"The Doghouse Arete","The Doghouse > Island In The Sky > Snow Canyon State Park > Saint George > Southwest Utah > Utah",https://www.mountainproject.com/route/106637407/the-doghouse-arete,3.2,-1,Sport,5.11b,1,55,37.1933,-113.6454
"An Overflow of Good","The Theater > Take-Out Beach > River Road > Southeast Utah > Utah",https://www.mountainproject.com/route/112556994/an-overflow-of-good,3.3,-1,Sport,5.11b,1,90,38.66113,-109.4994
"Toxic Potatoes","The Pipe Dream > Right Fork > Maple Canyon > Central Utah > Utah",https://www.mountainproject.com/route/106211784/toxic-potatoes,2.1,-1,Sport,5.11b,1,50,39.56569,-111.69639
"Stone Ground","The Millstone > Big Cottonwood Canyon > Central Wasatch > Wasatch Range > Utah",https://www.mountainproject.com/route/105741281/stone-ground,3.5,-1,Sport,5.11b,1,60,40.62738,-111.71719
"Shades of Grey","Black and Tan > Woodbury Road Crags > Utah Hills > Saint George > Southwest Utah > Utah",https://www.mountainproject.com/route/106684995/shades-of-grey,2.9,-1,Sport,5.11b,1,45,37.0175,-113.8518
"The Milkmaid","Bingo Baby > American Fork Canyon > Southern Wasatch > Wasatch Range > Utah",https://www.mountainproject.com/route/106886896/the-milkmaid,2.6,-1,Sport,5.11b,1,50,40.4461,-111.6859
"Blurred Vision","Division Wall > American Fork Canyon > Southern Wasatch > Wasatch Range > Utah",https://www.mountainproject.com/route/106283155/blurred-vision,2.7,-1,Sport,5.11b,1,70,40.4503,-111.668
"Flying Outhouse","Fucoidal Quartzite > Logan Canyon > Cache Valley > Northern Wasatch > Wasatch Range > Utah",https://www.mountainproject.com/route/106008962/flying-outhouse,2.9,-1,Sport,5.11b,1,60,41.78063,-111.64374
"Second Cousin","The Diamond > Utah Hills > Saint George > Southwest Utah > Utah",https://www.mountainproject.com/route/113824086/second-cousin,3.4,-1,Sport,5.11b,1,115,37.06547,-113.82085
"Moral Dilemma","Green Valley Gap > Saint George > Southwest Utah > Utah",https://www.mountainproject.com/route/105853481/moral-dilemma,3.1,-1,"Sport, TR",5.11b,1,30,37.08852,-113.63779
Baghdad,"Division Wall > American Fork Canyon > Southern Wasatch > Wasatch Range > Utah",https://www.mountainproject.com/route/106019299/baghdad,2.3,-1,Sport,5.11b,1,50,40.4503,-111.668
Misery,"Broads Fork > Big Cottonwood Canyon > Central Wasatch > Wasatch Range > Utah",https://www.mountainproject.com/route/106229170/misery,3.0,-1,Sport,5.11b,1,50,40.63193,-111.72605
Shiny,"Haven > Serenity > American Fork Canyon > Southern Wasatch > Wasatch Range > Utah",https://www.mountainproject.com/route/108326280/shiny,2.9,-1,Sport,5.11b,1,50,40.45117,-111.66571
"Skin Graft","Green Valley Gap > Saint George > Southwest Utah > Utah",https://www.mountainproject.com/route/106528897/skin-graft,2.9,-1,Sport,5.11b,1,35,37.08852,-113.63779
"Dry Ice","Pictograph Wall > Left Fork > Maple Canyon > Central Utah > Utah",https://www.mountainproject.com/route/106882639/dry-ice,2.8,-1,Sport,5.11b,1,100,39.5557,-111.6869
Kronk,"Black Magic > American Fork Canyon > Southern Wasatch > Wasatch Range > Utah",https://www.mountainproject.com/route/107307900/kronk,2.8,-1,Sport,5.11b,1,75,40.44472,-111.69582
"The Force","Tatooine > Galaxy Area > Rock Canyon > Southern Wasatch > Wasatch Range > Utah",https://www.mountainproject.com/route/106417517/the-force,3.2,-1,Sport,5.11b,1,85,40.26667,-111.61443
"Java Man","Lower Jungle > Jungle, on the Aquarius Plateau > South Central Utah > Utah",https://www.mountainproject.com/route/107309614/java-man,3.4,-1,"Sport, Alpine",5.11b,1,80,37.7503,-111.8708
"White Collar Redneck","Industrial Wall > Coalpit Gulch > Little Cottonwood Canyon > Central Wasatch > Wasatch Range > Utah",https://www.mountainproject.com/route/105740840/white-collar-redneck,2.8,-1,"Sport, TR",5.11b,1,80,40.567,-111.73761
"Whiskey and Weed Power","Tower Two > Hellgate Cliffs > Little Cottonwood Canyon > Central Wasatch > Wasatch Range > Utah",https://www.mountainproject.com/route/106020390/whiskey-and-weed-power,2.9,-1,Sport,5.11b,1,80,40.59036,-111.64841
"Cracked Lip","9th Street > Ogden > Northern Wasatch > Wasatch Range > Utah",https://www.mountainproject.com/route/106302849/cracked-lip,3.0,-1,Sport,5.11b,1,30,41.24972,-111.93404
"Hellish Inferno","Goat Gully Wall > East Hellgate > Hellgate Cliffs > Little Cottonwood Canyon > Central Wasatch > Wasatch Range > Utah",https://www.mountainproject.com/route/106025457/hellish-inferno,2.8,-1,Sport,5.11b,1,60,40.59012,-111.64445
Heathen,"Pictograph Wall > Left Fork > Maple Canyon > Central Utah > Utah",https://www.mountainproject.com/route/109694552/heathen,3.5,-1,Sport,5.11b,1,100,39.5557,-111.6869
"Teardrops on the City","Gangsta' Ledge > Asbury Park > The Schoolroom > Ogden > Northern Wasatch > Wasatch Range > Utah",https://www.mountainproject.com/route/106275046/teardrops-on-the-city,3.3,-1,Sport,5.11b,1,70,41.2226,-111.92461
Doom,"The Hidden > Rock Canyon > Southern Wasatch > Wasatch Range > Utah",https://www.mountainproject.com/route/106521039/doom,3.0,-1,Sport,5.11b,1,70,40.2649,-111.6105
"Insane in the Brain","Tower Two > Hellgate Cliffs > Little Cottonwood Canyon > Central Wasatch > Wasatch Range > Utah",https://www.mountainproject.com/route/106020380/insane-in-the-brain,2.8,-1,Sport,5.11b,1,75,40.59036,-111.64841
Snaked,"Drone Wall > Hobble Creek Canyon > Southern Wasatch > Wasatch Range > Utah",https://www.mountainproject.com/route/112067511/snaked,3.1,-1,Sport,5.11b,1,45,40.1716,-111.471
"Wafer Wash","Prophesy Wall > Saint George > Southwest Utah > Utah",https://www.mountainproject.com/route/114205921/wafer-wash,3.4,-1,Sport,5.11b,1,115,37.2939,-113.6932
"Sesame Street","Cannabis Wall > American Fork Canyon > Southern Wasatch > Wasatch Range > Utah",https://www.mountainproject.com/route/106473897/sesame-street,2.0,-1,Sport,5.11b,1,60,40.44647,-111.68747
"Stone Cold Xiaosho","Haven > Serenity > American Fork Canyon > Southern Wasatch > Wasatch Range > Utah",https://www.mountainproject.com/route/108326284/stone-cold-xiaosho,2.8,-1,Sport,5.11b,1,50,40.45117,-111.66571
"Jack Be Nimble","Mullein Land > Logan Canyon > Cache Valley > Northern Wasatch > Wasatch Range > Utah",https://www.mountainproject.com/route/107159400/jack-be-nimble,2.9,-1,Sport,5.11b,1,60,41.76825,-111.66486
"Fire Woman","The Watchtower > American Fork Canyon > Southern Wasatch > Wasatch Range > Utah",https://www.mountainproject.com/route/106008042/fire-woman,2.6,-1,Sport,5.11b,1,40,40.4462,-111.6958
Aftershock,"Aftershock Wall > Island In The Sky > Snow Canyon State Park > Saint George > Southwest Utah > Utah",https://www.mountainproject.com/route/106294455/aftershock,3.4,-1,"Trad, Sport","5.11b PG13",4,450,37.1967,-113.6435
"Idiosyncratic Feedback Mechanism","Black and Tan > Woodbury Road Crags > Utah Hills > Saint George > Southwest Utah > Utah",https://www.mountainproject.com/route/108707466/idiosyncratic-feedback-mechanism,2.7,-1,Sport,5.11b,1,60,37.0175,-113.8518
"Thieves Karma","Prophesy Wall > Saint George > Southwest Utah > Utah",https://www.mountainproject.com/route/108128525/thieves-karma,2.9,-1,Sport,5.11b,2,,37.2939,-113.6932
"Northface Massacre","Hidden Wall > Knightland > Left Hand Fork > Blacksmith Fork Canyon > Cache Valley > Northern Wasatch > Wasatch Range > Utah",https://www.mountainproject.com/route/106966391/northface-massacre,3.1,-1,Sport,5.11b,1,55,41.65541,-111.69454
"Cryptic Funk","Lower Tier > Graveside Matter Wall > Cedar Canyon > Cedar City > Southwest Utah > Utah",https://www.mountainproject.com/route/113306412/cryptic-funk,3.1,-1,Sport,"5.11b PG13",1,65,37.61673,-112.93073
"Ralph the Rat","Wall Street > Potash Road > Southeast Utah > Utah",https://www.mountainproject.com/route/107582984/ralph-the-rat,2.4,-1,Sport,5.11b,1,40,38.54668,-109.59959
"Ride the Wave","Holey Moley Wall > South Corridor > Ibex > West Desert > Utah",https://www.mountainproject.com/route/108068143/ride-the-wave,3.3,-1,Sport,5.11b,1,60,38.99848,-113.38091
"Romeo's Bleeding","Hell Wall > Hell Area > American Fork Canyon > Southern Wasatch > Wasatch Range > Utah",https://www.mountainproject.com/route/106518784/romeos-bleeding,2.2,-1,Sport,5.11b,1,60,40.44645,-111.69416
"The Lost Letter","West Wall > Maple Corridor > Maple Canyon Road > Maple Canyon > Central Utah > Utah",https://www.mountainproject.com/route/106025648/the-lost-letter,2.8,-1,Sport,5.11b,1,50,39.5555,-111.68289
"Dead on Arrival","Escape Buttress > American Fork Canyon > Southern Wasatch > Wasatch Range > Utah",https://www.mountainproject.com/route/106009030/dead-on-arrival,2.3,-1,Sport,5.11b,1,60,40.4511,-111.6701
"White Buffalo","Chief Wall > Ruth Lake > Uinta Mountains > Northeast Utah > Utah",https://www.mountainproject.com/route/109475278/white-buffalo,2.7,-1,Sport,5.11b,1,45,40.7313,-110.87607
"Organic Orgasm","Hero Wall > Pine Valley > Saint George > Southwest Utah > Utah",https://www.mountainproject.com/route/107233748/organic-orgasm,3.7,-1,Sport,5.11b,1,70,37.4095,-113.5373
Laborious,"Stone Garden > Uinta Mountains > Northeast Utah > Utah",https://www.mountainproject.com/route/106201099/laborious,2.4,-1,Sport,5.11b,1,35,40.74985,-110.87912
Forsaken,"The Hidden > Rock Canyon > Southern Wasatch > Wasatch Range > Utah",https://www.mountainproject.com/route/106018366/forsaken,3.3,-1,Sport,5.11b,1,,40.2649,-111.6105
"Turbo  Sphincter","Goatland Wall > East Hellgate > Hellgate Cliffs > Little Cottonwood Canyon > Central Wasatch > Wasatch Range > Utah",https://www.mountainproject.com/route/106025466/turbo-sphincter,3.0,-1,Sport,5.11b,1,90,40.59033,-111.64526
Unknown,"Clint Eastwood Wall > Bear Hollow > Echo Canyon > Wasatch Back > Wasatch Range > Utah",https://www.mountainproject.com/route/111985842/unknown,2.5,-1,Sport,5.11b,1,60,41.00109,-111.39143
"High Dive","S-Curve - Upper Wall > S-Curves > Big Cottonwood Canyon > Central Wasatch > Wasatch Range > Utah",https://www.mountainproject.com/route/106271512/high-dive,2.5,-1,Sport,5.11b,1,40,40.63471,-111.72262
Yeyo,"Ganja Wall > Lower Dakota Crag > La Sal Mountains > Southeast Utah > Utah",https://www.mountainproject.com/route/110794719/yeyo,3.6,-1,Sport,5.11b,1,,38.47144,-109.27882
Satori,"Mary Ellen's Gulch > Southern Wasatch > Wasatch Range > Utah",https://www.mountainproject.com/route/107699787/satori,4.0,-1,"Trad, Sport",5.11b,1,60,40.53072,-111.61742
"Sun King","The Watchtower > American Fork Canyon > Southern Wasatch > Wasatch Range > Utah",https://www.mountainproject.com/route/106411707/sun-king,2.3,-1,Sport,5.11b,1,,40.4462,-111.6958
"Diamond Dave","Pete's Rock > Pete's Rock Area > Mount Olympus > Central Wasatch > Wasatch Range > Utah",https://www.mountainproject.com/route/122062729/diamond-dave,3.5,-1,Sport,"5.11b PG13",1,60,40.65299,-111.806
"Dark Matter","Milky Way Wall > Galaxy Area > Rock Canyon > Southern Wasatch > Wasatch Range > Utah",https://www.mountainproject.com/route/106202766/dark-matter,3.2,-1,Sport,5.11b,1,,40.26569,-111.61284
"Heat Wave","The Alcove > Causey Reservoir > Northern Wasatch > Wasatch Range > Utah",https://www.mountainproject.com/route/121658512/heat-wave,4.0,-1,Sport,5.11b,1,70,41.32182,-111.55245
"Quarter Inch from Falling","North Face > Quartermoon Tower > Ibex > West Desert > Utah",https://www.mountainproject.com/route/108078711/quarter-inch-from-falling,3.9,-1,"Trad, Sport",5.11b,1,130,38.9906,-113.3896
AltaTraz,"The Melting Mud Wall > East Hellgate > Hellgate Cliffs > Little Cottonwood Canyon > Central Wasatch > Wasatch Range > Utah",https://www.mountainproject.com/route/106025470/altatraz,2.2,-1,Sport,5.11b,1,90,40.58991,-111.64385
"Knezek's Call","Pictograph Wall > Left Fork > Maple Canyon > Central Utah > Utah",https://www.mountainproject.com/route/107658626/knezeks-call,2.6,-1,Sport,5.11b,1,100,39.5557,-111.6869
"Hop Henge","Hop Garden > Sunset Alley > Beaver Dam Road > Saint George > Southwest Utah > Utah",https://www.mountainproject.com/route/109462073/hop-henge,2.8,-1,Sport,5.11b,1,90,37.13215,-113.8418
"Long Shadow","Shadow Buttress > Ibex > West Desert > Utah",https://www.mountainproject.com/route/107738948/long-shadow,3.1,-1,"Sport, Aid","5.11b A0",5,400,38.9922,-113.3894
"Garden Party","Choss Garden > Big Cottonwood Canyon > Central Wasatch > Wasatch Range > Utah",https://www.mountainproject.com/route/111064455/garden-party,2.5,-1,Sport,5.11b,1,90,40.6341,-111.73328
Padawan,"Ganja Wall > Ophir Canyon > Oquirrh Mountains > West Desert > Utah",https://www.mountainproject.com/route/118836962/padawan,3.3,-1,Sport,5.11b,1,30,40.35953,-112.27356
"Giants of Science","Gangsta' Ledge > Asbury Park > The Schoolroom > Ogden > Northern Wasatch > Wasatch Range > Utah",https://www.mountainproject.com/route/106307059/giants-of-science,3.2,-1,Sport,5.11b,1,50,41.2226,-111.92461
"Labor Days","Isolation Wall > American Fork Canyon > Southern Wasatch > Wasatch Range > Utah",https://www.mountainproject.com/route/111013341/labor-days,2.7,-1,Sport,5.11b,1,39,40.44649,-111.68579
"Variation AKA Pig Wild","The Most Excellent Crag > Hayden Peak > Uinta Mountains > Northeast Utah > Utah",https://www.mountainproject.com/route/117738944/variation-aka-pig-wild,3.7,-1,"Sport, Alpine",5.11b,1,90,40.73434,-110.84823
"The Deck Attraction","The Flytrap > Crawdad Canyon / Veyo > Saint George > Southwest Utah > Utah",https://www.mountainproject.com/route/106448061/the-deck-attraction,3.3,-1,Sport,5.11b,1,65,37.33492,-113.68818
"Wizard of Ozone","The Zone > Box Canyon > Maple Canyon Road > Maple Canyon > Central Utah > Utah",https://www.mountainproject.com/route/106853325/wizard-of-ozone,2.8,-1,Sport,5.11b,1,100,39.55713,-111.67589
"Poke the Pocket","The Betagraph > Logan Canyon > Cache Valley > Northern Wasatch > Wasatch Range > Utah",https://www.mountainproject.com/route/106821160/poke-the-pocket,2.4,-1,Sport,5.11b,1,25,41.80111,-111.63692
Sanction,"Clint Eastwood Wall > Bear Hollow > Echo Canyon > Wasatch Back > Wasatch Range > Utah",https://www.mountainproject.com/route/109573758/sanction,2.2,-1,Sport,5.11b,1,56,41.00109,-111.39143
Charm,"Stone Garden > Uinta Mountains > Northeast Utah > Utah",https://www.mountainproject.com/route/106421366/charm,2.3,-1,Sport,5.11b,1,45,40.74985,-110.87912
"The Odd Get Even","The Millstone > Big Cottonwood Canyon > Central Wasatch > Wasatch Range > Utah",https://www.mountainproject.com/route/107258732/the-odd-get-even,2.8,-1,Sport,5.11b,1,60,40.62738,-111.71719
"Swinging on Webs","Distant Drum > Jungle, on the Aquarius Plateau > South Central Utah > Utah",https://www.mountainproject.com/route/107830536/swinging-on-webs,3.2,-1,"Sport, Alpine",5.11b,1,85,37.754,-111.8714
"Cool World","Cool World Wall > Rock Canyon > Southern Wasatch > Wasatch Range > Utah",https://www.mountainproject.com/route/105817621/cool-world,2.9,-1,Sport,5.11b,3,215,40.2653,-111.6101
"Mantel for Herb","Ganja Wall > Lower Dakota Crag > La Sal Mountains > Southeast Utah > Utah",https://www.mountainproject.com/route/110794768/mantel-for-herb,3.4,-1,Sport,5.11b,1,,38.47144,-109.27882
"Not Made in China","Eco-Terrorist Wall > Maple Canyon Road > Maple Canyon > Central Utah > Utah",https://www.mountainproject.com/route/108299468/not-made-in-china,2.3,-1,Sport,5.11b,1,50,39.5556,-111.6719
"Nine Lives","The Arch Wall > CLOSED - The Soul Asylum > Utah Hills > Saint George > Southwest Utah > Utah",https://www.mountainproject.com/route/106943975/nine-lives,2.7,-1,Sport,5.11b,1,80,37.07357,-113.81914
"Wasatch Pickles","The Commons > American Fork Canyon > Southern Wasatch > Wasatch Range > Utah",https://www.mountainproject.com/route/107698220/wasatch-pickles,3.3,-1,Sport,5.11b,1,45,40.4461,-111.6857
Crosscurrent,"Riptide Wall > Parley's Canyon > Central Wasatch > Wasatch Range > Utah",https://www.mountainproject.com/route/105740900/crosscurrent,2.5,-1,"Sport, TR",5.11b,1,80,40.71056,-111.79218
"Electric Jellyfish","Reef > Grandeur Peak > Central Wasatch > Wasatch Range > Utah",https://www.mountainproject.com/route/111612689/electric-jellyfish,3.3,-1,Sport,5.11b,1,45,40.7033,-111.787
70,"Flying Raptor's Area > Jungle, on the Aquarius Plateau > South Central Utah > Utah",https://www.mountainproject.com/route/117910367/70,3.7,-1,"Sport, Alpine",5.11b,1,70,37.75447,-111.87682
"Moab Time","Job Board > North Fork > La Sal Mountains > Southeast Utah > Utah",https://www.mountainproject.com/route/107928155/moab-time,3.5,-1,Sport,5.11b,1,60,38.5632,-109.542
"Crack 4","Dry Fork Canyon > Vernal Area > Northeast Utah > Utah",https://www.mountainproject.com/route/123331974/crack-4,3.5,-1,"Sport, TR",5.11b,1,50,40.59798,-109.73133
[Redacted],"War Zone > Island In The Sky > Snow Canyon State Park > Saint George > Southwest Utah > Utah",https://www.mountainproject.com/route/115411496/redacted,3.2,-1,Sport,5.11b,3,200,37.19589,-113.64379
Leftorium,"Simpson Rock > Right Fork > Maple Canyon > Central Utah > Utah",https://www.mountainproject.com/route/106788263/leftorium,2.3,-1,Sport,5.11b,1,60,39.56135,-111.68774
"Casting Aspersions","The Wailing Wall > Welcome Springs > Saint George > Southwest Utah > Utah",https://www.mountainproject.com/route/109856751/casting-aspersions,2.4,-1,Sport,5.11b,1,70,37.10106,-113.89944
"Spoils of War","West Wall > Maple Corridor > Maple Canyon Road > Maple Canyon > Central Utah > Utah",https://www.mountainproject.com/route/106017758/spoils-of-war,2.6,-1,Sport,5.11b,1,30,39.5555,-111.68289
"Give It Up","The Blank Cave > Sunset Alley > Beaver Dam Road > Saint George > Southwest Utah > Utah",https://www.mountainproject.com/route/111362751/give-it-up,2.3,-1,Sport,5.11b,1,80,37.13401,-113.84451
"Bitch School","Tap Wall > Rock Canyon > Southern Wasatch > Wasatch Range > Utah",https://www.mountainproject.com/route/105967608/bitch-school,2.8,-1,Sport,5.11b,1,60,40.2651,-111.6125
Melonastic,"Melon Wall > Middle Fork > Maple Canyon > Central Utah > Utah",https://www.mountainproject.com/route/110769250/melonastic,2.7,-1,Sport,5.11b,1,60,39.55807,-111.68967
Doppelganger,"The Arch Wall > CLOSED - The Soul Asylum > Utah Hills > Saint George > Southwest Utah > Utah",https://www.mountainproject.com/route/106943962/doppelganger,2.5,-1,Sport,5.11b,1,70,37.07357,-113.81914
"Goodbye Bread","Newlywed Area > Ibex > West Desert > Utah",https://www.mountainproject.com/route/114416530/goodbye-bread,2.9,-1,Sport,5.11b,1,60,38.9978,-113.38997
Clairvoyance,"Sand Dunes > Island In The Sky > Snow Canyon State Park > Saint George > Southwest Utah > Utah",https://www.mountainproject.com/route/112103826/clairvoyance,3.1,-1,Sport,5.11b,1,95,37.19133,-113.64333
Waterworks,"The Pipeline > Left Fork > Maple Canyon > Central Utah > Utah",https://www.mountainproject.com/route/106198365/waterworks,1.5,-1,Sport,5.11b,1,35,39.5555,-111.687
"Dark Path","Scorched Earth Crag > Kane Springs Canyon > Southeast Utah > Utah",https://www.mountainproject.com/route/106715089/dark-path,3.3,-1,"Trad, Sport",5.11b,1,80,38.5232,-109.6024
"Theivin My Pocket","The Betagraph > Logan Canyon > Cache Valley > Northern Wasatch > Wasatch Range > Utah",https://www.mountainproject.com/route/107473244/theivin-my-pocket,2.4,-1,Sport,5.11b,1,,41.80111,-111.63692
Decepticon,"The Ice Wall > Ogden Canyon > Ogden > Northern Wasatch > Wasatch Range > Utah",https://www.mountainproject.com/route/107629899/decepticon,2.7,-1,Sport,5.11b,1,40,41.2375,-111.91749
"Vision Quest","Good Medicine Area > Ruth Lake > Uinta Mountains > Northeast Utah > Utah",https://www.mountainproject.com/route/106402421/vision-quest,2.2,-1,Sport,5.11b,1,50,40.73091,-110.87835
K-4,"Kelly's Rock > Woodbury Road Crags > Utah Hills > Saint George > Southwest Utah > Utah",https://www.mountainproject.com/route/107072586/k-4,2.2,-1,Sport,5.11b,1,50,37.0183,-113.8498
JVS,"Treadmill Wall > Big Cottonwood Canyon > Central Wasatch > Wasatch Range > Utah",https://www.mountainproject.com/route/107203592/jvs,3.0,-1,Sport,5.11b,1,75,40.626,-111.71673
"Two by Two","Haven > Serenity > American Fork Canyon > Southern Wasatch > Wasatch Range > Utah",https://www.mountainproject.com/route/108326288/two-by-two,2.1,-1,Sport,5.11b,1,50,40.45117,-111.66571
"Good Bad and the Ugly","Bear Hollow Wall > Bear Hollow > Echo Canyon > Wasatch Back > Wasatch Range > Utah",https://www.mountainproject.com/route/109074286/good-bad-and-the-ugly,2.2,-1,Sport,5.11b,1,85,41.00135,-111.39195
"Dreamin' of Reamin'","Bug Barn Dance Wall > Rock Canyon > Southern Wasatch > Wasatch Range > Utah",https://www.mountainproject.com/route/105739979/dreamin-of-reamin,2.3,-1,Sport,5.11b,1,,40.26544,-111.61505
"Lacy Swiss","The Narrow > Pioneer Park > Saint George > Southwest Utah > Utah",https://www.mountainproject.com/route/107371476/lacy-swiss,2.6,-1,Sport,5.11b,1,35,37.11691,-113.57585
"Double Cross","Chuckwalla Wall > Saint George > Southwest Utah > Utah",https://www.mountainproject.com/route/106375897/double-cross,2.1,-1,Sport,5.11b,1,50,37.13919,-113.60558
"Art Nouveau","Art Major Wall > Big Cottonwood Canyon > Central Wasatch > Wasatch Range > Utah",https://www.mountainproject.com/route/112176748/art-nouveau,2.9,-1,Sport,5.11b,1,50,40.6237,-111.771
"Power Nap","Shady Acres Main Wall > Shady Acres > Maple Canyon Road > Maple Canyon > Central Utah > Utah",https://www.mountainproject.com/route/120674819/power-nap,3.0,-1,Sport,5.11b,1,100,39.55578,-111.67168
"Who Knows What It's Called","Hackberry Wash Wall > Snow Canyon State Park > Saint George > Southwest Utah > Utah",https://www.mountainproject.com/route/107520241/who-knows-what-its-called,2.7,-1,Sport,5.11b,1,80,37.1844,-113.6399
Godzirra,"King Kong > Maple Canyon Road > Maple Canyon > Central Utah > Utah",https://www.mountainproject.com/route/107758942/godzirra,3.0,-1,Sport,5.11b,1,,39.5552,-111.6832
"Hold to the Rod","Threshold > Rock Canyon > Southern Wasatch > Wasatch Range > Utah",https://www.mountainproject.com/route/107162198/hold-to-the-rod,3.0,-1,Sport,5.11b,1,55,40.2677,-111.6066
"12 Volt Man","Margaritaville > Right Hand Fork > Logan Canyon > Cache Valley > Northern Wasatch > Wasatch Range > Utah",https://www.mountainproject.com/route/107548035/12-volt-man,3.0,-1,Sport,5.11b,1,80,41.78242,-111.63575
"Nipple Stud","Low Standard Cave > Maple Canyon Road > Maple Canyon > Central Utah > Utah",https://www.mountainproject.com/route/107136687/nipple-stud,1.9,-1,Sport,5.11b,1,30,39.55839,-111.68761
"Lead Balloon","The Millstone > Big Cottonwood Canyon > Central Wasatch > Wasatch Range > Utah",https://www.mountainproject.com/route/106448163/lead-balloon,2.5,-1,Sport,5.11b,1,50,40.62738,-111.71719
Stemmy,"Maximum Main Wall > The Maximum > Right Fork > Maple Canyon > Central Utah > Utah",https://www.mountainproject.com/route/114382837/stemmy,2.9,-1,Sport,5.11b,1,65,39.56296,-111.69017
Quickdraw,"Maverick Buttress > Long Canyon > Potash Road > Southeast Utah > Utah",https://www.mountainproject.com/route/106892365/quickdraw,2.4,-1,Sport,5.11b,1,65,38.54492,-109.69654
"The Marjumhorn","Tower Ridge > Marjum Canyon > House Range > West Desert > Utah",https://www.mountainproject.com/route/106291492/the-marjumhorn,3.0,-1,Sport,5.11b,3,350,39.2442,-113.4052
"Boy Scout and the Brownie","Boyscout Bluff > Ibex > West Desert > Utah",https://www.mountainproject.com/route/112313703/boy-scout-and-the-brownie,3.0,-1,"Sport, TR",5.11b,1,50,38.99838,-113.39006
"Pray to the Feather","Parowan Gap Wall > Parowan Gap (all crags) > Parowan > Southwest Utah > Utah",https://www.mountainproject.com/route/108433054/pray-to-the-feather,3.0,-1,Sport,5.11b,1,45,37.90394,-112.95057
"Green Hornet","The Wasp > Rock Canyon > Southern Wasatch > Wasatch Range > Utah",https://www.mountainproject.com/route/105846665/green-hornet,2.6,-1,Sport,5.11b,1,40,40.2665,-111.625
"Day Out with the Lads","Zen Wall > Saint George > Southwest Utah > Utah",https://www.mountainproject.com/route/108573820/day-out-with-the-lads,3.0,-1,Sport,5.11b,1,80,37.07013,-113.64737
"Little Pico","Lunar Wall > White Rocks > West Desert > Utah",https://www.mountainproject.com/route/114037987/little-pico,2.7,-1,Sport,5.11b,1,50,40.3244,-112.90279
"1st Tram Direct Start (aka Alta Girls Have Cute Mustaches)","The Melting Mud Wall > East Hellgate > Hellgate Cliffs > Little Cottonwood Canyon > Central Wasatch > Wasatch Range > Utah",https://www.mountainproject.com/route/123015335/1st-tram-direct-start-aka-alta-girls-have-cute-mustaches,3.0,-1,Sport,5.11b,1,80,40.58991,-111.64385
Oxymoron,"Watchtower Cove > The Watchtower > Ferguson Canyon > Central Wasatch > Wasatch Range > Utah",https://www.mountainproject.com/route/106021726/oxymoron,2.5,-1,Sport,5.11b,1,45,40.61332,-111.77928
"Pangs of Ignorance","Black and Tan > Woodbury Road Crags > Utah Hills > Saint George > Southwest Utah > Utah",https://www.mountainproject.com/route/108373013/pangs-of-ignorance,2.6,-1,Sport,5.11b,1,50,37.0175,-113.8518
Vivarium,"Stimulants Wall > Kane Springs Canyon > Southeast Utah > Utah",https://www.mountainproject.com/route/106282409/vivarium,2.8,-1,Sport,"5.11b PG13",1,50,38.51291,-109.59711
R.I.P.,"Upper Tier > Graveside Matter Wall > Cedar Canyon > Cedar City > Southwest Utah > Utah",https://www.mountainproject.com/route/106806831/rip,2.7,-1,Sport,5.11b,1,40,37.61602,-112.93205
Semperfi,"Mammoth Wall > Dry Canyon > Southern Wasatch > Wasatch Range > Utah",https://www.mountainproject.com/route/117806912/semperfi,2.7,-1,Sport,5.11b,1,60,40.34579,-111.6723
"45% Hangover","The Doldrums > Jungle, on the Aquarius Plateau > South Central Utah > Utah",https://www.mountainproject.com/route/121031490/45-hangover,3.0,-1,"Sport, Alpine",5.11b,1,60,37.76378,-111.88618
Michelangelo,"Grass Marsh Higgledy Pig > Blacksmith Fork Canyon > Cache Valley > Northern Wasatch > Wasatch Range > Utah",https://www.mountainproject.com/route/122932238/michelangelo,3.0,-1,Sport,5.11b,1,30,41.62635,-111.67172
"Crystal Left","Booty Wall Area > Tanners Gulch > Little Cottonwood Canyon > Central Wasatch > Wasatch Range > Utah",https://www.mountainproject.com/route/107760990/crystal-left,2.3,-1,"Trad, Sport",5.11b,1,80,40.579,-111.70277
"Wall of Mirrors","Wall of Mirrors > Moosehorn > Uinta Mountains > Northeast Utah > Utah",https://www.mountainproject.com/route/106897099/wall-of-mirrors,2.8,-1,"Sport, Alpine",5.11b,1,32,40.7008,-110.89827
"A day in the life of Rommstein","Pocket Rocks > Cedar City > Southwest Utah > Utah",https://www.mountainproject.com/route/106756014/a-day-in-the-life-of-rommstein,3.0,-1,Sport,5.11b,1,55,37.64232,-113.29134
"De-Appendix Day","Sprocket Rocks > Cedar City > Southwest Utah > Utah",https://www.mountainproject.com/route/106751619/de-appendix-day,3.0,-1,Sport,5.11b,1,40,37.6429,-113.28174
"High Five","Tidal Wave Cave > Logan Canyon > Cache Valley > Northern Wasatch > Wasatch Range > Utah",https://www.mountainproject.com/route/107793267/high-five,3.0,-1,Sport,5.11b,1,25,41.75877,-111.72739
"Conspiracy Laden","Kanab Creek Crag > Kanab Area > Southwest Utah > Utah",https://www.mountainproject.com/route/122844601/conspiracy-laden,2.0,-1,Sport,5.11b,1,85,37.2721,-112.52108
"Guns of Navarone","Ska Block > Rock Canyon > Southern Wasatch > Wasatch Range > Utah",https://www.mountainproject.com/route/106156767/guns-of-navarone,2.8,-1,Sport,5.11b,1,40,40.265,-111.6235
"Star Shower","Lunar Wall > White Rocks > West Desert > Utah",https://www.mountainproject.com/route/115374833/star-shower,2.4,-1,Sport,5.11b,1,50,40.3244,-112.90279
Monogoloid,"Unknown Pleasures > American Fork Canyon > Southern Wasatch > Wasatch Range > Utah",https://www.mountainproject.com/route/114484320/monogoloid,2.4,-1,Sport,5.11b,1,50,40.4445,-111.6966
"Rocket Man","Anti-Gravity Rock > Maple Canyon Road > Maple Canyon > Central Utah > Utah",https://www.mountainproject.com/route/106277291/rocket-man,2.2,-1,Sport,5.11b,1,40,39.5552,-111.6723
"Skyler's Arete","Memorial Wall > Ruth Lake > Uinta Mountains > Northeast Utah > Utah",https://www.mountainproject.com/route/106451221/skylers-arete,2.6,-1,Sport,5.11b,1,40,40.73033,-110.8803
Ewe-bonics,"Upper > Ewe Wall > Lambs Knoll > Saint George > Southwest Utah > Utah",https://www.mountainproject.com/route/112572814/ewe-bonics,2.3,-1,Sport,5.11b,1,60,37.30783,-113.11008
"Son of Scab (aka Fake Son of Slab)","The Cathedral > Ferguson Canyon > Central Wasatch > Wasatch Range > Utah",https://www.mountainproject.com/route/118849413/son-of-scab-aka-fake-son-of-slab,2.5,-1,Sport,5.11b,1,60,40.61349,-111.77875
"4 Star 12a","Cragganzenden > Right Fork > Maple Canyon > Central Utah > Utah",https://www.mountainproject.com/route/112937739/4-star-12a,2.0,-1,Sport,5.11b,1,,39.56368,-111.69083
Gunner,"Two O'Clock Rock > Tank Canyon > American Fork Canyon > Southern Wasatch > Wasatch Range > Utah",https://www.mountainproject.com/route/106128521/gunner,2.3,-1,Sport,5.11b,1,30,40.4476,-111.6866
"Soup Kitchen","Flapjack Tower > Lower Buckhorn > Buckhorn Wash > San Rafael Swell - North > San Rafael Swell > South Central Utah > Utah",https://www.mountainproject.com/route/111861392/soup-kitchen,2.7,-1,Sport,5.11b,1,84,39.10867,-110.6735
"Surprise Ending","Green Adjective Gully > Little Cottonwood Canyon > Central Wasatch > Wasatch Range > Utah",https://www.mountainproject.com/route/108078834/surprise-ending,2.6,-1,"Trad, Sport",5.11b,1,70,40.5741,-111.7543
Mutilation,"The Projects > Rock Canyon > Southern Wasatch > Wasatch Range > Utah",https://www.mountainproject.com/route/106236657/mutilation,2.7,-1,Sport,5.11b,1,90,40.2655,-111.621
"Tuff'n Up","North and West Faces > Challenge Buttress > Big Cottonwood Canyon > Central Wasatch > Wasatch Range > Utah",https://www.mountainproject.com/route/105740927/tuffn-up,2.1,-1,Sport,5.11b,1,40,40.62207,-111.74571
Stairmaster,"Patty's Ridge > Big Cottonwood Canyon > Central Wasatch > Wasatch Range > Utah",https://www.mountainproject.com/route/112877578/stairmaster,2.5,-1,"Sport, TR",5.11b,1,50,40.61951,-111.7424
"Bingo Night","Shady Acres Main Wall > Shady Acres > Maple Canyon Road > Maple Canyon > Central Utah > Utah",https://www.mountainproject.com/route/120675125/bingo-night,2.8,-1,Sport,5.11b,1,90,39.55578,-111.67168
"The Quick and the Dead","The Frontera > Maple Canyon Road > Maple Canyon > Central Utah > Utah",https://www.mountainproject.com/route/108252347/the-quick-and-the-dead,2.3,-1,Sport,5.11b,1,80,39.5551,-111.6795
"Fuzzy Navel","Rodent Ranch > Logan Canyon > Cache Valley > Northern Wasatch > Wasatch Range > Utah",https://www.mountainproject.com/route/106820033/fuzzy-navel,2.3,-1,Sport,5.11b,1,100,41.80592,-111.63168
"The Percolator","The Early Bird Crag > Maple Canyon Road > Maple Canyon > Central Utah > Utah",https://www.mountainproject.com/route/112889173/the-percolator,2.3,-1,Sport,5.11b,1,,39.55575,-111.68189
"Holes In The Universe","The Early Bird Crag > Maple Canyon Road > Maple Canyon > Central Utah > Utah",https://www.mountainproject.com/route/108182493/holes-in-the-universe,2.2,-1,Sport,5.11b,1,30,39.55575,-111.68189
"The Greater Wrong Of The Right","Tear Garden > Big Cottonwood Canyon > Central Wasatch > Wasatch Range > Utah",https://www.mountainproject.com/route/109471716/the-greater-wrong-of-the-right,2.8,-1,Sport,5.11b,1,65,40.63617,-111.73166
"Subderal Hemotoma","The Brain > Madison Wall > North Ogden > Ogden > Northern Wasatch > Wasatch Range > Utah",https://www.mountainproject.com/route/108320274/subderal-hemotoma,2.8,-1,Sport,5.11b,1,50,41.27599,-111.94424
Tickman,"Black and Tan > Woodbury Road Crags > Utah Hills > Saint George > Southwest Utah > Utah",https://www.mountainproject.com/route/116610373/tickman,2.4,-1,Sport,5.11b,1,40,37.0175,-113.8518
Trompe-L'Oeil,"Art Major Wall > Big Cottonwood Canyon > Central Wasatch > Wasatch Range > Utah",https://www.mountainproject.com/route/105740744/trompe-loeil,2.6,-1,Sport,5.11b,1,60,40.6237,-111.771
"Yellow Jacket","The Wasp > Rock Canyon > Southern Wasatch > Wasatch Range > Utah",https://www.mountainproject.com/route/105846655/yellow-jacket,2.4,-1,Sport,5.11b,1,30,40.2665,-111.625
"2 Weeks Notice","Green Valley Gap > Saint George > Southwest Utah > Utah",https://www.mountainproject.com/route/107167872/2-weeks-notice,2.6,-1,Sport,5.11b,1,25,37.08852,-113.63779
"Flying Circus","Blacksmith Right > Blacksmith Wall > Left Hand Fork > Blacksmith Fork Canyon > Cache Valley > Northern Wasatch > Wasatch Range > Utah",https://www.mountainproject.com/route/107768043/flying-circus,2.4,-1,Sport,5.11b,1,50,41.63133,-111.70745
"Lucky Town","Gangsta' Ledge > Asbury Park > The Schoolroom > Ogden > Northern Wasatch > Wasatch Range > Utah",https://www.mountainproject.com/route/107214520/lucky-town,2.6,-1,Sport,5.11b,1,50,41.2226,-111.92461
"The Patriot Act","Lower Freedom Wall > Lisa Falls > Little Cottonwood Canyon > Central Wasatch > Wasatch Range > Utah",https://www.mountainproject.com/route/120494170/the-patriot-act,2.3,-1,Sport,5.11b,1,40,40.57439,-111.72734
BLU-82,"The Tangerine > The Schoolroom > Ogden > Northern Wasatch > Wasatch Range > Utah",https://www.mountainproject.com/route/105932582/blu-82,2.4,-1,Sport,5.11b,1,80,41.2217,-111.9236
"Pissing On His Grave","The Sunny Side > Mill Creek > La Sal Mountains > Southeast Utah > Utah",https://www.mountainproject.com/route/106280362/pissing-on-his-grave,2.2,-1,Sport,"5.11b R",1,60,38.49649,-109.31053
"Fat Black Chuck","Green Valley Gap > Saint George > Southwest Utah > Utah",https://www.mountainproject.com/route/106525704/fat-black-chuck,2.1,-1,Sport,5.11b,1,30,37.08852,-113.63779
"Running to a Standstill","Zen Wall > Saint George > Southwest Utah > Utah",https://www.mountainproject.com/route/110267993/running-to-a-standstill,1.7,-1,Sport,5.11b,1,,37.07013,-113.64737
"Tom Slick","Forgotten Trails > American Fork Canyon > Southern Wasatch > Wasatch Range > Utah",https://www.mountainproject.com/route/106869275/tom-slick,2.1,-1,Sport,5.11b,1,40,40.4451,-111.6911
"Crank Addiction","9th Street > Ogden > Northern Wasatch > Wasatch Range > Utah",https://www.mountainproject.com/route/106603952/crank-addiction,1.8,-1,Sport,5.11b,1,40,41.24972,-111.93404
"Artificial Bastard","Tetas De Cabre > Pine Valley > Saint George > Southwest Utah > Utah",https://www.mountainproject.com/route/107239556/artificial-bastard,2.7,-1,Sport,5.11b,1,20,37.40808,-113.53567
"Brave Words","The Cooler > Rock Canyon > Southern Wasatch > Wasatch Range > Utah",https://www.mountainproject.com/route/106193828/brave-words,2.4,-1,Sport,5.11b,1,30,40.2636,-111.6092
"Screaming Skeleton","The Bone Cave > American Fork Canyon > Southern Wasatch > Wasatch Range > Utah",https://www.mountainproject.com/route/107869962/screaming-skeleton,2.3,-1,Sport,5.11b,1,90,40.4514,-111.6685
"Milky Milky (Juggy Juggy)","Maximum Main Wall > The Maximum > Right Fork > Maple Canyon > Central Utah > Utah",https://www.mountainproject.com/route/114382986/milky-milky-juggy-juggy,2.5,-1,Sport,5.11b,1,65,39.56296,-111.69017
17,"House Boulder > Upper Buckhorn > Buckhorn Wash > San Rafael Swell - North > San Rafael Swell > South Central Utah > Utah",https://www.mountainproject.com/route/111722972/17,2.5,-1,Sport,5.11b,1,50,39.14447,-110.71134
"Return of the Jedi","The Rubicon > Crawdad Canyon / Veyo > Saint George > Southwest Utah > Utah",https://www.mountainproject.com/route/107739928/return-of-the-jedi,2.3,-1,Sport,5.11b,1,55,37.33636,-113.68693
"Strung Out Charlie Brown","The Cartoon Crag > Crawdad Canyon / Veyo > Saint George > Southwest Utah > Utah",https://www.mountainproject.com/route/110433178/strung-out-charlie-brown,2.5,-1,Sport,5.11b,1,40,37.33517,-113.68913
"East Canyon Falls","Silveropolis Wall > Ophir Canyon > Oquirrh Mountains > West Desert > Utah",https://www.mountainproject.com/route/107788937/east-canyon-falls,2.5,-1,Sport,5.11b,1,60,40.36671,-112.27031
"Unknown right of UF","Engagement Alcove > Left Fork > Maple Canyon > Central Utah > Utah",https://www.mountainproject.com/route/119091206/unknown-right-of-uf,2.3,-1,Sport,5.11b,1,,39.5545,-111.6881
"Camel Power","Willy Wall > Maple Canyon Road > Maple Canyon > Central Utah > Utah",https://www.mountainproject.com/route/110737254/camel-power,2.1,-1,Sport,5.11b,1,,39.55955,-111.68685
"New Fandango","Bridge Area > Maple Canyon Road > Maple Canyon > Central Utah > Utah",https://www.mountainproject.com/route/106129040/new-fandango,2.1,-1,Sport,5.11b,1,60,39.555,-111.6832
Narcolepsy,"Narcolepsy > American Fork Canyon > Southern Wasatch > Wasatch Range > Utah",https://www.mountainproject.com/route/118656821/narcolepsy,2.3,-1,Sport,5.11b,1,40,40.4323,-111.751
Ewe-nicorns,"Upper > Ewe Wall > Lambs Knoll > Saint George > Southwest Utah > Utah",https://www.mountainproject.com/route/112572846/ewe-nicorns,2.3,-1,Sport,5.11b,1,80,37.30783,-113.11008
"Talus Knirschen","Pandora > Jungle, on the Aquarius Plateau > South Central Utah > Utah",https://www.mountainproject.com/route/110878041/talus-knirschen,2.3,-1,"Sport, Alpine",5.11b,1,60,37.76427,-111.88409
"Sink the Pink","Shotgun Alley > Saint George > Southwest Utah > Utah",https://www.mountainproject.com/route/107125749/sink-the-pink,2.2,-1,Sport,5.11b,1,25,37.1709,-113.71399
"Hop Stoopid","Hop Garden > Sunset Alley > Beaver Dam Road > Saint George > Southwest Utah > Utah",https://www.mountainproject.com/route/119937564/hop-stoopid,2.6,-1,Sport,5.11b,1,80,37.13215,-113.8418
"Alone and Second Best","Willy Wall > Maple Canyon Road > Maple Canyon > Central Utah > Utah",https://www.mountainproject.com/route/111024363/alone-and-second-best,2.4,-1,Sport,5.11b,1,,39.55955,-111.68685
"Arete Route","The Wave Wall > Big Cottonwood Canyon > Central Wasatch > Wasatch Range > Utah",https://www.mountainproject.com/route/105740870/arete-route,2.3,-1,"Sport, TR",5.11b,1,50,40.62356,-111.76076
"Burning from the Inside","Mile 385 Area > Logan Canyon > Cache Valley > Northern Wasatch > Wasatch Range > Utah",https://www.mountainproject.com/route/106834198/burning-from-the-inside,2.3,-1,Sport,5.11b,1,60,41.79951,-111.63754
Spot,"Old School Rock > Tank Canyon > American Fork Canyon > Southern Wasatch > Wasatch Range > Utah",https://www.mountainproject.com/route/106527593/spot,2.4,-1,Sport,5.11b,1,50,40.4469,-111.6881
"Lucky Stars","The Damascus Gate > Right Fork > Maple Canyon > Central Utah > Utah",https://www.mountainproject.com/route/109071379/lucky-stars,1.9,-1,Sport,5.11b,1,60,39.56372,-111.6937
"Dark Energy","Shady Side > Black Rocks > Saint George > Southwest Utah > Utah",https://www.mountainproject.com/route/111217883/dark-energy,2.1,-1,Sport,5.11b,1,40,37.1548,-113.6074
Thunderstruck,"AC/DC Wall > Rock Canyon > Southern Wasatch > Wasatch Range > Utah",https://www.mountainproject.com/route/106162928/thunderstruck,2.0,-1,Sport,5.11b,1,40,40.267,-111.6246
"Concrete Jungle","Lower Jungle > Jungle, on the Aquarius Plateau > South Central Utah > Utah",https://www.mountainproject.com/route/107310752/concrete-jungle,2.0,-1,"Sport, Alpine",5.11b,1,50,37.7503,-111.8708
"Saturday Night Fever","Psychoslab  a.k.a 10 mile wall > Cedar Canyon > Cedar City > Southwest Utah > Utah",https://www.mountainproject.com/route/105974223/saturday-night-fever,2.0,-1,Sport,5.11b,1,65,37.61454,-112.93239
"The Three Stigmata of Cole Bradburn","The B-52 Wall > American Fork Canyon > Southern Wasatch > Wasatch Range > Utah",https://www.mountainproject.com/route/118045257/the-three-stigmata-of-cole-bradburn,1.9,-1,Sport,5.11b,1,50,40.44548,-111.69298
"Got Caught Stealing","Blue Wall > Rock Canyon > Southern Wasatch > Wasatch Range > Utah",https://www.mountainproject.com/route/105965583/got-caught-stealing,2.0,-1,Sport,5.11b,1,80,40.2661,-111.6118
"The Whopper","House Boulder > Upper Buckhorn > Buckhorn Wash > San Rafael Swell - North > San Rafael Swell > South Central Utah > Utah",https://www.mountainproject.com/route/111722964/the-whopper,2.0,-1,Sport,5.11b,1,50,39.14447,-110.71134
"We're Not in Kansas Any More","Buckley's Mine Wall > Rock Canyon > Southern Wasatch > Wasatch Range > Utah",https://www.mountainproject.com/route/105966869/were-not-in-kansas-any-more,2.0,-1,Sport,5.11b,1,50,40.26868,-111.61679
"Izquierda del ColibrÃ­","Tetas De Cabre > Pine Valley > Saint George > Southwest Utah > Utah",https://www.mountainproject.com/route/107239591/izquierda-del-colibri,2.3,-1,Sport,5.11b,1,90,37.40808,-113.53567
"Prehensile Tail Preferred","Lower Jungle > Jungle, on the Aquarius Plateau > South Central Utah > Utah",https://www.mountainproject.com/route/117855397/prehensile-tail-preferred,2.0,-1,"Sport, Alpine",5.11b,1,50,37.7503,-111.8708
"Hitchhikers Guide to the Galaxy","Mammoth Wall > Dry Canyon > Southern Wasatch > Wasatch Range > Utah",https://www.mountainproject.com/route/106332253/hitchhikers-guide-to-the-galaxy,1.5,-1,Sport,5.11b,2,150,40.34579,-111.6723
"Outside the Box","Outside the Box > Maple Canyon Road > Maple Canyon > Central Utah > Utah",https://www.mountainproject.com/route/119686609/outside-the-box,2.0,-1,Sport,5.11b,1,60,39.55497,-111.67477
"Out of Sight, Out of Mind","Cliffs of Insanity > Logan Canyon > Cache Valley > Northern Wasatch > Wasatch Range > Utah",https://www.mountainproject.com/route/119660546/out-of-sight-out-of-mind,2.0,-1,Sport,5.11b,1,65,41.8027,-111.6292
"First Come First Served","Black Magic Rock > Maple Canyon Road > Maple Canyon > Central Utah > Utah",https://www.mountainproject.com/route/122992314/first-come-first-served,2.2,-1,Sport,5.11b,1,40,39.55674,-111.68706
Steamer,"Killer Crag > Ogden Canyon > Ogden > Northern Wasatch > Wasatch Range > Utah",https://www.mountainproject.com/route/118812658/steamer,2.0,-1,Sport,5.11b,1,55,41.24689,-111.88375
Whitewashed,"Aqueduct Area, The > Big Cottonwood Canyon > Central Wasatch > Wasatch Range > Utah",https://www.mountainproject.com/route/107251799/whitewashed,2.0,-1,Sport,5.11b,1,40,40.6232,-111.77
"Occam's Razor","The General Hospital > Crawdad Canyon / Veyo > Saint George > Southwest Utah > Utah",https://www.mountainproject.com/route/110252071/occams-razor,2.0,-1,Sport,5.11b,1,40,37.33716,-113.68594
"Mountains of the Moon","The Dark Continent Area > Jungle, on the Aquarius Plateau > South Central Utah > Utah",https://www.mountainproject.com/route/108264979/mountains-of-the-moon,2.0,-1,"Sport, Alpine",5.11b,1,80,37.7634,-111.87064
Rodan,"King Kong > Maple Canyon Road > Maple Canyon > Central Utah > Utah",https://www.mountainproject.com/route/107758951/rodan,2.0,-1,"Sport, TR",5.11b,1,,39.5552,-111.6832
"Ashes to Ashes","Old School Rock > Tank Canyon > American Fork Canyon > Southern Wasatch > Wasatch Range > Utah",https://www.mountainproject.com/route/107732520/ashes-to-ashes,2.0,-1,Sport,5.11b,1,40,40.4469,-111.6881
"Dog Sense","Cliffs of Insanity > Logan Canyon > Cache Valley > Northern Wasatch > Wasatch Range > Utah",https://www.mountainproject.com/route/107742785/dog-sense,2.0,-1,Sport,5.11b,1,,41.8027,-111.6292
"Choss Fighter","Book of Condolences > The Red Corners > American Fork Canyon > Southern Wasatch > Wasatch Range > Utah",https://www.mountainproject.com/route/110443862/choss-fighter,1.5,-1,Sport,5.11b,1,50,40.44543,-111.70125
"Unknown 3","The Shame Wall > Grey Cliffs Picnic Area > American Fork Canyon > Southern Wasatch > Wasatch Range > Utah",https://www.mountainproject.com/route/107551368/unknown-3,1.8,-1,Sport,5.11b,1,65,40.45,-111.6742
"Carry On Up the Khyber","Lower Jungle > Jungle, on the Aquarius Plateau > South Central Utah > Utah",https://www.mountainproject.com/route/119808502/carry-on-up-the-khyber,2.5,-1,"Sport, Alpine",5.11b,1,60,37.7503,-111.8708
"Pin Peg","The Little Prints > Blacksmith Fork Canyon > Cache Valley > Northern Wasatch > Wasatch Range > Utah",https://www.mountainproject.com/route/119537017/pin-peg,2.0,-1,Sport,5.11b,1,20,41.62629,-111.80056
"Squeegee The Magic Mouse","Boulder Canyon > Spring Canyon > Central Utah > Utah",https://www.mountainproject.com/route/118878677/squeegee-the-magic-mouse,3.0,-1,Sport,5.11b,1,43,39.70087,-110.91981
"Long Legged Girls and Fun","Nature Center Wall > North Ogden > Ogden > Northern Wasatch > Wasatch Range > Utah",https://www.mountainproject.com/route/115367262/long-legged-girls-and-fun,2.0,-1,Sport,5.11b,1,,41.28876,-111.9531
"Thin Ice","Upper Wall Lake Tier > Uinta Mountains > Northeast Utah > Utah",https://www.mountainproject.com/route/122757037/thin-ice,2.0,-1,"Sport, Alpine",5.11b,1,60,40.69981,-110.96481
"El Nino","Crag in the Sky > Logan Canyon > Cache Valley > Northern Wasatch > Wasatch Range > Utah",https://www.mountainproject.com/route/118647918/el-nino,2.0,-1,Sport,5.11b,1,40,41.79605,-111.63735
Boltastic,"8 Mile > Saint George > Southwest Utah > Utah",https://www.mountainproject.com/route/113790264/boltastic,1.8,-1,Sport,5.11b,1,45,37.4463,-113.58656
"Sunrise Buttress - 11b variation","Sunrise Buttress > Crawdad Canyon / Veyo > Saint George > Southwest Utah > Utah",https://www.mountainproject.com/route/120114019/sunrise-buttress-11b-variation,2.5,-1,Sport,5.11b,1,50,37.33576,-113.68767
"A Gift From Jason","Jacob's Playpen > New Canyon > Central Utah > Utah",https://www.mountainproject.com/route/120456571/a-gift-from-jason,3.0,-1,Sport,5.11b,1,40,39.34408,-111.52707
"Maple Groove","Maple Grove > Central Utah > Utah",https://www.mountainproject.com/route/111452254/maple-groove,2.0,-1,Sport,5.11b,1,,39.02045,-112.09592
"Hair Brained","Maple Grove > Central Utah > Utah",https://www.mountainproject.com/route/111452079/hair-brained,2.0,-1,Sport,5.11b,1,,39.02045,-112.09592
"Ticket To Defeat","The Wall Of Shameless Self Promotion > House Range > West Desert > Utah",https://www.mountainproject.com/route/111452611/ticket-to-defeat,2.0,-1,Sport,5.11b,1,,39.34808,-113.33017
"unnamed route 1","North Side > Aerial Wall > Garth Rocks > Saint George > Southwest Utah > Utah",https://www.mountainproject.com/route/110216500/unnamed-route-1,2.0,-1,Sport,5.11b,1,,37.04746,-113.51275
"Cabin Fever","Promised Land > Logan Canyon > Cache Valley > Northern Wasatch > Wasatch Range > Utah",https://www.mountainproject.com/route/107515318/cabin-fever,2.0,-1,"Trad, Sport",5.11b,3,,41.7573,-111.7212
"Squeeze the Cheese","Rolling Stone Area > Big Cottonwood Canyon > Central Wasatch > Wasatch Range > Utah",https://www.mountainproject.com/route/107156012/squeeze-the-cheese,2.0,-1,Sport,5.11b,1,30,40.6193,-111.789
"Dang, Dang","Lemonstone > Knightland > Left Hand Fork > Blacksmith Fork Canyon > Cache Valley > Northern Wasatch > Wasatch Range > Utah",https://www.mountainproject.com/route/106966632/dang-dang,1.8,-1,Sport,5.11b,1,35,41.65352,-111.69423
"Semen Chucker","Buffalo Bill Wall > Marjum Canyon > House Range > West Desert > Utah",https://www.mountainproject.com/route/106292217/semen-chucker,2.0,-1,Sport,5.11b,1,,39.23968,-113.40804
"Eviction Notice","Enclave, The > Crawdad Canyon / Veyo > Saint George > Southwest Utah > Utah",https://www.mountainproject.com/route/106390630/eviction-notice,2.0,-1,Sport,5.11b,1,50,37.3352,-113.6875
Underhanded,"Cliffs of Insanity > Logan Canyon > Cache Valley > Northern Wasatch > Wasatch Range > Utah",https://www.mountainproject.com/route/123262755/underhanded,2.0,-1,Sport,5.11b,1,,41.8027,-111.6292
"Waterfall Route","The Pipe Dream > Right Fork > Maple Canyon > Central Utah > Utah",https://www.mountainproject.com/route/107754543/waterfall-route,1.4,-1,Sport,5.11b,1,80,39.56569,-111.69639
"Point Man","Chadbourne Crag > Neff's Canyon > Central Wasatch > Wasatch Range > Utah",https://www.mountainproject.com/route/108223888/point-man,1.5,-1,Sport,5.11b,1,60,40.66905,-111.76072
"Erectile Dysfunction","The Matrix > Middle Fork > Maple Canyon > Central Utah > Utah",https://www.mountainproject.com/route/107766214/erectile-dysfunction,1.3,-1,Sport,5.11b,1,30,39.5572,-111.6916
"Damned if You Do","Damned Wall > Storm Mountain Picnic Area > Big Cottonwood Canyon > Central Wasatch > Wasatch Range > Utah",https://www.mountainproject.com/route/107152161/damned-if-you-do,1.4,-1,Sport,5.11b,1,120,40.62653,-111.74418
"Against the Establishment","The Millstone > Big Cottonwood Canyon > Central Wasatch > Wasatch Range > Utah",https://www.mountainproject.com/route/107214511/against-the-establishment,1.6,-1,Sport,5.11b,1,60,40.62738,-111.71719
Pendejo,"Tacos Diablos Boulder > Albion Basin > Little Cottonwood Canyon > Central Wasatch > Wasatch Range > Utah",https://www.mountainproject.com/route/112115913/pendejo,1.3,-1,Sport,5.11b,1,30,40.5687,-111.61623
"Greyhounds & Brownies","West-facing Wall > The Hideaway > American Fork Canyon > Southern Wasatch > Wasatch Range > Utah",https://www.mountainproject.com/route/114263405/greyhounds-brownies,1.7,-1,Sport,5.11b,1,50,40.4475,-111.7003
"Bird Brain","Flying Raptor's Area > Jungle, on the Aquarius Plateau > South Central Utah > Utah",https://www.mountainproject.com/route/109536331/bird-brain,1.7,-1,"Sport, Alpine",5.11b,1,50,37.75447,-111.87682
"John Doe 3","The Cathedral > Ferguson Canyon > Central Wasatch > Wasatch Range > Utah",https://www.mountainproject.com/route/106437036/john-doe-3,1.6,-1,"Trad, Sport",5.11b,1,25,40.61349,-111.77875
"Flying Cockamouse","Shotgun Alley > Saint George > Southwest Utah > Utah",https://www.mountainproject.com/route/106987805/flying-cockamouse,1.5,-1,"Sport, TR",5.11b,1,25,37.1709,-113.71399
"Flake And Bake","Pocket Rocks > Cedar City > Southwest Utah > Utah",https://www.mountainproject.com/route/106434340/flake-and-bake,1.5,-1,Sport,5.11b,1,50,37.64232,-113.29134
"Reverse Traverse","The Membrane > American Fork Canyon > Southern Wasatch > Wasatch Range > Utah",https://www.mountainproject.com/route/107737669/reverse-traverse,1.3,-1,Sport,5.11b,1,,40.44666,-111.68668
"Inverted Insertion","Weber High Boulder > North Ogden > Ogden > Northern Wasatch > Wasatch Range > Utah",https://www.mountainproject.com/route/108114819/inverted-insertion,1.3,-1,Sport,5.11b,1,30,41.328,-111.9828
"Master Beta","Cliffs of Insanity > Logan Canyon > Cache Valley > Northern Wasatch > Wasatch Range > Utah",https://www.mountainproject.com/route/107742779/master-beta,1.5,-1,Sport,5.11b,1,,41.8027,-111.6292
"Sunshine on My Shoulder","The Early Bird Crag > Maple Canyon Road > Maple Canyon > Central Utah > Utah",https://www.mountainproject.com/route/113864193/sunshine-on-my-shoulder,1.2,-1,Sport,5.11b,1,100,39.55575,-111.68189
"Kiss my Teeth","Ouch Wall > Green Canyon > Cache Valley > Northern Wasatch > Wasatch Range > Utah",https://www.mountainproject.com/route/115189171/kiss-my-teeth,1.0,-1,Sport,5.11b,1,50,41.77163,-111.74588
"Nate's Route","West-facing Wall > The Hideaway > American Fork Canyon > Southern Wasatch > Wasatch Range > Utah",https://www.mountainproject.com/route/114264070/nates-route,1.0,-1,Sport,5.11b,1,50,40.4475,-111.7003
"Hands Of A Fumbler","Roadside Rock > House Range > West Desert > Utah",https://www.mountainproject.com/route/111452669/hands-of-a-fumbler,1.0,-1,Sport,5.11b,1,,39.34413,-113.33604
"Indecent Exposure","Cougar Cliffs > Saint George > Southwest Utah > Utah",https://www.mountainproject.com/route/106375472/indecent-exposure,1.0,-1,Sport,5.11b,1,70,37.1618,-113.6102
"Eat the French","Cougar Cliffs > Saint George > Southwest Utah > Utah",https://www.mountainproject.com/route/107356629/eat-the-french,1.0,-1,Sport,"5.11b PG13",1,30,37.1618,-113.6102
Solcross,"Sunset Cliffs > Sunset Cliffs > Southern Wasatch > Wasatch Range > Utah",https://www.mountainproject.com/route/107124867/solcross,1.0,-1,Sport,5.11b,1,45,40.1803,-111.59288
CleanIt,"Mill Canyon West > Mill Canyon > Echo Canyon > Wasatch Back > Wasatch Range > Utah",https://www.mountainproject.com/route/111598417/cleanit,2.0,-1,Sport,5.11b,1,,41.0005,-111.40739
"Toxic Emotions","The Rubicon > Crawdad Canyon / Veyo > Saint George > Southwest Utah > Utah",https://www.mountainproject.com/route/123998960/toxic-emotions,2.3,-1,Sport,5.11b,1,50,37.33636,-113.68693
"Picnic Dudes","The Integrity Wall > Crawdad Canyon / Veyo > Saint George > Southwest Utah > Utah",https://www.mountainproject.com/route/124043518/picnic-dudes,2.0,-1,Sport,5.11b,1,50,37.33721,-113.68599
"Unknown C","Reef > Grandeur Peak > Central Wasatch > Wasatch Range > Utah",https://www.mountainproject.com/route/124275329/unknown-c,2.0,-1,"Sport, TR","5.11b R",1,55,40.7033,-111.787
"Unknown B","Reef > Grandeur Peak > Central Wasatch > Wasatch Range > Utah",https://www.mountainproject.com/route/124275374/unknown-b,4.0,-1,"Sport, TR",5.11b,1,55,40.7033,-111.787
"The Invisible Membrane aka Wrong Day, Wrong Route","The Membrane > American Fork Canyon > Southern Wasatch > Wasatch Range > Utah",https://www.mountainproject.com/route/124307622/the-invisible-membrane-aka-wrong-day-wrong-route,2.5,-1,Sport,5.11b,1,40,40.44666,-111.68668
"Pioneer Punk","Pinkeye Buttress > Horse Valley > Panguitch > Southwest Utah > Utah",https://www.mountainproject.com/route/124393612/pioneer-punk,3.0,-1,Sport,5.11b,1,60,38.03308,-112.3647
"High Hobbit","Hobbit Caves > Right Hand Fork > Logan Canyon > Cache Valley > Northern Wasatch > Wasatch Range > Utah",https://www.mountainproject.com/route/124456981/high-hobbit,3.5,-1,Sport,5.11b,1,60,41.7804,-111.635
"Center Classic","Venom Valley > House Range > West Desert > Utah",https://www.mountainproject.com/route/124495054/center-classic,4.0,-1,Sport,5.11b,1,,39.08063,-113.69994
"Sticking it to the Man","Unemployment wall > Pine Valley > Saint George > Southwest Utah > Utah",https://www.mountainproject.com/route/124532982/sticking-it-to-the-man,2.0,-1,Sport,5.11b,1,70,37.40653,-113.53788
"Insane in the Brain","The Membrane > American Fork Canyon > Southern Wasatch > Wasatch Range > Utah",https://www.mountainproject.com/route/124569345/insane-in-the-brain,3.3,-1,Sport,5.11b,1,40,40.44666,-111.68668
"Touch Grass","The Internet > American Fork Canyon > Southern Wasatch > Wasatch Range > Utah",https://www.mountainproject.com/route/124775750/touch-grass,2.5,-1,Sport,5.11b,1,45,40.44118,-111.70239
"Necessary Linkup","Bingo Baby > American Fork Canyon > Southern Wasatch > Wasatch Range > Utah",https://www.mountainproject.com/route/124862600/necessary-linkup,1.5,-1,Sport,5.11b,1,50,40.4461,-111.6859
"The Mistake","Forgotten Trails > American Fork Canyon > Southern Wasatch > Wasatch Range > Utah",https://www.mountainproject.com/route/124903102/the-mistake,2.3,-1,Sport,5.11b,1,55,40.4451,-111.6911
"Josey Wales","The Outlaw Crag > American Fork Canyon > Southern Wasatch > Wasatch Range > Utah",https://www.mountainproject.com/route/124986728/josey-wales,2.5,-1,Sport,5.11b,1,35,40.45168,-111.66811
"Too Pumped Chump","Lost & Found > Uinta Mountains > Northeast Utah > Utah",https://www.mountainproject.com/route/125002304/too-pumped-chump,2.0,-1,Sport,5.11b,1,40,40.69886,-110.89815
"Oingo Boingo","Lost & Found > Uinta Mountains > Northeast Utah > Utah",https://www.mountainproject.com/route/125003131/oingo-boingo,3.0,-1,Sport,5.11b,1,40,40.69886,-110.89815
