Route,Location,URL,"Avg Stars","Your Stars","Route Type",Rating,Pitches,Length,"Area Latitude","Area Longitude"
"Zah Dude","Chatiemac Cliff > G: Indian Lake Region > Adirondacks > New York",https://www.mountainproject.com/route/112248249/zah-dude,4.0,-1,Sport,5.13b,1,60,43.65702,-74.0376
"Leap of Faith","Makomis Mountain Cliff > A: Lake Champlain Region > Adirondacks > New York",https://www.mountainproject.com/route/113521128/leap-of-faith,4.0,-1,Sport,5.13b,1,60,44.08568,-73.66763
"Climb and Punishment (AKA Reform the Police!)","Split Rock Canyon > A: Lake Champlain Region > Adirondacks > New York",https://www.mountainproject.com/route/120691642/climb-and-punishment-aka-reform-the-police,4.0,-1,Sport,5.13b,1,100,44.22557,-73.38588
Bonsai,"Wild Pines > F: Lake George Region > Adirondacks > New York",https://www.mountainproject.com/route/124694943/bonsai,4.0,-1,Sport,5.13b,1,70,43.65359,-73.59532
"Off The Couch","The Crown > A: Lake Champlain Region > Adirondacks > New York",https://www.mountainproject.com/route/125208403/off-the-couch,3.0,-1,Sport,5.13b,1,50,44.07433,-73.68993
