Route,Location,URL,"Avg Stars","Your Stars","Route Type",Rating,Pitches,Length,"Area Latitude","Area Longitude"
"Weekend Warrior","Upper Washbowl Cliff > B: Chapel Pond Pass > Adirondacks > New York",https://www.mountainproject.com/route/106923798/weekend-warrior,3.4,-1,Sport,5.10b/c,1,80,44.14256,-73.7438
"Lawyers, Guns, and Money","Belleview Slab > Belleview > Crane Mountain > G: Indian Lake Region > Adirondacks > New York",https://www.mountainproject.com/route/107723828/lawyers-guns-and-money,2.8,-1,Sport,"5.10b/c PG13",1,90,43.5391,-73.95986
Azucar,"Phoenicia, Sportsman's Wall > New York",https://www.mountainproject.com/route/107801810/azucar,2.5,-1,Sport,5.10b/c,1,35,42.0861,-74.30643
"Fifi Fingers","3 - Right Side Taper > Slanting Cracks Wall > Crane Mountain > G: Indian Lake Region > Adirondacks > New York",https://www.mountainproject.com/route/107926288/fifi-fingers,2.0,-1,Sport,"5.10b/c X",1,70,43.5378,-73.9677
"Newt-onian Shift","Mossy Corner > Hailes Cave South > Thacher State Park > New York",https://www.mountainproject.com/route/117985213/newt-onian-shift,1.7,-1,Sport,5.10b/c,1,45,42.66157,-74.02053
