Route,Location,URL,"Avg Stars","Your Stars","Route Type",Rating,Pitches,Length,"Area Latitude","Area Longitude"
Sanctuary,"Trenchtown Wall > Trenchtown Gulley > (w) The Marsupials > Smith Rock > Central Oregon > Oregon",https://www.mountainproject.com/route/114779959/sanctuary,4.0,-1,Sport,5.12+,1,75,44.37014,-121.12281
Warbird,"(12) Leaning Block > Terra Nova > Southwest Oregon > Oregon",https://www.mountainproject.com/route/121378538/warbird,3.6,-1,Sport,5.12+,1,,42.75361,-122.9062
Pac,"Sky Burial > Lookout Point > Willamette Valley > Oregon",https://www.mountainproject.com/route/119601728/pac,4.0,-1,Sport,5.12+,1,60,43.89309,-122.67771
"Body Karate","(2) Wildfire Wall > West Side > (z) Lower Gorge > Smith Rock > Central Oregon > Oregon",https://www.mountainproject.com/route/111082866/body-karate,3.0,-1,Sport,5.12+,1,85,44.36798,-121.13081
"I Am Not The Man","Bulo Point > Mt. Hood National Forest > Oregon",https://www.mountainproject.com/route/108246729/i-am-not-the-man,2.4,-1,Sport,5.12+,1,25,45.37301,-121.47362
"If Clips Could Kill","Roadside Wall > Burnt River Canyon > Northeast Oregon > Oregon",https://www.mountainproject.com/route/118886292/if-clips-could-kill,2.5,-1,Sport,5.12+,1,45,44.54314,-117.68964
project,"The Cave > (xx) The Zoo > Smith Rock > Central Oregon > Oregon",https://www.mountainproject.com/route/123584071/project,2.0,-1,Sport,5.12+,1,50,44.38138,-121.11229
"name unknown","Cave Wall > Burnt River Canyon > Northeast Oregon > Oregon",https://www.mountainproject.com/route/124405408/name-unknown,2.0,-1,Sport,5.12+,1,49,44.54545,-117.69152
"C-Line (open project)","East > Cline Falls Routes > Cline Falls > Central Oregon > Oregon",https://www.mountainproject.com/route/125286159/c-line-open-project,3.0,-1,Sport,5.12+,1,40,44.27748,-121.25681
