Route,Location,URL,"Avg Stars","Your Stars","Route Type",Rating,Pitches,Length,"Area Latitude","Area Longitude"
"Sonic Youth","Lower Tier > Sonic Youth Cliff > Wake Up Wall Area > (05) Sandstone Quarry > Red Rocks > Southern Nevada > Nevada",https://www.mountainproject.com/route/105884624/sonic-youth,3.8,-1,Sport,5.11d,1,60,36.16602,-115.45317
"Synapse Collapse","Cannabis Crag > Kraft Mountain Area > (01) Calico Basin > Red Rocks > Southern Nevada > Nevada",https://www.mountainproject.com/route/106060618/synapse-collapse,3.6,-1,Sport,5.11d,1,35,36.16728,-115.4179
"Sunny and Steep","Sunny and Steep > Kraft Mountain Area > (01) Calico Basin > Red Rocks > Southern Nevada > Nevada",https://www.mountainproject.com/route/105891002/sunny-and-steep,3.5,-1,Sport,5.11d,1,50,36.16986,-115.42321
"Sweet Pain","Sweet Pain Wall > (04) Second Pullout (Calico II) > Red Rocks > Southern Nevada > Nevada",https://www.mountainproject.com/route/105732530/sweet-pain,3.4,-1,Sport,5.11d,1,50,36.15597,-115.43663
Stratocaster,"Stratocaster Area > (04) Second Pullout (Calico II) > Red Rocks > Southern Nevada > Nevada",https://www.mountainproject.com/route/106500890/stratocaster,3.9,-1,Sport,5.11d,1,125,36.15852,-115.4401
Cujo,"Dog Wall > (03) First Pullout (Calico I) > Red Rocks > Southern Nevada > Nevada",https://www.mountainproject.com/route/105905259/cujo,3.2,-1,Sport,5.11d,1,30,36.14745,-115.42927
"Viagra Falls","Panty Wall > (03) First Pullout (Calico I) > Red Rocks > Southern Nevada > Nevada",https://www.mountainproject.com/route/105732629/viagra-falls,2.6,-1,Sport,5.11d,1,50,36.14964,-115.4299
"Angled Dangler","The Wake-Up Wall > Wake Up Wall Area > (05) Sandstone Quarry > Red Rocks > Southern Nevada > Nevada",https://www.mountainproject.com/route/105910303/angled-dangler,2.7,-1,Sport,5.11d,1,65,36.16724,-115.45361
Bubblicious,"The Robbery Wall > Robber's Roost > Route 158 > Mount Charleston > Southern Nevada > Nevada",https://www.mountainproject.com/route/106911236/bubblicious,3.0,-1,Sport,5.11d,1,50,36.30159,-115.6127
"Simple Twist of Fate","Swamp Cave > Arrow Canyon > Southern Nevada > Nevada",https://www.mountainproject.com/route/107433576/simple-twist-of-fate,3.7,-1,Sport,5.11d,1,90,36.74132,-114.79758
"I Would for You","Lower Tier > Sonic Youth Cliff > Wake Up Wall Area > (05) Sandstone Quarry > Red Rocks > Southern Nevada > Nevada",https://www.mountainproject.com/route/107135931/i-would-for-you,3.6,-1,Sport,5.11d,1,,36.16602,-115.45317
"Crude Control","Lower Level - Left > Lower Level > The Black Corridor > (04) Second Pullout (Calico II) > Red Rocks > Southern Nevada > Nevada",https://www.mountainproject.com/route/105800006/crude-control,1.6,-1,Sport,5.11d,1,50,36.15536,-115.43609
"She's Deadly","Lower Level - Right > Lower Level > The Black Corridor > (04) Second Pullout (Calico II) > Red Rocks > Southern Nevada > Nevada",https://www.mountainproject.com/route/106038110/shes-deadly,2.4,-1,Sport,5.11d,1,60,36.15539,-115.4361
"Idiots Rule","Janes Wall > (04) Second Pullout (Calico II) > Red Rocks > Southern Nevada > Nevada",https://www.mountainproject.com/route/106585768/idiots-rule,3.4,-1,Sport,5.11d,1,60,36.15234,-115.4323
"Spider Senses","Sonar Wall > North Echo Cliff > Echo Cliffs > Kyle Canyon > Mount Charleston > Southern Nevada > Nevada",https://www.mountainproject.com/route/113626959/spider-senses,3.2,-1,Sport,5.11d,1,70,36.25166,-115.64725
Quicksand,"California Crag > Parking Lot Area > (05) Sandstone Quarry > Red Rocks > Southern Nevada > Nevada",https://www.mountainproject.com/route/105820497/quicksand,2.8,-1,Sport,5.11d,1,60,36.16118,-115.44733
"Black Happy","Sunny and Steep > Kraft Mountain Area > (01) Calico Basin > Red Rocks > Southern Nevada > Nevada",https://www.mountainproject.com/route/106625464/black-happy,2.6,-1,Sport,5.11d,1,45,36.16986,-115.42321
"Soul Power","Upper Tier > James Brown Area > Calico Tanks Area > (05) Sandstone Quarry > Red Rocks > Southern Nevada > Nevada",https://www.mountainproject.com/route/105913906/soul-power,3.8,-1,Sport,5.11d,1,60,36.16299,-115.43987
"Graveyard Waltz","Running Man Wall > Parking Lot Area > (05) Sandstone Quarry > Red Rocks > Southern Nevada > Nevada",https://www.mountainproject.com/route/105905286/graveyard-waltz,3.6,-1,Sport,5.11d,1,110,36.16016,-115.4423
"My Thai","The Oasis > (03) First Pullout (Calico I) > Red Rocks > Southern Nevada > Nevada",https://www.mountainproject.com/route/105915034/my-thai,3.1,-1,Sport,5.11d,1,45,36.14849,-115.42904
Makalu,"Wall of Confusion > (04) Second Pullout (Calico II) > Red Rocks > Southern Nevada > Nevada",https://www.mountainproject.com/route/106329681/makalu,2.8,-1,Sport,5.11d,1,60,36.15702,-115.43904
Casino,"The Oasis > (03) First Pullout (Calico I) > Red Rocks > Southern Nevada > Nevada",https://www.mountainproject.com/route/105915030/casino,3.0,-1,Sport,5.11d,1,45,36.14849,-115.42904
"Saddam's Mom","Holiday Wall > Calico Tanks Area > (05) Sandstone Quarry > Red Rocks > Southern Nevada > Nevada",https://www.mountainproject.com/route/105913039/saddams-mom,3.2,-1,Sport,5.11d,1,40,36.16286,-115.44137
"Social Disorder","The Gallery > (04) Second Pullout (Calico II) > Red Rocks > Southern Nevada > Nevada",https://www.mountainproject.com/route/105808941/social-disorder,2.7,-1,Sport,5.11d,1,70,36.15672,-115.43841
"James Brown","Upper Tier > James Brown Area > Calico Tanks Area > (05) Sandstone Quarry > Red Rocks > Southern Nevada > Nevada",https://www.mountainproject.com/route/105913902/james-brown,3.3,-1,Sport,5.11d,1,60,36.16299,-115.43987
"Thin Face","The Book of Red > Carson City Area > Western Nevada > Nevada",https://www.mountainproject.com/route/106314309/thin-face,3.5,-1,Sport,5.11d,1,30,38.8677,-119.691
"String of Pearls","Brevity Wall > Mormon Mountains > Southern Nevada > Nevada",https://www.mountainproject.com/route/119612009/string-of-pearls,4.0,-1,Sport,5.11d,1,55,36.90893,-114.30536
"Memory Lane","Memory Lane > North Echo Cliff > Echo Cliffs > Kyle Canyon > Mount Charleston > Southern Nevada > Nevada",https://www.mountainproject.com/route/113626827/memory-lane,4.0,-1,Sport,5.11d,2,300,36.25165,-115.64811
Tri-Tonal,"Palantine Wall - Second Tier > Echo Falls Area > Kyle Canyon > Mount Charleston > Southern Nevada > Nevada",https://www.mountainproject.com/route/120938868/tri-tonal,3.8,-1,Sport,5.11d,1,70,36.24763,-115.64471
"The Minister","The Church Pew > Cathedral Rock > Kyle Canyon > Mount Charleston > Southern Nevada > Nevada",https://www.mountainproject.com/route/121385616/the-minister,4.0,-1,Sport,5.11d,1,45,36.25541,-115.64905
M16,"Blue Diamond Cave > Blue Diamond Area > Southern Nevada > Nevada",https://www.mountainproject.com/route/120451170/m16,2.6,-1,Sport,5.11d,1,45,36.03775,-115.39201
"Sudden Impact","Wall of Confusion > (04) Second Pullout (Calico II) > Red Rocks > Southern Nevada > Nevada",https://www.mountainproject.com/route/105808922/sudden-impact,2.8,-1,Sport,5.11d,1,60,36.15702,-115.43904
"The Laying on of the Hands","Ethics Wall > (04) Second Pullout (Calico II) > Red Rocks > Southern Nevada > Nevada",https://www.mountainproject.com/route/105928559/the-laying-on-of-the-hands,3.3,-1,Sport,5.11d,1,80,36.15179,-115.43737
"Ray Purchase","Story Crag Main Wall > Old Spanish Trail Crags (Story Crags) > West Side > Mount Potosi > Southern Nevada > Nevada",https://www.mountainproject.com/route/120270958/ray-purchase,3.4,-1,Sport,5.11d,1,150,35.97231,-115.52518
"Peak Performance","Sunny and Steep > Kraft Mountain Area > (01) Calico Basin > Red Rocks > Southern Nevada > Nevada",https://www.mountainproject.com/route/106516274/peak-performance,2.7,-1,Sport,5.11d,1,45,36.16986,-115.42321
"Mud Tiger","Urban Crag > Lone Mountain > La Madre Range > Southern Nevada > Nevada",https://www.mountainproject.com/route/105949122/mud-tiger,2.9,-1,Sport,5.11d,1,,36.23845,-115.311
Silence,"The Secret 13 Wall > The Trophy Area > (05) Sandstone Quarry > Red Rocks > Southern Nevada > Nevada",https://www.mountainproject.com/route/105948367/silence,2.7,-1,Sport,5.11d,1,55,36.17073,-115.45045
"Fear This","Cannibal Crag > (01) Calico Basin > Red Rocks > Southern Nevada > Nevada",https://www.mountainproject.com/route/107556606/fear-this,2.2,-1,Sport,5.11d,1,30,36.14903,-115.42296
Shredder,"Trench Town > Box Canyon > La Madre Range > Southern Nevada > Nevada",https://www.mountainproject.com/route/120288700/shredder,3.5,-1,Sport,5.11d,1,55,36.23277,-115.38121
"Flying Rats","Alternative Crag > (01) Calico Basin > Red Rocks > Southern Nevada > Nevada",https://www.mountainproject.com/route/106956041/flying-rats,2.7,-1,Sport,5.11d,1,55,36.15633,-115.43093
Grizzly,"The Fringe > Ash Canyon > (01) Calico Basin > Red Rocks > Southern Nevada > Nevada",https://www.mountainproject.com/route/107612042/grizzly,2.8,-1,Sport,5.11d,2,145,36.16162,-115.43509
"Cameo Appearance","Universal City > (03) First Pullout (Calico I) > Red Rocks > Southern Nevada > Nevada",https://www.mountainproject.com/route/107527334/cameo-appearance,3.0,-1,Sport,5.11d,1,50,36.14724,-115.42684
"Walking on a Dream","Hidden Corridor > Parking Lot Area > (05) Sandstone Quarry > Red Rocks > Southern Nevada > Nevada",https://www.mountainproject.com/route/107039433/walking-on-a-dream,3.4,-1,Sport,5.11d,1,60,36.16137,-115.44852
Thanks,"Urban Crag > Lone Mountain > La Madre Range > Southern Nevada > Nevada",https://www.mountainproject.com/route/118867167/thanks,3.3,-1,Sport,5.11d,1,50,36.23845,-115.311
"Get smart","The Spy Cliff > West Shoulder of Kraft Mountain > Kraft Mountain Area > (01) Calico Basin > Red Rocks > Southern Nevada > Nevada",https://www.mountainproject.com/route/107046409/get-smart,3.0,-1,Sport,5.11d,1,90,36.16397,-115.42492
"Mister Motor","Story Crag Main Wall > Old Spanish Trail Crags (Story Crags) > West Side > Mount Potosi > Southern Nevada > Nevada",https://www.mountainproject.com/route/120271276/mister-motor,3.2,-1,Sport,5.11d,1,60,35.97231,-115.52518
F-Dirt,"The Robbery Wall > Robber's Roost > Route 158 > Mount Charleston > Southern Nevada > Nevada",https://www.mountainproject.com/route/109192400/f-dirt,2.8,-1,Sport,5.11d,1,135,36.30159,-115.6127
"House of Leaves","House of Leaves Area > Route 158 > Mount Charleston > Southern Nevada > Nevada",https://www.mountainproject.com/route/121202971/house-of-leaves,3.0,-1,Sport,5.11d,4,300,36.29536,-115.6124
"The Mustard","Stiff and Splits Dome > Lone Mountain > Western Nevada > Nevada",https://www.mountainproject.com/route/110246049/the-mustard,3.0,-1,Sport,5.11d,1,70,37.99545,-117.5235
"Ultimate Violence","Little Shop of Horrors > Pig Rock Area > Pyramid Lake Area > Western Nevada > Nevada",https://www.mountainproject.com/route/106314216/ultimate-violence,3.0,-1,Sport,5.11d,1,40,39.8936,-119.6438
"Vuelo del Búho","Red Springs Rock > (01) Calico Basin > Red Rocks > Southern Nevada > Nevada",https://www.mountainproject.com/route/122089883/vuelo-del-buho,3.3,-1,Sport,5.11d,1,80,36.14611,-115.42222
"The Healer","The Wake-Up Wall > Wake Up Wall Area > (05) Sandstone Quarry > Red Rocks > Southern Nevada > Nevada",https://www.mountainproject.com/route/106595229/the-healer,2.7,-1,Sport,5.11d,1,40,36.16724,-115.45361
Splatomatic,"Little Shop of Horrors > Pig Rock Area > Pyramid Lake Area > Western Nevada > Nevada",https://www.mountainproject.com/route/121586985/splatomatic,3.0,-1,Sport,5.11d,1,40,39.8936,-119.6438
"WildSpleef's Wildride","The Owl's Den > (01) Calico Basin > Red Rocks > Southern Nevada > Nevada",https://www.mountainproject.com/route/111835298/wildspleefs-wildride,3.0,-1,Sport,5.11d,1,130,36.1581,-115.43399
"Buffalo Balls","Hidden Falls Wall > (07) Willow Spring > Red Rocks > Southern Nevada > Nevada",https://www.mountainproject.com/route/108359971/buffalo-balls,2.2,-1,Sport,5.11d,1,40,36.15575,-115.4976
"A Crack in Creation","White Pine > Kyle Canyon > Mount Charleston > Southern Nevada > Nevada",https://www.mountainproject.com/route/114198661/a-crack-in-creation,2.3,-1,Sport,5.11d,1,40,36.26892,-115.66803
"Solar Flare","4) Cave Sector > Wall of Misfortune > Mormon Mountains > Southern Nevada > Nevada",https://www.mountainproject.com/route/116369342/solar-flare,2.7,-1,Sport,5.11d,1,65,36.90311,-114.28458
Ambushed,"Burglar Wall > Robber's Roost > Route 158 > Mount Charleston > Southern Nevada > Nevada",https://www.mountainproject.com/route/107799408/ambushed,2.8,-1,Sport,5.11d,1,70,36.30146,-115.61246
"Holiday 12a","California 12a > (04) Second Pullout (Calico II) > Red Rocks > Southern Nevada > Nevada",https://www.mountainproject.com/route/112549671/holiday-12a,2.3,-1,Sport,5.11d,1,35,36.15337,-115.43439
"Nine Lives","Kitty Crag > (04) Second Pullout (Calico II) > Red Rocks > Southern Nevada > Nevada",https://www.mountainproject.com/route/105985846/nine-lives,2.6,-1,Sport,5.11d,1,80,36.15446,-115.43481
"Brown Ale","Newcastle Crag > (03) First Pullout (Calico I) > Red Rocks > Southern Nevada > Nevada",https://www.mountainproject.com/route/105926116/brown-ale,2.4,-1,Sport,5.11d,1,65,36.15122,-115.43254
"Star Search","Universal City > (03) First Pullout (Calico I) > Red Rocks > Southern Nevada > Nevada",https://www.mountainproject.com/route/107532118/star-search,2.7,-1,Sport,5.11d,1,50,36.14724,-115.42684
"Carbon Copy of Yesterday","White Pine > Kyle Canyon > Mount Charleston > Southern Nevada > Nevada",https://www.mountainproject.com/route/114198651/carbon-copy-of-yesterday,2.0,-1,Sport,5.11d,1,35,36.26892,-115.66803
"Hang Ten","The Oasis > (03) First Pullout (Calico I) > Red Rocks > Southern Nevada > Nevada",https://www.mountainproject.com/route/105915051/hang-ten,2.5,-1,Sport,5.11d,1,45,36.14849,-115.42904
"Mission Control","Brevity Wall > Mormon Mountains > Southern Nevada > Nevada",https://www.mountainproject.com/route/121833691/mission-control,2.5,-1,Sport,5.11d,1,60,36.90893,-114.30536
"Fly Swatter","Hustle Wall > Lower Cliffs > Sleepy Hollow > West Side > Mount Potosi > Southern Nevada > Nevada",https://www.mountainproject.com/route/112559396/fly-swatter,2.5,-1,Sport,5.11d,1,45,35.93379,-115.51611
"Messie Nessie","The Playground (AKA The Mall) > Kraft Mountain Area > (01) Calico Basin > Red Rocks > Southern Nevada > Nevada",https://www.mountainproject.com/route/105915704/messie-nessie,2.0,-1,Sport,5.11d,1,40,36.16133,-115.41245
"Glitter Grind Sister","Sweet Pain Wall > (04) Second Pullout (Calico II) > Red Rocks > Southern Nevada > Nevada",https://www.mountainproject.com/route/113139849/glitter-grind-sister,2.6,-1,Sport,5.11d,1,60,36.15597,-115.43663
"Bingo's Revenge","Little Shop of Horrors > Pig Rock Area > Pyramid Lake Area > Western Nevada > Nevada",https://www.mountainproject.com/route/106308902/bingos-revenge,2.5,-1,Sport,5.11d,1,40,39.8936,-119.6438
"Number 3","The Numbers Crag > Wake Up Wall Area > (05) Sandstone Quarry > Red Rocks > Southern Nevada > Nevada",https://www.mountainproject.com/route/105913011/number-3,2.3,-1,Sport,5.11d,1,40,36.16667,-115.4543
"Pocket Rocket","Trundle Wall > (04) Second Pullout (Calico II) > Red Rocks > Southern Nevada > Nevada",https://www.mountainproject.com/route/106585740/pocket-rocket,2.3,-1,Sport,5.11d,1,65,36.15229,-115.43253
Underdunk,"The Robbery Wall > Robber's Roost > Route 158 > Mount Charleston > Southern Nevada > Nevada",https://www.mountainproject.com/route/107788517/underdunk,2.3,-1,Sport,5.11d,1,60,36.30159,-115.6127
"Helter Skelter","4) Cave Sector > Wall of Misfortune > Mormon Mountains > Southern Nevada > Nevada",https://www.mountainproject.com/route/116369266/helter-skelter,2.0,-1,Sport,5.11d,1,70,36.90311,-114.28458
"Loco Motive","1. Sandy Cove Area > Rainbow Canyon > Southern Nevada > Nevada",https://www.mountainproject.com/route/107667875/loco-motive,2.0,-1,Sport,5.11d,1,,37.37397,-114.55061
[Redacted],"Pirate's Cove > Kyle Canyon > Mount Charleston > Southern Nevada > Nevada",https://www.mountainproject.com/route/106543923/redacted,2.0,-1,Sport,5.11d,1,50,36.26632,-115.61558
"Flying V","Stratocaster Area > (04) Second Pullout (Calico II) > Red Rocks > Southern Nevada > Nevada",https://www.mountainproject.com/route/120238567/flying-v,2.0,-1,Sport,5.11d,1,70,36.15852,-115.4401
"Solar Flare","Sunny and Steep > Kraft Mountain Area > (01) Calico Basin > Red Rocks > Southern Nevada > Nevada",https://www.mountainproject.com/route/120156551/solar-flare,2.0,-1,Sport,5.11d,1,45,36.16986,-115.42321
"Sno ball","The Twinkie > The Trophy Area > (05) Sandstone Quarry > Red Rocks > Southern Nevada > Nevada",https://www.mountainproject.com/route/120037924/sno-ball,2.0,-1,Sport,5.11d,1,40,36.16936,-115.45331
"Genetic Drift","4) Cave Sector > Wall of Misfortune > Mormon Mountains > Southern Nevada > Nevada",https://www.mountainproject.com/route/116369274/genetic-drift,2.0,-1,Sport,5.11d,1,70,36.90311,-114.28458
"Titan Rocket","Stratocaster Area > (04) Second Pullout (Calico II) > Red Rocks > Southern Nevada > Nevada",https://www.mountainproject.com/route/105905277/titan-rocket,2.0,-1,Sport,5.11d,1,80,36.15852,-115.4401
"Agent 99","The Spy Cliff > West Shoulder of Kraft Mountain > Kraft Mountain Area > (01) Calico Basin > Red Rocks > Southern Nevada > Nevada",https://www.mountainproject.com/route/107046364/agent-99,2.0,-1,Sport,5.11d,1,90,36.16397,-115.42492
"Leashed for life","The COVID Crag > Wake Up Wall Area > (05) Sandstone Quarry > Red Rocks > Southern Nevada > Nevada",https://www.mountainproject.com/route/122371411/leashed-for-life,2.0,-1,Sport,5.11d,1,45,36.16908,-115.45503
"Smooth Deflorator","Square Top > Cave Lake State Park > Eastern Nevada > Nevada",https://www.mountainproject.com/route/121676621/smooth-deflorator,2.0,-1,Sport,5.11d,1,,39.18143,-114.70162
Samadhi,"The Sandbox > (04) Second Pullout (Calico II) > Red Rocks > Southern Nevada > Nevada",https://www.mountainproject.com/route/121938204/samadhi,2.0,-1,Sport,5.11d,1,40,36.15401,-115.43448
"Fire Hazard","The Fire Wall > Box Canyon > La Madre Range > Southern Nevada > Nevada",https://www.mountainproject.com/route/120683379/fire-hazard,2.0,-1,Sport,5.11d,1,40,36.23019,-115.38889
"Fast Fingers","Ethics Wall > (04) Second Pullout (Calico II) > Red Rocks > Southern Nevada > Nevada",https://www.mountainproject.com/route/122377064/fast-fingers,2.0,-1,Sport,5.11d,1,90,36.15179,-115.43737
Topoline,"Square Top > Cave Lake State Park > Eastern Nevada > Nevada",https://www.mountainproject.com/route/121676666/topoline,2.0,-1,Sport,5.11d,1,,39.18143,-114.70162
"West Edge Lane","The Monument > (16) Black Velvet Canyon > Red Rocks > Southern Nevada > Nevada",https://www.mountainproject.com/route/107435440/west-edge-lane,2.0,-1,Sport,5.11d,1,80,36.03897,-115.46096
"Number 1","The Numbers Crag > Wake Up Wall Area > (05) Sandstone Quarry > Red Rocks > Southern Nevada > Nevada",https://www.mountainproject.com/route/121938148/number-1,2.0,-1,Sport,5.11d,1,40,36.16667,-115.4543
"The 11/12 Split","The Ballin' Alley > Mormon Mountains > Southern Nevada > Nevada",https://www.mountainproject.com/route/106626914/the-1112-split,2.0,-1,Sport,5.11d,1,55,36.89684,-114.30789
"Number 2","The Numbers Crag > Wake Up Wall Area > (05) Sandstone Quarry > Red Rocks > Southern Nevada > Nevada",https://www.mountainproject.com/route/109883858/number-2,2.0,-1,Sport,5.11d,1,50,36.16667,-115.4543
"Golden Nugget","Golden Nugget Boulder > Kraft Mountain Area > (01) Calico Basin > Red Rocks > Southern Nevada > Nevada",https://www.mountainproject.com/route/118214734/golden-nugget,1.8,-1,Sport,5.11d,1,30,36.16994,-115.42426
911,"Rescue Wall > (04) Second Pullout (Calico II) > Red Rocks > Southern Nevada > Nevada",https://www.mountainproject.com/route/111212708/911,1.8,-1,Sport,5.11d,1,55,36.1524,-115.43493
"Life out of Balance","Trundle Wall > (04) Second Pullout (Calico II) > Red Rocks > Southern Nevada > Nevada",https://www.mountainproject.com/route/106585748/life-out-of-balance,1.5,-1,Sport,5.11d,1,40,36.15229,-115.43253
"Salt and Vinegar","Pirate's Cove > Kyle Canyon > Mount Charleston > Southern Nevada > Nevada",https://www.mountainproject.com/route/106543954/salt-and-vinegar,1.3,-1,Sport,5.11d,1,45,36.26632,-115.61558
Land-Ho,"Pirate's Cove > Kyle Canyon > Mount Charleston > Southern Nevada > Nevada",https://www.mountainproject.com/route/106543916/land-ho,1.0,-1,Sport,5.11d,1,45,36.26632,-115.61558
"Climb Bomb","Climb Bomb > (03) First Pullout (Calico I) > Red Rocks > Southern Nevada > Nevada",https://www.mountainproject.com/route/111443428/climb-bomb,1.0,-1,Sport,5.11d,1,55,36.14658,-115.42697
Backburner,"Velvet Elvis > (03) First Pullout (Calico I) > Red Rocks > Southern Nevada > Nevada",https://www.mountainproject.com/route/111443449/backburner,1.0,-1,Sport,5.11d,1,50,36.1466,-115.42677
"Train in Vain","2. The Arêtes (a.k.a. the Road Area) > Rainbow Canyon > Southern Nevada > Nevada",https://www.mountainproject.com/route/123585832/train-in-vain,2.0,-1,Sport,5.11d,1,60,37.3741,-114.55067
"Stranded Frog","Concave Wall > Arrow Canyon > Southern Nevada > Nevada",https://www.mountainproject.com/route/123860978/stranded-frog,3.5,-1,Sport,5.11d,1,30,36.7368,-114.79148
"The Prodigal","Right Wall > The Imagination Wall > Kyle Canyon > Mount Charleston > Southern Nevada > Nevada",https://www.mountainproject.com/route/124584335/the-prodigal,3.0,-1,Sport,5.11d,1,45,36.2617,-115.66287
Sidetracked,"The Cactus Wall > La Madre Range > Southern Nevada > Nevada",https://www.mountainproject.com/route/125668098/sidetracked,2.0,-1,Sport,5.11d,1,100,36.23025,-115.33765
