Route,Location,URL,"Avg Stars","Your Stars","Route Type",Rating,Pitches,Length,"Area Latitude","Area Longitude"
"Chicken Parts","The Hinterlands > *Rumney > New Hampshire",https://www.mountainproject.com/route/106036854/chicken-parts,2.2,-1,Sport,5.10a/b,1,,43.80505,-71.84309
"The Judge","Railroad Cut > The Newbury Cut > Dartmouth / Lake Sunapee > New Hampshire",https://www.mountainproject.com/route/110181200/the-judge,3.2,-1,Sport,5.10a/b,1,50,43.31481,-72.0325
"Mildly Concussed","Falcon Wall > Hounds Hump Ridge (Eaglet etc) > WM: Franconia Notch > New Hampshire",https://www.mountainproject.com/route/117383551/mildly-concussed,2.7,-1,Sport,5.10a/b,1,60,44.17133,-71.67658
"Aiming for the Pleiades","Summit Cliff (The Highlands) > *Rumney > New Hampshire",https://www.mountainproject.com/route/113708907/aiming-for-the-pleiades,2.3,-1,Sport,5.10a/b,1,80,43.80549,-71.84378
"The Procrastinator","5. Humphrey's Hollow > 02. Humphrey's Ledge > WM: North Conway > New Hampshire",https://www.mountainproject.com/route/107908951/the-procrastinator,1.0,-1,Sport,5.10a/b,1,30,44.08775,-71.16476
"Lost Wings","Valkyrie Main > Valkyrie Wall > WM: Albany Area > New Hampshire",https://www.mountainproject.com/route/125143970/lost-wings,2.0,-1,Sport,5.10a/b,1,,43.94678,-71.17757
