Route,Location,URL,"Avg Stars","Your Stars","Route Type",Rating,Pitches,Length,"Area Latitude","Area Longitude"
"Rocking Chair","Lilly Bluff > Obed & Clear Creek > Tennessee",https://www.mountainproject.com/route/106099172/rocking-chair,2.5,-1,"Trad, Sport",5.9-,1,60,36.1022,-84.7184
"Tulip Poplar","Moonshiner Wall > Denny West > Denny Cove > Tennessee",https://www.mountainproject.com/route/113219843/tulip-poplar,2.7,-1,Sport,5.9-,1,45,35.15512,-85.69025
"Rambo strikes back","Cake Walk Wall > King's Bluff > Tennessee",https://www.mountainproject.com/route/110742474/rambo-strikes-back,2.7,-1,Sport,5.9-,1,40,36.50134,-87.32113
"Poetry In Motion","Goliath wall > Collegedale Park > Tennessee",https://www.mountainproject.com/route/121560794/poetry-in-motion,2.5,-1,Sport,5.9-,1,45,35.04831,-85.04618
"Within Sight","Tea and Crumpets Wall > Deep Creek > Tennessee",https://www.mountainproject.com/route/107162841/within-sight,1.8,-1,Sport,5.9-,1,80,35.29555,-85.19524
"Palm Tree","South Face > Devil's Race Track > Tennessee",https://www.mountainproject.com/route/108733561/palm-tree,2.2,-1,Sport,5.9-,1,40,36.32867,-84.22419
"Po' Boy","West Cliff > Dogwood > Tennessee",https://www.mountainproject.com/route/121938901/po-boy,2.4,-1,Sport,5.9-,1,30,35.49623,-85.08593
Aqueduct,"Goliath wall > Collegedale Park > Tennessee",https://www.mountainproject.com/route/121560781/aqueduct,2.0,-1,Sport,5.9-,1,45,35.04831,-85.04618
