Route,Location,URL,"Avg Stars","Your Stars","Route Type",Rating,Pitches,Length,"Area Latitude","Area Longitude"
Redline,"Bruner Run > Ohiopyle State Park > Southwestern Highlands > Pennsylvania",https://www.mountainproject.com/route/106592672/redline,3.9,-1,Sport,5.11,1,50,39.9252,-79.48958
Deliverance,"Bruner Run > Ohiopyle State Park > Southwestern Highlands > Pennsylvania",https://www.mountainproject.com/route/106592679/deliverance,3.3,-1,Sport,5.11,1,45,39.9252,-79.48958
"Thieves in the Night","River's End > Ohiopyle State Park > Southwestern Highlands > Pennsylvania",https://www.mountainproject.com/route/107794801/thieves-in-the-night,3.0,-1,Sport,5.11,1,35,39.91335,-79.48418
"Skimpy Crimpy Two Crux","Front Walls > Lower Walls > Donation Rocks > Central PA > Pennsylvania",https://www.mountainproject.com/route/118051018/skimpy-crimpy-two-crux,4.0,-1,"Sport, TR",5.11,1,55,40.57285,-77.94371
"Walking Wounded","The Main Attraction > Blue Run Rocks > Central PA > Pennsylvania",https://www.mountainproject.com/route/107903162/walking-wounded,2.5,-1,Sport,5.11,1,,41.80355,-77.54746
"I am Groot","0.5 Sunset Wall > Safe Harbor North > Safe Harbor > South Central PA > Pennsylvania",https://www.mountainproject.com/route/116236273/i-am-groot,2.0,-1,Sport,5.11,1,30,39.95847,-76.45964
