Route,Location,URL,"Avg Stars","Your Stars","Route Type",Rating,Pitches,Length,"Area Latitude","Area Longitude"
"Devil in the White House","10. Devil in the White House > Pilot Mountain > 3. Piedmont Region > North Carolina",https://www.mountainproject.com/route/106955638/devil-in-the-white-house,3.1,-1,Sport,5.10c/d,1,60,36.33997,-80.48255
"No Free Lunch","Middle Hawksbill > Hawksbill Mtn > Linville Gorge > 2. Northern Mountains Region > North Carolina",https://www.mountainproject.com/route/106390941/no-free-lunch,3.8,-1,"Trad, Sport",5.10c/d,1,100,35.91263,-81.88769
"The Dancing Outlaw","Shortoff Mountain > Linville Gorge > 2. Northern Mountains Region > North Carolina",https://www.mountainproject.com/route/106050128/the-dancing-outlaw,3.6,-1,"Trad, Sport",5.10c/d,3,400,35.83139,-81.90257
"Instant Surreal","Cereal Wall > Rumbling Bald > 1. Southern Mountains Region > North Carolina",https://www.mountainproject.com/route/106076876/instant-surreal,3.0,-1,"Trad, Sport","5.10c/d R",2,100,35.44964,-82.2129
"Into The Void","Desperado Wall > The Dark Side (Closed to climbing, included for historic reference) > 1. Southern Mountains Region > North Carolina",https://www.mountainproject.com/route/106283376/into-the-void,3.3,-1,"Trad, Sport",5.10c/d,1,80,35.6037,-79.2773
"Foreign Trade Zone","03. Foreign Trade Zone > Pilot Mountain > 3. Piedmont Region > North Carolina",https://www.mountainproject.com/route/107067924/foreign-trade-zone,1.8,-1,"Trad, Sport, TR",5.10c/d,1,,36.34066,-80.48581
"Hanging Root","Bradley Falls > 1. Southern Mountains Region > North Carolina",https://www.mountainproject.com/route/108635631/hanging-root,2.5,-1,"Trad, Sport","5.10c/d PG13",1,100,35.26847,-82.29155
"Stegg Co.","Big Green > 1. Southern Mountains Region > North Carolina",https://www.mountainproject.com/route/124604796/stegg-co,3.0,-1,Sport,5.10c/d,1,115,35.1562,-83.0281
