Route,Location,URL,"Avg Stars","Your Stars","Route Type",Rating,Pitches,Length,"Area Latitude","Area Longitude"
Plush,"Holiday Block > Sand Rock > Alabama",https://www.mountainproject.com/route/105943103/plush,2.4,-1,Sport,5.12a/b,1,75,34.17961,-85.8179
"Toxic Masculinity","Turtle Rock > Sand Rock > Alabama",https://www.mountainproject.com/route/116647759/toxic-masculinity,3.3,-1,Sport,5.12a/b,1,35,34.1815,-85.81285
"Gel God","Grace Falls > Little River Canyon > Alabama",https://www.mountainproject.com/route/118876349/gel-god,3.0,-1,Sport,5.12a/b,1,70,34.35929,-85.66846
Pygmy,"Turtle Rock > Sand Rock > Alabama",https://www.mountainproject.com/route/106136567/pygmy,3.0,-1,Sport,5.12a/b,1,30,34.1815,-85.81285
"Hueco Route","Crazy House > Little River Canyon > Alabama",https://www.mountainproject.com/route/112790096/hueco-route,2.2,-1,Sport,5.12a/b,1,,34.36424,-85.65413
"Steel Sky","Sun Wall > Sand Rock > Alabama",https://www.mountainproject.com/route/116708802/steel-sky,2.3,-1,Sport,5.12a/b,1,,34.18041,-85.81555
Pepe,"Brandnewbia > Little River Canyon > Alabama",https://www.mountainproject.com/route/124079767/pepe,1.0,-1,Sport,5.12a/b,1,20,34.3577,-85.67626
"Cole Blooded","Brandnewbia > Little River Canyon > Alabama",https://www.mountainproject.com/route/124473779/cole-blooded,3.0,-1,Sport,5.12a/b,1,50,34.3577,-85.67626
