Route,Location,URL,"Avg Stars","Your Stars","Route Type",Rating,Pitches,Length,"Area Latitude","Area Longitude"
"Jawa Jam","Tatooine > Galaxy Area > Rock Canyon > Southern Wasatch > Wasatch Range > Utah",https://www.mountainproject.com/route/106405078/jawa-jam,3.5,-1,Sport,5.9,1,115,40.26667,-111.61443
"Out of Gas","Eavesdown Docks > Serenity > American Fork Canyon > Southern Wasatch > Wasatch Range > Utah",https://www.mountainproject.com/route/108326353/out-of-gas,3.1,-1,Sport,5.9,1,60,40.45095,-111.66614
"The Grecian Highway","Thessalonian Buttress > Maple Canyon Road > Maple Canyon > Central Utah > Utah",https://www.mountainproject.com/route/105836178/the-grecian-highway,3.2,-1,Sport,5.9,3,285,39.5553,-111.6859
"Brush Your Teeth","Ice Cream Parlor > Kane Springs Canyon > Southeast Utah > Utah",https://www.mountainproject.com/route/107920861/brush-your-teeth,2.9,-1,"Trad, Sport",5.9,1,70,38.5092,-109.5995
"Hollow Man","North and West Faces > Challenge Buttress > Big Cottonwood Canyon > Central Wasatch > Wasatch Range > Utah",https://www.mountainproject.com/route/105740249/hollow-man,3.0,-1,Sport,5.9,1,70,40.62207,-111.74571
"Past Lives","Prophesy Wall > Saint George > Southwest Utah > Utah",https://www.mountainproject.com/route/106056709/past-lives,3.0,-1,Sport,5.9,3,180,37.2939,-113.6932
"Monkey Duodenum","Orangutan Wall > Left Fork > Maple Canyon > Central Utah > Utah",https://www.mountainproject.com/route/105841699/monkey-duodenum,3.0,-1,Sport,5.9,1,100,39.55474,-111.68811
Minienticer,"The Minimum Crag > Right Fork > Maple Canyon > Central Utah > Utah",https://www.mountainproject.com/route/105989461/minienticer,3.0,-1,Sport,5.9,1,80,39.5622,-111.6906
"Peace Treaty","Good Medicine Area > Ruth Lake > Uinta Mountains > Northeast Utah > Utah",https://www.mountainproject.com/route/105741134/peace-treaty,3.0,-1,Sport,5.9,1,60,40.73091,-110.87835
"Zen Fen","Zen Garden > Right Fork > Maple Canyon > Central Utah > Utah",https://www.mountainproject.com/route/105857281/zen-fen,2.9,-1,Sport,5.9,1,60,39.5632,-111.6908
"Cosmic Space Dust Lazers","Layer Cake > Rock Canyon > Southern Wasatch > Wasatch Range > Utah",https://www.mountainproject.com/route/106147229/cosmic-space-dust-lazers,2.8,-1,Sport,5.9,9,1000,40.2667,-111.6245
"The Yeti","Hobbit Caves > Right Hand Fork > Logan Canyon > Cache Valley > Northern Wasatch > Wasatch Range > Utah",https://www.mountainproject.com/route/107174280/the-yeti,2.9,-1,Sport,5.9,1,50,41.7804,-111.635
"Lord of the Slings","Trilogy Buttress > Rock Canyon > Southern Wasatch > Wasatch Range > Utah",https://www.mountainproject.com/route/105853685/lord-of-the-slings,2.7,-1,Sport,5.9,4,600,40.2675,-111.6254
"Hornets Nest","Beer Can Alley > American Fork Canyon > Southern Wasatch > Wasatch Range > Utah",https://www.mountainproject.com/route/106481519/hornets-nest,2.8,-1,Sport,5.9,1,45,40.4452,-111.6982
"Green Jello","Green Monster Slab > Rock Canyon > Southern Wasatch > Wasatch Range > Utah",https://www.mountainproject.com/route/105742124/green-jello,2.8,-1,Sport,5.9,2,140,40.2651,-111.6222
"Fowl Play","Bumble Bee Wall > Storm Mountain Picnic Area > Big Cottonwood Canyon > Central Wasatch > Wasatch Range > Utah",https://www.mountainproject.com/route/105740792/fowl-play,2.7,-1,Sport,5.9,1,110,40.62605,-111.7462
"Little Hellion","Tower One > Hellgate Cliffs > Little Cottonwood Canyon > Central Wasatch > Wasatch Range > Utah",https://www.mountainproject.com/route/105741566/little-hellion,2.7,-1,Sport,5.9,1,120,40.59015,-111.64812
Potstash,"Wall Street > Potash Road > Southeast Utah > Utah",https://www.mountainproject.com/route/105894776/potstash,2.5,-1,Sport,5.9,1,60,38.54668,-109.59959
"Pebbles and Bambam","Beckey's Wall Area > Gate Buttress > Little Cottonwood Canyon > Central Wasatch > Wasatch Range > Utah",https://www.mountainproject.com/route/105741395/pebbles-and-bambam,2.6,-1,"Sport, TR",5.9,1,110,40.5729,-111.7529
Bushwhacked,"Eavesdown Docks > Serenity > American Fork Canyon > Southern Wasatch > Wasatch Range > Utah",https://www.mountainproject.com/route/108326404/bushwhacked,2.6,-1,Sport,5.9,1,80,40.45095,-111.66614
"The Gentleman Who Fell","Stone Garden > Uinta Mountains > Northeast Utah > Utah",https://www.mountainproject.com/route/105845987/the-gentleman-who-fell,2.6,-1,Sport,5.9,1,75,40.74985,-110.87912
"Choose Your Weapon","Engagement Alcove > Left Fork > Maple Canyon > Central Utah > Utah",https://www.mountainproject.com/route/105740516/choose-your-weapon,2.5,-1,Sport,5.9,1,70,39.5545,-111.6881
"Exposed Cleavage","PA's Mother > Rock Canyon > Southern Wasatch > Wasatch Range > Utah",https://www.mountainproject.com/route/106005423/exposed-cleavage,2.5,-1,Sport,5.9,1,90,40.2656,-111.6204
"A Modest Man from Mandrake","Dogwood Crag > Big Cottonwood Canyon > Central Wasatch > Wasatch Range > Utah",https://www.mountainproject.com/route/105739916/a-modest-man-from-mandrake,2.4,-1,Sport,5.9,1,80,40.6238,-111.7671
"Gotta Be Tall Or Else You'll Fall","Iron Curtain Wall > Parley's Canyon > Central Wasatch > Wasatch Range > Utah",https://www.mountainproject.com/route/105740111/gotta-be-tall-or-else-youll-fall,2.4,-1,Sport,5.9,1,80,40.71014,-111.79345
"Elysian Fields","Blob's Your Uncle > The Valley of Zion > Stansbury Mountains > West Desert > Utah",https://www.mountainproject.com/route/108360588/elysian-fields,2.8,-1,Sport,5.9,4,300,40.7403,-112.6394
"The Mantel Route","Red Slab > Rock Canyon > Southern Wasatch > Wasatch Range > Utah",https://www.mountainproject.com/route/105741248/the-mantel-route,2.5,-1,"Sport, TR",5.9,1,70,40.2645,-111.6236
"Wisky Bench","The Melting Mud Wall > East Hellgate > Hellgate Cliffs > Little Cottonwood Canyon > Central Wasatch > Wasatch Range > Utah",https://www.mountainproject.com/route/107688903/wisky-bench,2.4,-1,Sport,5.9,1,110,40.58991,-111.64385
Butterfingers,"The Membrane > American Fork Canyon > Southern Wasatch > Wasatch Range > Utah",https://www.mountainproject.com/route/107744894/butterfingers,2.4,-1,Sport,5.9,1,59,40.44666,-111.68668
"Brown Banana","Wall Street > Potash Road > Southeast Utah > Utah",https://www.mountainproject.com/route/106434517/brown-banana,2.2,-1,Sport,5.9,1,60,38.54668,-109.59959
"Physical Therapy","Division Wall > American Fork Canyon > Southern Wasatch > Wasatch Range > Utah",https://www.mountainproject.com/route/105741701/physical-therapy,2.4,-1,Sport,5.9,1,60,40.4503,-111.668
"Red Red Whine","Red Slab > Rock Canyon > Southern Wasatch > Wasatch Range > Utah",https://www.mountainproject.com/route/105802352/red-red-whine,2.4,-1,Sport,5.9,1,50,40.2645,-111.6236
Hinterlander,"South-Facing Wall > The Hinterlands > Southern Wasatch > Wasatch Range > Utah",https://www.mountainproject.com/route/110137579/hinterlander,3.1,-1,Sport,5.9,1,60,40.27488,-111.62795
"Rat Bastards","The Melting Mud Wall > East Hellgate > Hellgate Cliffs > Little Cottonwood Canyon > Central Wasatch > Wasatch Range > Utah",https://www.mountainproject.com/route/106020476/rat-bastards,2.4,-1,Sport,5.9,1,75,40.58991,-111.64385
"Heroes Get Remembered","Sand Dunes > Island In The Sky > Snow Canyon State Park > Saint George > Southwest Utah > Utah",https://www.mountainproject.com/route/119396630/heroes-get-remembered,3.4,-1,Sport,5.9,5,400,37.19133,-113.64333
"Spear of Destiny","Utopia > River Road > Southeast Utah > Utah",https://www.mountainproject.com/route/107619348/spear-of-destiny,3.6,-1,Sport,"5.9 PG13",1,90,38.65092,-109.49562
"Out to the Black","Eavesdown Docks > Serenity > American Fork Canyon > Southern Wasatch > Wasatch Range > Utah",https://www.mountainproject.com/route/108326364/out-to-the-black,2.3,-1,Sport,5.9,1,60,40.45095,-111.66614
FootLoose,"The Cinema > Take-Out Beach > River Road > Southeast Utah > Utah",https://www.mountainproject.com/route/112542539/footloose,2.3,-1,Sport,5.9,1,45,38.66006,-109.49974
"Perky's Playground","Green Valley Gap > Saint George > Southwest Utah > Utah",https://www.mountainproject.com/route/105787623/perkys-playground,2.3,-1,Sport,5.9,1,40,37.08852,-113.63779
MEGA,"East Face > Challenge Buttress > Big Cottonwood Canyon > Central Wasatch > Wasatch Range > Utah",https://www.mountainproject.com/route/106008134/mega,2.3,-1,Sport,5.9,1,110,40.62202,-111.74528
"Whatever Happens...Happens (aka. Watermelon Wishes and 40oz dreams)","Prophesy Wall > Saint George > Southwest Utah > Utah",https://www.mountainproject.com/route/106038464/whatever-happenshappens-aka-watermelon-wishes-and-40oz-dreams,2.7,-1,"Trad, Sport",5.9,1,110,37.2939,-113.6932
"Minor Threat","The Melting Mud Wall > East Hellgate > Hellgate Cliffs > Little Cottonwood Canyon > Central Wasatch > Wasatch Range > Utah",https://www.mountainproject.com/route/106020487/minor-threat,2.3,-1,Sport,5.9,1,50,40.58991,-111.64385
"Peyote Trip","Last Stand Wall > Ruth Lake > Uinta Mountains > Northeast Utah > Utah",https://www.mountainproject.com/route/105993637/peyote-trip,2.5,-1,Sport,5.9,1,60,40.73076,-110.87897
"""That's What She Said'","9th Street > Ogden > Northern Wasatch > Wasatch Range > Utah",https://www.mountainproject.com/route/106826981/thats-what-she-said,2.2,-1,Sport,5.9,1,40,41.24972,-111.93404
"The Awakening","Kelly's Rock > Woodbury Road Crags > Utah Hills > Saint George > Southwest Utah > Utah",https://www.mountainproject.com/route/107147274/the-awakening,2.2,-1,Sport,5.9,1,40,37.0183,-113.8498
"Pilled Out","Battalion of Saints Wall > Big Cottonwood Canyon > Central Wasatch > Wasatch Range > Utah",https://www.mountainproject.com/route/105989002/pilled-out,2.2,-1,Sport,5.9,1,60,40.63995,-111.69518
Hyperspace,"Tatooine > Galaxy Area > Rock Canyon > Southern Wasatch > Wasatch Range > Utah",https://www.mountainproject.com/route/106415144/hyperspace,2.8,-1,Sport,5.9,1,85,40.26667,-111.61443
"Parlor Game","Ice Cream Parlor > Kane Springs Canyon > Southeast Utah > Utah",https://www.mountainproject.com/route/105949903/parlor-game,2.1,-1,Sport,5.9,1,50,38.5092,-109.5995
"Vaporous Apparition","Hard Rock > American Fork Canyon > Southern Wasatch > Wasatch Range > Utah",https://www.mountainproject.com/route/105741350/vaporous-apparition,2.1,-1,Sport,5.9,1,,40.4507,-111.6717
"She-la the Peeler","Wall Street > Potash Road > Southeast Utah > Utah",https://www.mountainproject.com/route/107598703/she-la-the-peeler,2.1,-1,Sport,5.9,1,90,38.54668,-109.59959
Lungshot,"Oxygen Wall > Right Fork > Maple Canyon > Central Utah > Utah",https://www.mountainproject.com/route/106025614/lungshot,2.1,-1,Sport,5.9,1,35,39.5615,-111.6892
"Unknown Left","Hard Rock > American Fork Canyon > Southern Wasatch > Wasatch Range > Utah",https://www.mountainproject.com/route/105841604/unknown-left,2.1,-1,Sport,5.9,1,55,40.4507,-111.6717
"Clean Underwear","S-Curve - Upper Wall > S-Curves > Big Cottonwood Canyon > Central Wasatch > Wasatch Range > Utah",https://www.mountainproject.com/route/105740858/clean-underwear,2.1,-1,Sport,5.9,1,70,40.63471,-111.72262
Stump,"Hard Rock > American Fork Canyon > Southern Wasatch > Wasatch Range > Utah",https://www.mountainproject.com/route/105885695/stump,2.1,-1,Sport,5.9,1,40,40.4507,-111.6717
"Hallowed Ground","The B-52 Wall > American Fork Canyon > Southern Wasatch > Wasatch Range > Utah",https://www.mountainproject.com/route/117686346/hallowed-ground,3.5,-1,Sport,5.9,1,100,40.44548,-111.69298
"Quicker Picker Upper","Hard Rock > American Fork Canyon > Southern Wasatch > Wasatch Range > Utah",https://www.mountainproject.com/route/105838776/quicker-picker-upper,2.0,-1,Sport,5.9,1,55,40.4507,-111.6717
"Chorus Line","S-Curve - Lower > S-Curves > Big Cottonwood Canyon > Central Wasatch > Wasatch Range > Utah",https://www.mountainproject.com/route/105740330/chorus-line,2.0,-1,Sport,5.9,1,80,40.63387,-111.72201
"Comfort Zone","Waterfront, The > Little Cottonwood Canyon > Central Wasatch > Wasatch Range > Utah",https://www.mountainproject.com/route/105741179/comfort-zone,2.2,-1,Sport,5.9,1,70,40.5739,-111.7562
"G.I. Joe","Tinker Toys > Rock Canyon > Southern Wasatch > Wasatch Range > Utah",https://www.mountainproject.com/route/105742100/gi-joe,2.0,-1,"Sport, TR",5.9,1,30,40.265,-111.6223
"Sands of Blood","Chuckwalla Wall > Saint George > Southwest Utah > Utah",https://www.mountainproject.com/route/105787215/sands-of-blood,2.0,-1,Sport,5.9,1,40,37.13919,-113.60558
"The Soffit of Jericho","Prophesy Wall > Saint George > Southwest Utah > Utah",https://www.mountainproject.com/route/106038469/the-soffit-of-jericho,2.7,-1,Sport,5.9,1,70,37.2939,-113.6932
"Choir Boy","S-Curve - Lower > S-Curves > Big Cottonwood Canyon > Central Wasatch > Wasatch Range > Utah",https://www.mountainproject.com/route/105740333/choir-boy,1.8,-1,Sport,5.9,1,90,40.63387,-111.72201
"Casual Slander","Sunny Side > Black Rocks > Saint George > Southwest Utah > Utah",https://www.mountainproject.com/route/105718825/casual-slander,1.9,-1,"Sport, TR",5.9,1,30,37.155,-113.6073
"Old Glory","Mullein Land > Logan Canyon > Cache Valley > Northern Wasatch > Wasatch Range > Utah",https://www.mountainproject.com/route/107159369/old-glory,2.6,-1,Sport,5.9,1,75,41.76825,-111.66486
"Aaron's Hot Venom Injection Arete","Cobrazone > Bald Mountain > Uinta Mountains > Northeast Utah > Utah",https://www.mountainproject.com/route/111098390/aarons-hot-venom-injection-arete,3.6,-1,"Sport, Alpine",5.9,1,100,40.694,-110.90243
"Double Tap","Salt Lake Slips > Big Cottonwood Canyon > Central Wasatch > Wasatch Range > Utah",https://www.mountainproject.com/route/107827287/double-tap,2.4,-1,Sport,5.9,1,60,40.6226,-111.748
Mutation,"Iron Curtain Wall > Parley's Canyon > Central Wasatch > Wasatch Range > Utah",https://www.mountainproject.com/route/105740075/mutation,1.5,-1,Sport,5.9,1,60,40.71014,-111.79345
"This Scud's For You","Walls of Liberation > Right Fork > Maple Canyon > Central Utah > Utah",https://www.mountainproject.com/route/107680025/this-scuds-for-you,2.7,-1,Sport,5.9,1,50,39.56175,-111.6876
"Puppy Love","Wall Street > Potash Road > Southeast Utah > Utah",https://www.mountainproject.com/route/105717802/puppy-love,1.9,-1,"Trad, Sport",5.9,1,70,38.54668,-109.59959
"The Chicken Who Didnt","Road Kill Wall > Maple Canyon Road > Maple Canyon > Central Utah > Utah",https://www.mountainproject.com/route/111801758/the-chicken-who-didnt,2.7,-1,Sport,5.9,1,90,39.5566,-111.6855
"Harsh Reality","Prophesy Wall > Saint George > Southwest Utah > Utah",https://www.mountainproject.com/route/106065730/harsh-reality,2.5,-1,Sport,5.9,2,190,37.2939,-113.6932
"Raspberry Dreams","Isolation Wall > American Fork Canyon > Southern Wasatch > Wasatch Range > Utah",https://www.mountainproject.com/route/111001252/raspberry-dreams,2.4,-1,Sport,5.9,1,40,40.44649,-111.68579
"Homecoming Princess","Ramp Routes > The Schoolroom > Ogden > Northern Wasatch > Wasatch Range > Utah",https://www.mountainproject.com/route/105804416/homecoming-princess,2.3,-1,Sport,5.9,1,60,41.2248,-111.92513
"Paul's Route","The Moore Wall > Moosehorn > Uinta Mountains > Northeast Utah > Utah",https://www.mountainproject.com/route/106864596/pauls-route,2.9,-1,"Sport, Alpine",5.9,1,90,40.70027,-110.89817
"Pump It Until Purple","Purple Wall > Maybird Slide Area > Little Cottonwood Canyon > Central Wasatch > Wasatch Range > Utah",https://www.mountainproject.com/route/105984597/pump-it-until-purple,2.1,-1,Sport,5.9,1,30,40.5752,-111.7082
"Raindrops on Lichen","West Wall > Maple Corridor > Maple Canyon Road > Maple Canyon > Central Utah > Utah",https://www.mountainproject.com/route/105741536/raindrops-on-lichen,1.9,-1,Sport,5.9,1,40,39.5555,-111.68289
"Motley Cruise","Iron Curtain Wall > Parley's Canyon > Central Wasatch > Wasatch Range > Utah",https://www.mountainproject.com/route/105740078/motley-cruise,1.6,-1,Sport,5.9,1,60,40.71014,-111.79345
"Milky Way","Milky Way Wall > Galaxy Area > Rock Canyon > Southern Wasatch > Wasatch Range > Utah",https://www.mountainproject.com/route/106202757/milky-way,2.5,-1,Sport,5.9,1,,40.26569,-111.61284
"Topless Vegetables","Kelly's Rock > Woodbury Road Crags > Utah Hills > Saint George > Southwest Utah > Utah",https://www.mountainproject.com/route/107072603/topless-vegetables,2.3,-1,Sport,5.9,1,60,37.0183,-113.8498
"Bay of Fundy","Low Tide > Rock Canyon > Southern Wasatch > Wasatch Range > Utah",https://www.mountainproject.com/route/106257159/bay-of-fundy,2.6,-1,Sport,5.9,1,45,40.2646,-111.6121
"Fist Full of Dollars","Bear Hollow Wall > Bear Hollow > Echo Canyon > Wasatch Back > Wasatch Range > Utah",https://www.mountainproject.com/route/108986979/fist-full-of-dollars,2.5,-1,Sport,5.9,1,40,41.00135,-111.39195
"Diesel Seranade","Roadside Crag > Echo Canyon > Wasatch Back > Wasatch Range > Utah",https://www.mountainproject.com/route/110235351/diesel-seranade,2.3,-1,Sport,5.9,1,40,41.00686,-111.3826
"26 Bananas","Mullein Land > Logan Canyon > Cache Valley > Northern Wasatch > Wasatch Range > Utah",https://www.mountainproject.com/route/107177604/26-bananas,2.6,-1,Sport,5.9,1,70,41.76825,-111.66486
"Mantel Variation","Schoolroom Area > Gate Buttress > Little Cottonwood Canyon > Central Wasatch > Wasatch Range > Utah",https://www.mountainproject.com/route/105740669/mantel-variation,2.3,-1,Sport,5.9,1,50,40.5733,-111.754
"Jen's French Kiss","Red Rock Wall > Big Cottonwood Canyon > Central Wasatch > Wasatch Range > Utah",https://www.mountainproject.com/route/106062132/jens-french-kiss,2.2,-1,Sport,5.9,1,50,40.65369,-111.6527
"Black Hash","Green Stash Wall > Cecret Lake > Albion Basin > Little Cottonwood Canyon > Central Wasatch > Wasatch Range > Utah",https://www.mountainproject.com/route/105990011/black-hash,1.9,-1,Sport,5.9,1,60,40.5699,-111.62454
"Super Fly","The Flytrap > Crawdad Canyon / Veyo > Saint George > Southwest Utah > Utah",https://www.mountainproject.com/route/105849901/super-fly,2.4,-1,Sport,5.9,1,55,37.33492,-113.68818
"Community Service","9th Street > Ogden > Northern Wasatch > Wasatch Range > Utah",https://www.mountainproject.com/route/112211823/community-service,2.3,-1,Sport,5.9,1,30,41.24972,-111.93404
"Beauty Pageant","Black and Tan > Woodbury Road Crags > Utah Hills > Saint George > Southwest Utah > Utah",https://www.mountainproject.com/route/106685023/beauty-pageant,2.8,-1,Sport,5.9,1,100,37.0175,-113.8518
Thunderbolt,"Clint Eastwood Wall > Bear Hollow > Echo Canyon > Wasatch Back > Wasatch Range > Utah",https://www.mountainproject.com/route/109573732/thunderbolt,2.1,-1,Sport,5.9,1,45,41.00109,-111.39143
"Eagle Tenders","The Early Bird Crag > Maple Canyon Road > Maple Canyon > Central Utah > Utah",https://www.mountainproject.com/route/107693844/eagle-tenders,2.5,-1,Sport,5.9,1,70,39.55575,-111.68189
"Working in a Coal Mine","Unknown Pleasures > American Fork Canyon > Southern Wasatch > Wasatch Range > Utah",https://www.mountainproject.com/route/112110006/working-in-a-coal-mine,2.9,-1,Sport,5.9,1,115,40.4445,-111.6966
"Creaking Plank","Strone Crag > Big Cottonwood Canyon > Central Wasatch > Wasatch Range > Utah",https://www.mountainproject.com/route/106970007/creaking-plank,2.8,-1,Sport,5.9,1,85,40.6214,-111.7461
"Meconium 23","West Wall > Maple Corridor > Maple Canyon Road > Maple Canyon > Central Utah > Utah",https://www.mountainproject.com/route/105741488/meconium-23,2.2,-1,Sport,5.9,1,50,39.5555,-111.68289
Slamfire,"Armory, The > Middle Fork > Maple Canyon > Central Utah > Utah",https://www.mountainproject.com/route/105838585/slamfire,3.1,-1,Sport,5.9,4,300,39.5616,-111.7014
"Child's Play","Juniper Wall > American Fork Canyon > Southern Wasatch > Wasatch Range > Utah",https://www.mountainproject.com/route/105742163/childs-play,2.2,-1,"Sport, TR",5.9,1,46,40.4461,-111.6948
"Lake Effect","Cliff Lake > Uinta Mountains > Northeast Utah > Utah",https://www.mountainproject.com/route/106711955/lake-effect,2.8,-1,"Trad, Sport",5.9,1,50,40.6879,-110.9686
"Maple Jones","Bear Hollow Wall > Bear Hollow > Echo Canyon > Wasatch Back > Wasatch Range > Utah",https://www.mountainproject.com/route/106427857/maple-jones,2.0,-1,Sport,5.9,1,60,41.00135,-111.39195
"Whiskey  Wednesday","Melting Mud West > East Hellgate > Hellgate Cliffs > Little Cottonwood Canyon > Central Wasatch > Wasatch Range > Utah",https://www.mountainproject.com/route/106262929/whiskey-wednesday,1.8,-1,"Sport, Alpine",5.9,1,75,40.59001,-111.64447
"Baby Swiss","The Narrow > Pioneer Park > Saint George > Southwest Utah > Utah",https://www.mountainproject.com/route/106978358/baby-swiss,2.6,-1,Sport,5.9,1,35,37.11691,-113.57585
"Watermelon Tetris","Lonely Challenge Area > Big Cottonwood Canyon > Central Wasatch > Wasatch Range > Utah",https://www.mountainproject.com/route/112105184/watermelon-tetris,2.7,-1,Sport,5.9,1,70,40.62048,-111.74596
"Rezin Heads","Green Stash Wall > Cecret Lake > Albion Basin > Little Cottonwood Canyon > Central Wasatch > Wasatch Range > Utah",https://www.mountainproject.com/route/105990015/rezin-heads,2.0,-1,Sport,5.9,1,60,40.5699,-111.62454
"Love Hurts","Sunshine Wall Routes > Sunshine Wall > Southeast Utah > Utah",https://www.mountainproject.com/route/105718015/love-hurts,2.4,-1,"Trad, Sport",5.9,1,120,38.8607,-109.7425
"Screen Printer","The Jobsite > Rock Canyon > Southern Wasatch > Wasatch Range > Utah",https://www.mountainproject.com/route/106067828/screen-printer,2.1,-1,Sport,5.9,1,,40.2665,-111.624
"Blue Steel","Ramp Routes > The Schoolroom > Ogden > Northern Wasatch > Wasatch Range > Utah",https://www.mountainproject.com/route/105804433/blue-steel,2.0,-1,Sport,5.9,1,60,41.2248,-111.92513
"Red Dwarf","Red Slab > Rock Canyon > Southern Wasatch > Wasatch Range > Utah",https://www.mountainproject.com/route/105742193/red-dwarf,2.1,-1,"Sport, TR","5.9 PG13",1,70,40.2645,-111.6236
"Warm & Soapy Lather","Lou's Tavern > Middle Fork > Maple Canyon > Central Utah > Utah",https://www.mountainproject.com/route/107762870/warm-soapy-lather,2.5,-1,Sport,5.9,1,50,39.55794,-111.68912
"Sport Rappelling is Neither","The Getaway Wall > Notch Lake > Uinta Mountains > Northeast Utah > Utah",https://www.mountainproject.com/route/106495628/sport-rappelling-is-neither,2.4,-1,Sport,5.9,1,55,40.70396,-110.9349
"Graduate, The","Higher Education Ridge, West Face > Gully of Higher Education Area > Big Cottonwood Canyon > Central Wasatch > Wasatch Range > Utah",https://www.mountainproject.com/route/105740309/graduate-the,2.1,-1,Sport,5.9,1,50,40.63012,-111.74032
"Rumble Strip","The Bungalow > Parley's Canyon > Central Wasatch > Wasatch Range > Utah",https://www.mountainproject.com/route/106568855/rumble-strip,2.1,-1,Sport,5.9,1,,40.71094,-111.78952
"The Fella's","Shady Side > Black Rocks > Saint George > Southwest Utah > Utah",https://www.mountainproject.com/route/109587676/the-fellas,2.4,-1,Sport,"5.9 PG13",1,35,37.1548,-113.6074
Snatch,"The Jobsite > Rock Canyon > Southern Wasatch > Wasatch Range > Utah",https://www.mountainproject.com/route/106087036/snatch,2.7,-1,Sport,5.9,3,250,40.2665,-111.624
"Tokey Dokey","Tokey Dokey > The Valley of Zion > Stansbury Mountains > West Desert > Utah",https://www.mountainproject.com/route/109974021/tokey-dokey,3.0,-1,Sport,5.9,1,60,40.7389,-112.6404
"Project Mayhem","Lou's Tavern > Middle Fork > Maple Canyon > Central Utah > Utah",https://www.mountainproject.com/route/107763125/project-mayhem,2.6,-1,Sport,5.9,1,50,39.55794,-111.68912
Ledgarithm,"Layer Cake > Rock Canyon > Southern Wasatch > Wasatch Range > Utah",https://www.mountainproject.com/route/106147239/ledgarithm,2.4,-1,Sport,5.9,4,300,40.2667,-111.6245
"Run Bunny, Run","Shady Side > Black Rocks > Saint George > Southwest Utah > Utah",https://www.mountainproject.com/route/105930881/run-bunny-run,1.6,-1,"Sport, TR",5.9,1,35,37.1548,-113.6074
"Spirit World","The Watchtower > CLOSED - The Soul Asylum > Utah Hills > Saint George > Southwest Utah > Utah",https://www.mountainproject.com/route/106943822/spirit-world,2.6,-1,Sport,5.9,1,60,37.07398,-113.81909
Deceived,"Powder Ridge Wall > Big Cottonwood Canyon > Central Wasatch > Wasatch Range > Utah",https://www.mountainproject.com/route/105945919/deceived,1.8,-1,"Sport, TR",5.9,1,50,40.6152,-111.78
"Safety Goggles","29th Street > Ogden > Northern Wasatch > Wasatch Range > Utah",https://www.mountainproject.com/route/106725784/safety-goggles,1.9,-1,"Sport, TR",5.9,1,30,41.2102,-111.9294
29,"Isolation Wall > American Fork Canyon > Southern Wasatch > Wasatch Range > Utah",https://www.mountainproject.com/route/111013336/29,2.3,-1,Sport,5.9,1,43,40.44649,-111.68579
Unknown,"Simpson Rock > Right Fork > Maple Canyon > Central Utah > Utah",https://www.mountainproject.com/route/108301090/unknown,2.5,-1,Sport,5.9,1,60,39.56135,-111.68774
"Uinta Hit Squad","Assassin Wall > Ruth Lake > Uinta Mountains > Northeast Utah > Utah",https://www.mountainproject.com/route/105843814/uinta-hit-squad,2.2,-1,Sport,5.9,1,70,40.73063,-110.87969
[Redacted],"Lou's Tavern > Middle Fork > Maple Canyon > Central Utah > Utah",https://www.mountainproject.com/route/107763111/redacted,2.4,-1,Sport,5.9,1,40,39.55794,-111.68912
K-3,"Kelly's Rock > Woodbury Road Crags > Utah Hills > Saint George > Southwest Utah > Utah",https://www.mountainproject.com/route/107147355/k-3,1.9,-1,Sport,"5.9 PG13",1,40,37.0183,-113.8498
Implorien,"Mule Hollow Wall > Big Cottonwood Canyon > Central Wasatch > Wasatch Range > Utah",https://www.mountainproject.com/route/105957892/implorien,2.6,-1,Sport,5.9,2,200,40.63207,-111.75115
D'Zard,"The Blank Cave > Sunset Alley > Beaver Dam Road > Saint George > Southwest Utah > Utah",https://www.mountainproject.com/route/111362733/dzard,1.9,-1,Sport,5.9,1,70,37.13401,-113.84451
"Nine in Black","Trilogy Buttress > Rock Canyon > Southern Wasatch > Wasatch Range > Utah",https://www.mountainproject.com/route/106054965/nine-in-black,2.3,-1,Sport,5.9,1,100,40.2675,-111.6254
"Sick at 17000","Super Bowl Wall > Rock Canyon > Southern Wasatch > Wasatch Range > Utah",https://www.mountainproject.com/route/105973392/sick-at-17000,1.6,-1,Sport,5.9,1,40,40.26656,-111.62635
"Where Love Ran Red","Lower Sector > Disciple Ridge > Big Cottonwood Canyon > Central Wasatch > Wasatch Range > Utah",https://www.mountainproject.com/route/114618571/where-love-ran-red,3.2,-1,Sport,5.9,1,100,40.61946,-111.74337
Earwig,"Stairway to Heaven > Knightland > Left Hand Fork > Blacksmith Fork Canyon > Cache Valley > Northern Wasatch > Wasatch Range > Utah",https://www.mountainproject.com/route/106966353/earwig,2.5,-1,Sport,5.9,1,75,41.65352,-111.69423
"Bring Your Lunch","9th Street > Ogden > Northern Wasatch > Wasatch Range > Utah",https://www.mountainproject.com/route/106577648/bring-your-lunch,2.2,-1,"Sport, TR",5.9,1,45,41.24972,-111.93404
"Negative Ions","Baby Rubicon > Crawdad Canyon / Veyo > Saint George > Southwest Utah > Utah",https://www.mountainproject.com/route/107249307/negative-ions,2.6,-1,Sport,5.9,1,,37.33604,-113.68702
"9 Ball The Hard Way","Ganja Wall > Ophir Canyon > Oquirrh Mountains > West Desert > Utah",https://www.mountainproject.com/route/107697020/9-ball-the-hard-way,2.8,-1,Sport,5.9,1,40,40.35953,-112.27356
"Fast Times at Wolverine High","The Early Bird Crag > Maple Canyon Road > Maple Canyon > Central Utah > Utah",https://www.mountainproject.com/route/110256982/fast-times-at-wolverine-high,2.1,-1,Sport,5.9,1,55,39.55575,-111.68189
"Stepping Out","Sand Dunes > Island In The Sky > Snow Canyon State Park > Saint George > Southwest Utah > Utah",https://www.mountainproject.com/route/106615703/stepping-out,2.8,-1,"Trad, Sport",5.9,2,160,37.19133,-113.64333
"Whiskey Lounge","Whiskey Lounge > Right Fork > Maple Canyon > Central Utah > Utah",https://www.mountainproject.com/route/105983445/whiskey-lounge,1.8,-1,Sport,5.9,1,45,39.56335,-111.69038
"Your Substrate Makes My Lava Flow","Pangaea > Jungle, on the Aquarius Plateau > South Central Utah > Utah",https://www.mountainproject.com/route/109284426/your-substrate-makes-my-lava-flow,3.3,-1,"Sport, Alpine",5.9,1,50,37.76031,-111.87101
"Voodoo Goat","The Clamshell > East Hellgate > Hellgate Cliffs > Little Cottonwood Canyon > Central Wasatch > Wasatch Range > Utah",https://www.mountainproject.com/route/106020537/voodoo-goat,2.1,-1,Sport,5.9,1,75,40.59043,-111.64567
"Electric Company","The Cone Area > Cedar City > Southwest Utah > Utah",https://www.mountainproject.com/route/106464998/electric-company,2.3,-1,Sport,5.9,1,30,37.63609,-113.27531
"Blister in the Sun","Volkswagon Wall > Spring Canyon > Central Utah > Utah",https://www.mountainproject.com/route/116672666/blister-in-the-sun,2.5,-1,"Sport, TR",5.9,1,50,39.70034,-110.91995
Riptide,"Riptide Wall > Parley's Canyon > Central Wasatch > Wasatch Range > Utah",https://www.mountainproject.com/route/105740345/riptide,2.3,-1,"Trad, Sport",5.9,1,90,40.71056,-111.79218
BitzKrieg,"Mosquito Wall > Uinta Mountains > Northeast Utah > Utah",https://www.mountainproject.com/route/106861112/bitzkrieg,2.4,-1,Sport,5.9,1,70,40.75439,-110.87989
Rattled,"Powder Ridge Wall > Big Cottonwood Canyon > Central Wasatch > Wasatch Range > Utah",https://www.mountainproject.com/route/105945948/rattled,1.8,-1,"Sport, TR",5.9,1,40,40.6152,-111.78
Boltergeist,"The Hidden > Rock Canyon > Southern Wasatch > Wasatch Range > Utah",https://www.mountainproject.com/route/105823877/boltergeist,2.0,-1,Sport,5.9,1,45,40.2649,-111.6105
"Fish Story","Baby Rubicon > Crawdad Canyon / Veyo > Saint George > Southwest Utah > Utah",https://www.mountainproject.com/route/107597539/fish-story,2.3,-1,Sport,5.9,1,50,37.33604,-113.68702
"Jerrys' Kids","The Frontera > Maple Canyon Road > Maple Canyon > Central Utah > Utah",https://www.mountainproject.com/route/108283515/jerrys-kids,2.0,-1,Sport,5.9,1,45,39.5551,-111.6795
"Mighty Mouse","Fucoidal Quartzite > Logan Canyon > Cache Valley > Northern Wasatch > Wasatch Range > Utah",https://www.mountainproject.com/route/106819366/mighty-mouse,2.4,-1,"Trad, Sport",5.9,1,80,41.78063,-111.64374
Bodaggette,"Central Corral Crag > Corral Crags > Ibex > West Desert > Utah",https://www.mountainproject.com/route/111288141/bodaggette,2.8,-1,Sport,5.9,1,55,38.98551,-113.39088
"Yankee Doodle Arch","The Early Bird Crag > Maple Canyon Road > Maple Canyon > Central Utah > Utah",https://www.mountainproject.com/route/107842284/yankee-doodle-arch,2.2,-1,Sport,5.9,1,,39.55575,-111.68189
"Mr. Pocket","Ouch Wall > Green Canyon > Cache Valley > Northern Wasatch > Wasatch Range > Utah",https://www.mountainproject.com/route/119890340/mr-pocket,3.5,-1,"Sport, TR",5.9,1,60,41.77163,-111.74588
"Wake n' Bake","South-Facing Wall > The Hinterlands > Southern Wasatch > Wasatch Range > Utah",https://www.mountainproject.com/route/112351267/wake-n-bake,2.6,-1,Sport,5.9,1,85,40.27488,-111.62795
"90 Paces","Wall Street > Potash Road > Southeast Utah > Utah",https://www.mountainproject.com/route/113979374/90-paces,2.1,-1,Sport,5.9,1,80,38.54668,-109.59959
"More Than a Feeling","Upper Sector > Disciple Ridge > Big Cottonwood Canyon > Central Wasatch > Wasatch Range > Utah",https://www.mountainproject.com/route/114618713/more-than-a-feeling,3.1,-1,Sport,5.9,1,115,40.61946,-111.74337
"Mr. Potato Head","Creekside Crag > Big Cottonwood Canyon > Central Wasatch > Wasatch Range > Utah",https://www.mountainproject.com/route/106557849/mr-potato-head,2.0,-1,Sport,5.9,1,40,40.62208,-111.74928
"Jimmy the Geek","Circus Wall > Island In The Sky > Snow Canyon State Park > Saint George > Southwest Utah > Utah",https://www.mountainproject.com/route/105718228/jimmy-the-geek,2.5,-1,Sport,5.9,2,150,37.19743,-113.64353
"Dinosaur Farts","Birthday Corridor > Right Fork > Maple Canyon > Central Utah > Utah",https://www.mountainproject.com/route/107772586/dinosaur-farts,2.4,-1,Sport,5.9,1,70,39.56622,-111.69646
"Scorpion Slab","Scorpion Slab > South Corridor > Ibex > West Desert > Utah",https://www.mountainproject.com/route/106087475/scorpion-slab,2.7,-1,Sport,5.9,1,80,38.99848,-113.38091
"Blue Collar Ape","Lower Jungle > Jungle, on the Aquarius Plateau > South Central Utah > Utah",https://www.mountainproject.com/route/106806408/blue-collar-ape,2.4,-1,"Sport, Alpine",5.9,1,60,37.7503,-111.8708
"Breakfast at Tiffany's","Shotgun Alley > Saint George > Southwest Utah > Utah",https://www.mountainproject.com/route/106818178/breakfast-at-tiffanys,2.4,-1,"Sport, TR",5.9,1,40,37.1709,-113.71399
Leftovers,"Baby Rubicon > Crawdad Canyon / Veyo > Saint George > Southwest Utah > Utah",https://www.mountainproject.com/route/107596176/leftovers,2.4,-1,Sport,5.9,1,50,37.33604,-113.68702
"Unknown 5.9","Simpson Rock > Right Fork > Maple Canyon > Central Utah > Utah",https://www.mountainproject.com/route/109636993/unknown-59,2.0,-1,Sport,5.9,1,50,39.56135,-111.68774
"Wizard's Sleeve","The Pass Crag > Bald Mountain > Uinta Mountains > Northeast Utah > Utah",https://www.mountainproject.com/route/119542783/wizards-sleeve,3.1,-1,"Sport, Alpine",5.9,1,105,40.69303,-110.90323
Unforgiven,"Dogwood Crag > Big Cottonwood Canyon > Central Wasatch > Wasatch Range > Utah",https://www.mountainproject.com/route/105740633/unforgiven,1.9,-1,"Sport, TR",5.9,1,70,40.6238,-111.7671
"Louge Gun Bidet","The Trash Compactor > Maple Canyon Road > Maple Canyon > Central Utah > Utah",https://www.mountainproject.com/route/106920648/louge-gun-bidet,2.5,-1,Sport,5.9,1,50,39.55976,-111.68822
Maximus,"Cool Aid Gully > White Rocks > West Desert > Utah",https://www.mountainproject.com/route/109766692/maximus,2.3,-1,Sport,5.9,1,80,40.32405,-112.9029
"Stinky Stash","Stinky Stash Wall > Cecret Lake > Albion Basin > Little Cottonwood Canyon > Central Wasatch > Wasatch Range > Utah",https://www.mountainproject.com/route/106003090/stinky-stash,2.4,-1,Sport,5.9,1,55,40.56958,-111.62556
"Scent of a Bookmobile","Jacob's Playpen > New Canyon > Central Utah > Utah",https://www.mountainproject.com/route/120438849/scent-of-a-bookmobile,3.5,-1,Sport,5.9,1,40,39.34408,-111.52707
"Pale Rider","The Cinema > Take-Out Beach > River Road > Southeast Utah > Utah",https://www.mountainproject.com/route/120403157/pale-rider,2.6,-1,Sport,5.9,1,50,38.66006,-109.49974
"Blackbird fly","The Dark Tower > The Running Scared Wall > Brian Head > Southwest Utah > Utah",https://www.mountainproject.com/route/112439055/blackbird-fly,3.4,-1,Sport,5.9,1,,37.66748,-112.71436
"Good Husband Sticker","Campsite East > Hermit Canyon > Marjum Canyon > House Range > West Desert > Utah",https://www.mountainproject.com/route/113576338/good-husband-sticker,2.8,-1,Sport,5.9,1,50,39.24622,-113.40313
"On the Wings of Maybe","Lizard Head Wall > Little Cottonwood Canyon > Central Wasatch > Wasatch Range > Utah",https://www.mountainproject.com/route/122337709/on-the-wings-of-maybe,2.9,-1,Sport,5.9,1,115,40.5733,-111.7596
Utahnics,"Utahnics Wall > The Schoolroom > Ogden > Northern Wasatch > Wasatch Range > Utah",https://www.mountainproject.com/route/105915173/utahnics,2.0,-1,Sport,5.9,1,50,41.21824,-111.92342
"Pearls Before Swine","Cougar Cliffs > Saint George > Southwest Utah > Utah",https://www.mountainproject.com/route/106374636/pearls-before-swine,2.5,-1,Sport,5.9,1,40,37.1618,-113.6102
Stinger,"Drone Wall > Hobble Creek Canyon > Southern Wasatch > Wasatch Range > Utah",https://www.mountainproject.com/route/106437742/stinger,2.1,-1,Sport,5.9,1,40,40.1716,-111.471
"Friday the Thirteenth","Mosquito Wall > Uinta Mountains > Northeast Utah > Utah",https://www.mountainproject.com/route/106885626/friday-the-thirteenth,2.1,-1,Sport,5.9,1,55,40.75439,-110.87989
"Kindred Spirits","Indian Wall > Island In The Sky > Snow Canyon State Park > Saint George > Southwest Utah > Utah",https://www.mountainproject.com/route/105804188/kindred-spirits,1.9,-1,Sport,"5.9 R",1,50,37.18995,-113.64341
"Greg's Bear Hug","Blob's Your Uncle > The Valley of Zion > Stansbury Mountains > West Desert > Utah",https://www.mountainproject.com/route/111641175/gregs-bear-hug,2.6,-1,Sport,5.9,1,100,40.7403,-112.6394
"Union Specific","Roadside Crag > Echo Canyon > Wasatch Back > Wasatch Range > Utah",https://www.mountainproject.com/route/114596513/union-specific,2.4,-1,Sport,5.9,1,50,41.00686,-111.3826
"The Dugout","The Bungalow > Parley's Canyon > Central Wasatch > Wasatch Range > Utah",https://www.mountainproject.com/route/108869311/the-dugout,2.3,-1,Sport,5.9,1,45,40.71094,-111.78952
"Frodo Lives","Trilogy Buttress > Rock Canyon > Southern Wasatch > Wasatch Range > Utah",https://www.mountainproject.com/route/106054941/frodo-lives,2.6,-1,Sport,5.9,2,200,40.2675,-111.6254
Turnstyles,"The Picnic Wall > Crawdad Canyon / Veyo > Saint George > Southwest Utah > Utah",https://www.mountainproject.com/route/106706269/turnstyles,2.4,-1,Sport,5.9,1,55,37.33556,-113.68788
"Makin Bacon","Cougar Cliffs > Saint George > Southwest Utah > Utah",https://www.mountainproject.com/route/120599909/makin-bacon,2.9,-1,Sport,5.9,1,40,37.1618,-113.6102
"Freak Show","Circus Wall > Island In The Sky > Snow Canyon State Park > Saint George > Southwest Utah > Utah",https://www.mountainproject.com/route/105879837/freak-show,2.4,-1,Sport,5.9,2,160,37.19743,-113.64353
19,"The B-52 Wall > American Fork Canyon > Southern Wasatch > Wasatch Range > Utah",https://www.mountainproject.com/route/118036041/19,2.4,-1,Sport,"5.9 PG13",1,50,40.44548,-111.69298
"Exploratory Drilling","Eco-Terrorist Wall > Maple Canyon Road > Maple Canyon > Central Utah > Utah",https://www.mountainproject.com/route/108299472/exploratory-drilling,2.0,-1,Sport,5.9,1,50,39.5556,-111.6719
"The Lorax","The Suess Wall > The Running Scared Wall > Brian Head > Southwest Utah > Utah",https://www.mountainproject.com/route/107185619/the-lorax,3.0,-1,Sport,5.9,1,65,37.66681,-112.71409
"Purple Haze","Purple Wall > Maybird Slide Area > Little Cottonwood Canyon > Central Wasatch > Wasatch Range > Utah",https://www.mountainproject.com/route/106020292/purple-haze,1.6,-1,Sport,5.9,1,65,40.5752,-111.7082
Echolocation,"Dark Lands (Mid Canyon) > Cove Wash > Saint George > Southwest Utah > Utah",https://www.mountainproject.com/route/114122448/echolocation,2.6,-1,Sport,5.9,1,25,37.11769,-113.66602
[Redacted],"Lou's Tavern > Middle Fork > Maple Canyon > Central Utah > Utah",https://www.mountainproject.com/route/107763065/redacted,2.0,-1,Sport,5.9,1,40,39.55794,-111.68912
"Covey Leader to Raven","Training Camp > Rock Canyon > Southern Wasatch > Wasatch Range > Utah",https://www.mountainproject.com/route/106131748/covey-leader-to-raven,2.4,-1,Sport,5.9,2,140,40.2666,-111.6273
Scout,"Chief Wall > Ruth Lake > Uinta Mountains > Northeast Utah > Utah",https://www.mountainproject.com/route/109475176/scout,2.0,-1,Sport,5.9,1,50,40.7313,-110.87607
"Changing of the Guard","Dylan Wall > Mexican Mountain Road Area > San Rafael Swell - North > San Rafael Swell > South Central Utah > Utah",https://www.mountainproject.com/route/107740179/changing-of-the-guard,2.4,-1,Sport,5.9,1,110,39.08166,-110.64081
"Blast Furnace","Industrial Wall > Coalpit Gulch > Little Cottonwood Canyon > Central Wasatch > Wasatch Range > Utah",https://www.mountainproject.com/route/105741149/blast-furnace,2.0,-1,Sport,5.9,1,70,40.567,-111.73761
"Superball Tower","Superball Tower > Day Canyon > Potash Road > Southeast Utah > Utah",https://www.mountainproject.com/route/108174853/superball-tower,2.8,-1,"Trad, Sport, Aid","5.9 A0 PG13",1,60,38.57355,-109.65465
"Clubs Full Of Jacks","Blob's Your Uncle > The Valley of Zion > Stansbury Mountains > West Desert > Utah",https://www.mountainproject.com/route/108361920/clubs-full-of-jacks,2.4,-1,Sport,5.9,2,150,40.7403,-112.6394
"Afro Sheen","Soul Train Wall > Bear Hollow > Echo Canyon > Wasatch Back > Wasatch Range > Utah",https://www.mountainproject.com/route/115190074/afro-sheen,2.8,-1,Sport,5.9,1,80,41.00084,-111.39254
"Tap Root","Wall Street > Potash Road > Southeast Utah > Utah",https://www.mountainproject.com/route/113404978/tap-root,2.0,-1,Sport,5.9,1,65,38.54668,-109.59959
Unknown,"Monroe Canyon: North Side > The Narrows > Monroe Canyon > Richfield > Central Utah > Utah",https://www.mountainproject.com/route/115329099/unknown,3.0,-1,Sport,5.9,1,35,38.5994,-112.08486
"Rain Maker","Memorial Wall > Ruth Lake > Uinta Mountains > Northeast Utah > Utah",https://www.mountainproject.com/route/106437472/rain-maker,2.4,-1,Sport,5.9,1,40,40.73033,-110.8803
"Divine Intervention","Mammoth Wall > Dry Canyon > Southern Wasatch > Wasatch Range > Utah",https://www.mountainproject.com/route/107311366/divine-intervention,2.8,-1,Sport,5.9,1,70,40.34579,-111.6723
Entropy,"Shady Side > Black Rocks > Saint George > Southwest Utah > Utah",https://www.mountainproject.com/route/111700013/entropy,2.1,-1,Sport,5.9,1,35,37.1548,-113.6074
Gemini,"Milky Way Wall > Galaxy Area > Rock Canyon > Southern Wasatch > Wasatch Range > Utah",https://www.mountainproject.com/route/106202925/gemini,2.3,-1,Sport,5.9,1,,40.26569,-111.61284
Tomahawk,"Indian Wall > Island In The Sky > Snow Canyon State Park > Saint George > Southwest Utah > Utah",https://www.mountainproject.com/route/116115910/tomahawk,2.3,-1,Sport,5.9,1,40,37.18995,-113.64341
Heck,"El Diablo Wall > Hell Area > American Fork Canyon > Southern Wasatch > Wasatch Range > Utah",https://www.mountainproject.com/route/107719622/heck,1.9,-1,"Sport, TR",5.9,1,50,40.44645,-111.69372
"Almost Paradise","Newlywed Area > Ibex > West Desert > Utah",https://www.mountainproject.com/route/106121064/almost-paradise,2.4,-1,Sport,5.9,1,80,38.9978,-113.38997
"Chris Minneci Memorial Route","The Egg > Little Cottonwood Canyon > Central Wasatch > Wasatch Range > Utah",https://www.mountainproject.com/route/112140866/chris-minneci-memorial-route,2.7,-1,Sport,5.9,1,70,40.57405,-111.76875
"Hanging by a thread","Eye of the Needle Wall > Marjum Canyon > House Range > West Desert > Utah",https://www.mountainproject.com/route/120686049/hanging-by-a-thread,3.0,-1,Sport,"5.9 PG13",1,80,39.2442,-113.4052
"Tempered Glass","Mary Ellen's Gulch > Southern Wasatch > Wasatch Range > Utah",https://www.mountainproject.com/route/107690974/tempered-glass,3.0,-1,Sport,5.9,1,40,40.53072,-111.61742
"Slight of Hand","Mule Hollow Wall > Big Cottonwood Canyon > Central Wasatch > Wasatch Range > Utah",https://www.mountainproject.com/route/110754625/slight-of-hand,2.6,-1,Sport,5.9,1,110,40.63207,-111.75115
Quadraphonic,"Quarry > Grandeur Peak > Central Wasatch > Wasatch Range > Utah",https://www.mountainproject.com/route/105817959/quadraphonic,1.7,-1,Sport,5.9,1,40,40.704,-111.789
"Heart of Darkness","Super Slab > Little Cottonwood Canyon > Central Wasatch > Wasatch Range > Utah",https://www.mountainproject.com/route/106035574/heart-of-darkness,2.7,-1,Sport,"5.9 R",18,1800,40.5681,-111.7706
Indifference,"Shady Side > Black Rocks > Saint George > Southwest Utah > Utah",https://www.mountainproject.com/route/105930887/indifference,1.8,-1,"Sport, TR",5.9,1,35,37.1548,-113.6074
Ready....GO!,"Flame Thrower Wall > West Sector > Desert Mountain > West Desert > Utah",https://www.mountainproject.com/route/116717669/readygo,2.8,-1,Sport,5.9,1,70,39.75461,-112.64261
Microdose,"Microwall > Granite Flume > Big Cottonwood Canyon > Central Wasatch > Wasatch Range > Utah",https://www.mountainproject.com/route/123143398/microdose,1.8,-1,Sport,5.9,1,35,40.62702,-111.76507
Reedmeister,"Warm-up Slab > Sheep Creek - Windy Ridge > Flaming Gorge > Northeast Utah > Utah",https://www.mountainproject.com/route/120818811/reedmeister,3.0,-1,Sport,5.9,1,90,40.90656,-109.79332
"Helmet Panty","The Roller Rink > Parowan Gap (all crags) > Parowan > Southwest Utah > Utah",https://www.mountainproject.com/route/113968963/helmet-panty,3.0,-1,Sport,5.9,1,60,37.8978,-112.9475
"Pink Coral","The Watchtower > CLOSED - The Soul Asylum > Utah Hills > Saint George > Southwest Utah > Utah",https://www.mountainproject.com/route/112447099/pink-coral,2.6,-1,Sport,5.9,1,60,37.07398,-113.81909
Odysseus,"Cyclops Wall > Redmond Rocks > Central Utah > Utah",https://www.mountainproject.com/route/115312464/odysseus,3.0,-1,"Sport, TR",5.9,1,40,39.02618,-111.78022
"Hard Labour","N Crags > Eastern Reef Area.. AKA The Sandstone Alps > San Rafael Swell - South > San Rafael Swell > South Central Utah > Utah",https://www.mountainproject.com/route/106883054/hard-labour,3.0,-1,"Trad, Sport",5.9,1,150,38.88347,-110.45548
"Lounge Lizards Variation","George > Rock Canyon > Southern Wasatch > Wasatch Range > Utah",https://www.mountainproject.com/route/105980131/lounge-lizards-variation,2.6,-1,Sport,5.9,1,50,40.2656,-111.6217
"Cloud Dancer","New Sub-Area 1 > Friction Slab > Entrance Corridor > Indian Creek > Southeast Utah > Utah",https://www.mountainproject.com/route/117648758/cloud-dancer,3.0,-1,Sport,5.9,1,95,38.0258,-109.54
Haagenburner,"Haagenschlong Tower > Lower Buckhorn > Buckhorn Wash > San Rafael Swell - North > San Rafael Swell > South Central Utah > Utah",https://www.mountainproject.com/route/120362065/haagenburner,2.8,-1,Sport,5.9,1,50,39.10868,-110.67378
"Elizabeth Blue Moss","Prophesy Wall > Saint George > Southwest Utah > Utah",https://www.mountainproject.com/route/108005816/elizabeth-blue-moss,1.9,-1,Sport,5.9,1,40,37.2939,-113.6932
"Quasimodoâ€™s Trampoline","Tracy's Tower North > Tracy's Towers > Farmington > Davis County > Northern Wasatch > Wasatch Range > Utah",https://www.mountainproject.com/route/118724523/quasimodos-trampoline,2.7,-1,Sport,5.9,1,35,40.98094,-111.87086
Deadbolt,"Nuts and Bolts > Ogden Canyon > Ogden > Northern Wasatch > Wasatch Range > Utah",https://www.mountainproject.com/route/123000298/deadbolt,2.7,-1,Sport,5.9,1,85,41.23626,-111.91752
Dub-J,"Gunsight Bay > Lake Powell > Glen Canyon > South Central Utah > Utah",https://www.mountainproject.com/route/110744982/dub-j,3.0,-1,Sport,5.9,1,30,37.05809,-111.3452
Liggity-Lu,"Gunsight Bay > Lake Powell > Glen Canyon > South Central Utah > Utah",https://www.mountainproject.com/route/110744759/liggity-lu,3.0,-1,Sport,5.9,1,30,37.05809,-111.3452
Neffanie,"Gunsight Bay > Lake Powell > Glen Canyon > South Central Utah > Utah",https://www.mountainproject.com/route/110744908/neffanie,3.0,-1,Sport,5.9,1,30,37.05809,-111.3452
"Desolation Row","Rock Creek > Desolation Canyon > Northeast Utah > Utah",https://www.mountainproject.com/route/113245779/desolation-row,3.0,-1,Sport,5.9,1,50,39.6898,-110.00736
"Pistol Pete","Loaded Guns > West Sawtooth Canyon > House Range > West Desert > Utah",https://www.mountainproject.com/route/110396537/pistol-pete,2.7,-1,Sport,5.9,1,75,39.15337,-113.44078
"Black and Tan","T Crags (One Finger Canyon) > Eastern Reef Area.. AKA The Sandstone Alps > San Rafael Swell - South > San Rafael Swell > South Central Utah > Utah",https://www.mountainproject.com/route/107344523/black-and-tan,3.0,-1,"Trad, Sport",5.9,1,100,38.88347,-110.45548
"PG Tips. .","R Crags (Two Finger Canyon) > Eastern Reef Area.. AKA The Sandstone Alps > San Rafael Swell - South > San Rafael Swell > South Central Utah > Utah",https://www.mountainproject.com/route/107305938/pg-tips,3.0,-1,"Trad, Sport",5.9,1,140,38.84162,-110.468
"Tip Toe Treat","T Crags (One Finger Canyon) > Eastern Reef Area.. AKA The Sandstone Alps > San Rafael Swell - South > San Rafael Swell > South Central Utah > Utah",https://www.mountainproject.com/route/107345986/tip-toe-treat,3.0,-1,"Trad, Sport",5.9,1,200,38.88347,-110.45548
"Off the Couch","N Crags > Eastern Reef Area.. AKA The Sandstone Alps > San Rafael Swell - South > San Rafael Swell > South Central Utah > Utah",https://www.mountainproject.com/route/106876993/off-the-couch,3.0,-1,"Trad, Sport","5.9 R",1,160,38.88347,-110.45548
"Abbra Cadabra","Mule Hollow Wall > Big Cottonwood Canyon > Central Wasatch > Wasatch Range > Utah",https://www.mountainproject.com/route/110754579/abbra-cadabra,2.6,-1,Sport,5.9,2,170,40.63207,-111.75115
"Put Your Hands on Me","Small Adventures Wall / 313 Slabs > State Highway 313 > Southeast Utah > Utah",https://www.mountainproject.com/route/112836652/put-your-hands-on-me,2.5,-1,"Sport, TR",5.9,1,100,38.65324,-109.7204
"Dag Nasty Part Deux","Old School Rock > Tank Canyon > American Fork Canyon > Southern Wasatch > Wasatch Range > Utah",https://www.mountainproject.com/route/106908335/dag-nasty-part-deux,2.5,-1,Sport,5.9,1,125,40.4469,-111.6881
"Clay, Like Dirt","East Gate Buttress > Gate Buttress > Little Cottonwood Canyon > Central Wasatch > Wasatch Range > Utah",https://www.mountainproject.com/route/111307931/clay-like-dirt,2.7,-1,Sport,5.9,1,70,40.57387,-111.75163
"Good Time Charlie","West-facing Wall > The Hinterlands > Southern Wasatch > Wasatch Range > Utah",https://www.mountainproject.com/route/113922425/good-time-charlie,2.7,-1,Sport,5.9,1,80,40.27487,-111.62792
Exodus,"Diminutive Wall > Ferguson Canyon > Central Wasatch > Wasatch Range > Utah",https://www.mountainproject.com/route/105740405/exodus,1.8,-1,"Sport, TR",5.9,1,40,40.61354,-111.77799
"Rolling Thunder","Left Formation > The Cape > Ibex > West Desert > Utah",https://www.mountainproject.com/route/108590897/rolling-thunder,2.7,-1,Sport,5.9,1,65,38.86552,-113.43459
ker-THUD!,"River Road Dihedrals > River Road > Southeast Utah > Utah",https://www.mountainproject.com/route/106234777/ker-thud,2.1,-1,"Trad, Sport",5.9,1,60,38.60702,-109.54061
"Jug or Knot","The Cove > Right Fork > Maple Canyon > Central Utah > Utah",https://www.mountainproject.com/route/114345958/jug-or-knot,2.1,-1,Sport,5.9,1,60,39.56336,-111.68939
"As the Song and Dance Begins","The Starting Block > The Overlook > Brian Head > Southwest Utah > Utah",https://www.mountainproject.com/route/105854521/as-the-song-and-dance-begins,1.9,-1,"Sport, Alpine",5.9,1,30,37.7154,-112.7747
Curmudgeons,"The Solstice > Woodbury Road Crags > Utah Hills > Saint George > Southwest Utah > Utah",https://www.mountainproject.com/route/106359407/curmudgeons,2.0,-1,Sport,5.9,1,55,37.0286,-113.864
"Charlie Don't Surf","South-Facing Wall > The Hideaway > American Fork Canyon > Southern Wasatch > Wasatch Range > Utah",https://www.mountainproject.com/route/107582950/charlie-dont-surf,2.0,-1,Sport,5.9,1,35,40.4477,-111.7005
"Midget Marathon","The Zoo > The Overlook > Brian Head > Southwest Utah > Utah",https://www.mountainproject.com/route/108251359/midget-marathon,2.6,-1,"Sport, Alpine",5.9,1,30,37.7154,-112.7747
"The Calla Way","Small Adventures Wall / 313 Slabs > State Highway 313 > Southeast Utah > Utah",https://www.mountainproject.com/route/112835972/the-calla-way,2.3,-1,"Sport, TR",5.9,1,100,38.65324,-109.7204
"Pipe Down","The Pipelines > Crawdad Canyon / Veyo > Saint George > Southwest Utah > Utah",https://www.mountainproject.com/route/108349817/pipe-down,2.6,-1,Sport,5.9,1,40,37.33362,-113.69073
"Don't Avoid What Is Easy","The B-52 Wall > American Fork Canyon > Southern Wasatch > Wasatch Range > Utah",https://www.mountainproject.com/route/118045097/dont-avoid-what-is-easy,1.9,-1,Sport,5.9,1,45,40.44548,-111.69298
"Noodle Doodle","Cougar Cliffs > Saint George > Southwest Utah > Utah",https://www.mountainproject.com/route/114476298/noodle-doodle,2.5,-1,"Sport, TR",5.9,1,35,37.1618,-113.6102
"Lunchbox R.I.P.","Graffiti Cave > The Schoolroom > Ogden > Northern Wasatch > Wasatch Range > Utah",https://www.mountainproject.com/route/113139054/lunchbox-rip,2.3,-1,"Sport, Mixed","5.9 M5",1,50,41.22693,-111.9257
"Drunk Monkey","Blob's Your Uncle > The Valley of Zion > Stansbury Mountains > West Desert > Utah",https://www.mountainproject.com/route/111309275/drunk-monkey,2.3,-1,Sport,5.9,1,100,40.7403,-112.6394
"Dumb Nuts","Nuts and Bolts > Ogden Canyon > Ogden > Northern Wasatch > Wasatch Range > Utah",https://www.mountainproject.com/route/106179262/dumb-nuts,2.2,-1,"Trad, Sport",5.9,1,85,41.23626,-111.91752
"It's Electrifying","Pocket Rocks > Cedar City > Southwest Utah > Utah",https://www.mountainproject.com/route/106284410/its-electrifying,1.8,-1,Sport,5.9,1,40,37.64232,-113.29134
"The Stone Cutter","The Gem Stone > Black Peeler Buttress > Little Cottonwood Canyon > Central Wasatch > Wasatch Range > Utah",https://www.mountainproject.com/route/113695590/the-stone-cutter,2.6,-1,Sport,5.9,1,45,40.57444,-111.75121
"Himmlers Remains","Salt Creek Canyon > Central Utah > Utah",https://www.mountainproject.com/route/108955192/himmlers-remains,2.8,-1,"Sport, TR",5.9,1,30,39.74092,-111.71284
"Draw the Line","Diminutive Wall > Ferguson Canyon > Central Wasatch > Wasatch Range > Utah",https://www.mountainproject.com/route/105740408/draw-the-line,1.7,-1,"Sport, TR",5.9,1,40,40.61354,-111.77799
"Up The Rabbit's Hole","Unemployment wall > Pine Valley > Saint George > Southwest Utah > Utah",https://www.mountainproject.com/route/107273288/up-the-rabbits-hole,2.0,-1,Sport,5.9,1,65,37.40653,-113.53788
"Monkey Paw","Main Hellgate > Hellgate Cliffs > Little Cottonwood Canyon > Central Wasatch > Wasatch Range > Utah",https://www.mountainproject.com/route/113194596/monkey-paw,2.3,-1,Sport,5.9,1,85,40.59065,-111.6495
"Deez Nuts","5. The Dog Pound > Buckskin Gulch > Grand Staircase > South Central Utah > Utah",https://www.mountainproject.com/route/117010024/deez-nuts,2.7,-1,"Sport, TR",5.9,1,60,37.07696,-112.00409
"Mad Millennium","Lisa Falls West > Lisa Falls > Little Cottonwood Canyon > Central Wasatch > Wasatch Range > Utah",https://www.mountainproject.com/route/105988600/mad-millennium,2.3,-1,Sport,5.9,1,80,40.5748,-111.728
"Covid 19","Cretaceous Crag > Dry Canyon > Southern Wasatch > Wasatch Range > Utah",https://www.mountainproject.com/route/118860264/covid-19,2.7,-1,"Sport, TR",5.9,1,80,40.34219,-111.67637
"Velvet America","A Crags > Eastern Reef Area.. AKA The Sandstone Alps > San Rafael Swell - South > San Rafael Swell > South Central Utah > Utah",https://www.mountainproject.com/route/106733811/velvet-america,2.7,-1,"Trad, Sport","5.9 PG13",1,190,38.88347,-110.45548
"Return of the King","Trilogy Buttress > Rock Canyon > Southern Wasatch > Wasatch Range > Utah",https://www.mountainproject.com/route/107325361/return-of-the-king,2.7,-1,Sport,5.9,1,60,40.2675,-111.6254
"Double Pane","Mary Ellen's Gulch > Southern Wasatch > Wasatch Range > Utah",https://www.mountainproject.com/route/107690991/double-pane,2.7,-1,Sport,5.9,1,40,40.53072,-111.61742
"Mother's Milk","Silveropolis Wall > Ophir Canyon > Oquirrh Mountains > West Desert > Utah",https://www.mountainproject.com/route/107788912/mothers-milk,2.3,-1,Sport,5.9,1,65,40.36671,-112.27031
"Caesar's Corner","Baby Rubicon > Crawdad Canyon / Veyo > Saint George > Southwest Utah > Utah",https://www.mountainproject.com/route/105824406/caesars-corner,1.9,-1,Sport,5.9,1,50,37.33604,-113.68702
"Big Easy, The","Seldom Scene Gully > Big Cottonwood Canyon > Central Wasatch > Wasatch Range > Utah",https://www.mountainproject.com/route/105740906/big-easy-the,2.3,-1,Sport,5.9,1,90,40.6193,-111.789
"Hippies Anonymous","Bob's Rocking Chair > Ferguson Canyon > Central Wasatch > Wasatch Range > Utah",https://www.mountainproject.com/route/105741896/hippies-anonymous,1.9,-1,"Trad, Sport, TR",5.9,1,40,40.61372,-111.77916
"Pipe Stem","The Pipelines > Crawdad Canyon / Veyo > Saint George > Southwest Utah > Utah",https://www.mountainproject.com/route/108349797/pipe-stem,2.3,-1,Sport,5.9,1,40,37.33362,-113.69073
"Dude Where's My Balls?","Lou's Tavern > Middle Fork > Maple Canyon > Central Utah > Utah",https://www.mountainproject.com/route/113086780/dude-wheres-my-balls,2.1,-1,Sport,5.9,1,80,39.55794,-111.68912
"Strawberry Fields","Isolation Wall > American Fork Canyon > Southern Wasatch > Wasatch Range > Utah",https://www.mountainproject.com/route/115683289/strawberry-fields,1.9,-1,Sport,5.9,1,40,40.44649,-111.68579
"Half As Cool As You","EFS Wall > Box Canyon > Maple Canyon Road > Maple Canyon > Central Utah > Utah",https://www.mountainproject.com/route/111788774/half-as-cool-as-you,1.9,-1,Sport,5.9,1,25,39.55538,-111.67556
"Unknown 5.9","Ganja Wall > Ophir Canyon > Oquirrh Mountains > West Desert > Utah",https://www.mountainproject.com/route/107696989/unknown-59,1.8,-1,Sport,5.9,1,30,40.35953,-112.27356
"Carnivorous Bitch","Pocket Rocks > Cedar City > Southwest Utah > Utah",https://www.mountainproject.com/route/106436252/carnivorous-bitch,2.1,-1,Sport,5.9,1,50,37.64232,-113.29134
"Free Admission","Dork Dot Rock > Rock Canyon > Southern Wasatch > Wasatch Range > Utah",https://www.mountainproject.com/route/105953350/free-admission,2.0,-1,"Sport, TR",5.9,1,35,40.26628,-111.62282
"Good Morning","The Abyss > Sunset Alley > Beaver Dam Road > Saint George > Southwest Utah > Utah",https://www.mountainproject.com/route/113627784/good-morning,2.0,-1,Sport,5.9,1,65,37.13296,-113.84369
"Chromatic Aberration","Shady Side West > Black Rocks > Saint George > Southwest Utah > Utah",https://www.mountainproject.com/route/106665892/chromatic-aberration,2.3,-1,Sport,5.9,1,35,37.15314,-113.60929
"Mr. Anderson","9.987 Wall > Cedar Canyon > Cedar City > Southwest Utah > Utah",https://www.mountainproject.com/route/108455274/mr-anderson,2.4,-1,Sport,5.9,1,40,37.6078,-112.93482
"Torsades de Pointes","The Solstice > Woodbury Road Crags > Utah Hills > Saint George > Southwest Utah > Utah",https://www.mountainproject.com/route/111547339/torsades-de-pointes,2.1,-1,Sport,5.9,1,55,37.0286,-113.864
"Simeon Smile","Distant Drum > Jungle, on the Aquarius Plateau > South Central Utah > Utah",https://www.mountainproject.com/route/107686198/simeon-smile,2.3,-1,"Sport, Alpine",5.9,1,45,37.754,-111.8714
Hairy,"The Adjective > Rock Canyon > Southern Wasatch > Wasatch Range > Utah",https://www.mountainproject.com/route/106492465/hairy,1.7,-1,Sport,5.9,1,35,40.2645,-111.612
"Carpal Masochism","Salt Creek Canyon > Central Utah > Utah",https://www.mountainproject.com/route/108955196/carpal-masochism,2.6,-1,"Sport, TR",5.9,1,30,39.74092,-111.71284
Truckin,"Portwoods Wall > Ophir Canyon > Oquirrh Mountains > West Desert > Utah",https://www.mountainproject.com/route/107697130/truckin,2.1,-1,Sport,5.9,1,60,40.36333,-112.27082
"I Don't Name Single Pitch Routes","Hoss Garden > Big Cottonwood Canyon > Central Wasatch > Wasatch Range > Utah",https://www.mountainproject.com/route/113223269/i-dont-name-single-pitch-routes,1.9,-1,Sport,5.9,1,100,40.63458,-111.70453
"What's My Line","The Starting Block > The Overlook > Brian Head > Southwest Utah > Utah",https://www.mountainproject.com/route/106576639/whats-my-line,1.8,-1,"Sport, Alpine",5.9,1,25,37.7154,-112.7747
"Vulcan Nerve Pinch","The Watchtower > CLOSED - The Soul Asylum > Utah Hills > Saint George > Southwest Utah > Utah",https://www.mountainproject.com/route/120125405/vulcan-nerve-pinch,2.5,-1,Sport,5.9,1,70,37.07398,-113.81909
unnamed,"North Side > Aerial Wall > Garth Rocks > Saint George > Southwest Utah > Utah",https://www.mountainproject.com/route/117739466/unnamed,2.6,-1,"Sport, TR","5.9 PG13",1,40,37.04746,-113.51275
Sigurd,"Shangri La > Jungle, on the Aquarius Plateau > South Central Utah > Utah",https://www.mountainproject.com/route/121000783/sigurd,2.3,-1,"Sport, Alpine",5.9,1,40,37.77957,-111.90183
"Baby Seal","The Watchtower > CLOSED - The Soul Asylum > Utah Hills > Saint George > Southwest Utah > Utah",https://www.mountainproject.com/route/108761761/baby-seal,2.1,-1,Sport,5.9,1,55,37.07398,-113.81909
"Trail Legs","Jon's Hideout > Big Willow Canyon > Central Wasatch > Wasatch Range > Utah",https://www.mountainproject.com/route/105740825/trail-legs,2.5,-1,"Sport, TR",5.9,1,90,40.5404,-111.809
"Yogi Bear Flake","Mary Ellen's Gulch > Southern Wasatch > Wasatch Range > Utah",https://www.mountainproject.com/route/107721317/yogi-bear-flake,2.5,-1,Sport,5.9,1,30,40.53072,-111.61742
"Crimes of Passion","The Solstice > Woodbury Road Crags > Utah Hills > Saint George > Southwest Utah > Utah",https://www.mountainproject.com/route/106624284/crimes-of-passion,1.5,-1,Sport,5.9,1,65,37.0286,-113.864
"Super Knat","The Wasp > Rock Canyon > Southern Wasatch > Wasatch Range > Utah",https://www.mountainproject.com/route/105846671/super-knat,1.7,-1,Sport,5.9,1,50,40.2665,-111.625
"April Fools","The Solstice > Woodbury Road Crags > Utah Hills > Saint George > Southwest Utah > Utah",https://www.mountainproject.com/route/107405809/april-fools,2.2,-1,Sport,5.9,1,60,37.0286,-113.864
Unknown,"Pete's Rock > Pete's Rock Area > Mount Olympus > Central Wasatch > Wasatch Range > Utah",https://www.mountainproject.com/route/105853121/unknown,2.3,-1,"Trad, Sport, TR",5.9,1,70,40.65299,-111.806
Tydirium,"Endor Wall > Galaxy Area > Rock Canyon > Southern Wasatch > Wasatch Range > Utah",https://www.mountainproject.com/route/106404918/tydirium,1.9,-1,Sport,5.9,1,,40.2662,-111.6141
"One Piece Puzzle","Mosquito Wall > Uinta Mountains > Northeast Utah > Utah",https://www.mountainproject.com/route/106886314/one-piece-puzzle,1.6,-1,Sport,5.9,1,55,40.75439,-110.87989
"Meow Mix","North Side > Aerial Wall > Garth Rocks > Saint George > Southwest Utah > Utah",https://www.mountainproject.com/route/110173566/meow-mix,2.3,-1,"Sport, TR",5.9,1,45,37.04746,-113.51275
"Coyote On The Move","Freezer Buttress > Freeze Creek > Emigration Canyon > Central Wasatch > Wasatch Range > Utah",https://www.mountainproject.com/route/105855662/coyote-on-the-move,2.3,-1,Sport,5.9,1,30,40.79668,-111.74287
Chimney,"Volkswagon Wall > Spring Canyon > Central Utah > Utah",https://www.mountainproject.com/route/116672618/chimney,2.8,-1,"Sport, TR",5.9,1,55,39.70034,-110.91995
Awesome,"Shotgun Alley > Saint George > Southwest Utah > Utah",https://www.mountainproject.com/route/106851160/awesome,1.7,-1,Sport,5.9,1,25,37.1709,-113.71399
"Raven Ridge","The Early Bird Crag > Maple Canyon Road > Maple Canyon > Central Utah > Utah",https://www.mountainproject.com/route/108182499/raven-ridge,1.8,-1,Sport,5.9,2,200,39.55575,-111.68189
"What About Bob","Vermillion Castle > Yankee Meadows Road > Parowan Canyon > Parowan > Southwest Utah > Utah",https://www.mountainproject.com/route/116555966/what-about-bob,2.3,-1,Sport,5.9,1,90,37.7909,-112.78242
"Dripping Alien Wax","War Wall > Emigration Canyon > Central Wasatch > Wasatch Range > Utah",https://www.mountainproject.com/route/105934424/dripping-alien-wax,2.3,-1,"Trad, Sport, Aid","5.9 A1",1,50,40.75362,-111.79652
"The Choss Stands Alone","This is the Choss. . . A Choss Climbing Park > Emigration Canyon > Central Wasatch > Wasatch Range > Utah",https://www.mountainproject.com/route/107249396/the-choss-stands-alone,1.8,-1,Sport,5.9,1,65,40.7536,-111.7962
"San Francisco Peeks","Left Formation > The Cape > Ibex > West Desert > Utah",https://www.mountainproject.com/route/108590869/san-francisco-peeks,2.2,-1,Sport,5.9,1,70,38.86552,-113.43459
"Planning Commission","The Balcony > Draper Area Crags > Central Wasatch > Wasatch Range > Utah",https://www.mountainproject.com/route/116771734/planning-commission,2.2,-1,"Sport, TR",5.9,1,50,40.52199,-111.82686
"Calf Cramp","Never Never Land > Mineral Mountains > West Desert > Utah",https://www.mountainproject.com/route/113710218/calf-cramp,2.3,-1,Sport,5.9,1,80,38.37939,-112.84205
"Horse Cake","Sea Wall > Blacksmith Fork Canyon > Cache Valley > Northern Wasatch > Wasatch Range > Utah",https://www.mountainproject.com/route/119535104/horse-cake,2.4,-1,Sport,5.9,1,50,41.62457,-111.79862
3.2%,"Powder Ridge Wall > Big Cottonwood Canyon > Central Wasatch > Wasatch Range > Utah",https://www.mountainproject.com/route/106233384/32,1.9,-1,Sport,5.9,1,40,40.6152,-111.78
"Castledong Tower","Cirque of the Toweritas > Neff's Canyon > Central Wasatch > Wasatch Range > Utah",https://www.mountainproject.com/route/108265719/castledong-tower,2.6,-1,Sport,5.9,1,,40.6732,-111.76725
"Cross Process","Petrichor Wall > Rock Canyon > Southern Wasatch > Wasatch Range > Utah",https://www.mountainproject.com/route/110744832/cross-process,2.3,-1,Sport,5.9,1,60,40.26426,-111.61342
"Prism Passage","Middle Bowl Slab > Snowbasin > Ogden > Northern Wasatch > Wasatch Range > Utah",https://www.mountainproject.com/route/109292902/prism-passage,1.9,-1,"Sport, Alpine",5.9,1,100,41.19024,-111.877
"Under Pressure","Booty Wall Area > Tanners Gulch > Little Cottonwood Canyon > Central Wasatch > Wasatch Range > Utah",https://www.mountainproject.com/route/106290867/under-pressure,1.9,-1,Sport,5.9,1,,40.579,-111.70277
"Insect Mating Rituals","The Playpen > Pine Valley > Saint George > Southwest Utah > Utah",https://www.mountainproject.com/route/107229085/insect-mating-rituals,2.1,-1,Sport,5.9,1,35,37.4064,-113.53835
"Skinny Witch","The Witches > Echo Canyon > Wasatch Back > Wasatch Range > Utah",https://www.mountainproject.com/route/107211559/skinny-witch,1.6,-1,"Trad, Sport",5.9,1,35,40.9955,-111.4564
"Late Night Questioning","Unemployment wall > Pine Valley > Saint George > Southwest Utah > Utah",https://www.mountainproject.com/route/107228704/late-night-questioning,2.0,-1,Sport,5.9,1,60,37.40653,-113.53788
"Mystery Meat","The Frontera > Maple Canyon Road > Maple Canyon > Central Utah > Utah",https://www.mountainproject.com/route/114219151/mystery-meat,2.0,-1,"Sport, TR",5.9,1,40,39.5551,-111.6795
"Full Nelson","Solitary Misdemeanors > Rock Canyon > Southern Wasatch > Wasatch Range > Utah",https://www.mountainproject.com/route/106248183/full-nelson,1.8,-1,Sport,5.9,1,55,40.2665,-111.6076
"Ruder Than You","Ska Block > Rock Canyon > Southern Wasatch > Wasatch Range > Utah",https://www.mountainproject.com/route/106150574/ruder-than-you,2.0,-1,Sport,5.9,1,40,40.265,-111.6235
"It's a Trap!","Death Star > Galaxy Area > Rock Canyon > Southern Wasatch > Wasatch Range > Utah",https://www.mountainproject.com/route/106202746/its-a-trap,2.0,-1,Sport,5.9,1,,40.26616,-111.61357
"Good for Your Soul","Boingo Wall > Rock Canyon > Southern Wasatch > Wasatch Range > Utah",https://www.mountainproject.com/route/105932093/good-for-your-soul,1.9,-1,Sport,5.9,1,35,40.2651,-111.613
"Trajan's Column","Hadrian's Wall > City Creek Canyon > Central Wasatch > Wasatch Range > Utah",https://www.mountainproject.com/route/107546190/trajans-column,1.6,-1,Sport,5.9,1,35,40.7986,-111.8751
"Cheeks of Chong","The Sumo Wall > Welcome Springs > Saint George > Southwest Utah > Utah",https://www.mountainproject.com/route/107916462/cheeks-of-chong,1.5,-1,Sport,5.9,1,65,37.09914,-113.90439
Uncertainty,"Wall of Jericho > Logan Canyon > Cache Valley > Northern Wasatch > Wasatch Range > Utah",https://www.mountainproject.com/route/107194813/uncertainty,1.4,-1,Sport,5.9,1,60,41.80736,-111.63277
Frolic,"Last Stand Wall > Ruth Lake > Uinta Mountains > Northeast Utah > Utah",https://www.mountainproject.com/route/119433986/frolic,2.0,-1,Sport,5.9,1,60,40.73076,-110.87897
"The Not So Great Trango","Cirque of the Toweritas > Neff's Canyon > Central Wasatch > Wasatch Range > Utah",https://www.mountainproject.com/route/108265663/the-not-so-great-trango,2.0,-1,Sport,5.9,1,35,40.6732,-111.76725
"Baby Carriage","Baby Buttress > Ibex > West Desert > Utah",https://www.mountainproject.com/route/119968783/baby-carriage,2.1,-1,Sport,5.9,1,50,38.99083,-113.3897
Driftwood,"9.987 Wall > Cedar Canyon > Cedar City > Southwest Utah > Utah",https://www.mountainproject.com/route/108455253/driftwood,2.0,-1,Sport,5.9,1,40,37.6078,-112.93482
Defoliant,"Kelly's Rock > Woodbury Road Crags > Utah Hills > Saint George > Southwest Utah > Utah",https://www.mountainproject.com/route/107209300/defoliant,1.8,-1,Sport,5.9,1,65,37.0183,-113.8498
"Lung Chowder","Serendipity Wall > Causey Reservoir > Northern Wasatch > Wasatch Range > Utah",https://www.mountainproject.com/route/112162127/lung-chowder,2.0,-1,Sport,5.9,1,70,41.33233,-111.55249
"Self Abuse","South Fork > South Fork of Taylor > Kolob Canyon > Zion National Park > Southwest Utah > Utah",https://www.mountainproject.com/route/105718129/self-abuse,1.8,-1,Sport,5.9,1,120,37.45082,-113.16139
"Ross Not","I Crags (Uneva Canyon) > Eastern Reef Area.. AKA The Sandstone Alps > San Rafael Swell - South > San Rafael Swell > South Central Utah > Utah",https://www.mountainproject.com/route/112143069/ross-not,2.0,-1,Sport,5.9,1,80,38.88347,-110.45548
"Touch The Tip","Meadow Rappel Rock > Fishlake National Forest > Central Utah > Utah",https://www.mountainproject.com/route/111964378/touch-the-tip,2.3,-1,"Sport, TR",5.9,1,70,38.8803,-112.3072
Unknown,"Reef > Grandeur Peak > Central Wasatch > Wasatch Range > Utah",https://www.mountainproject.com/route/110080662/unknown,2.0,-1,"Sport, TR",5.9,1,40,40.7033,-111.787
Scallywaggers,"Booty Wall Area > Tanners Gulch > Little Cottonwood Canyon > Central Wasatch > Wasatch Range > Utah",https://www.mountainproject.com/route/108217996/scallywaggers,2.0,-1,"Trad, Sport",5.9,1,80,40.579,-111.70277
Mac,"Campsite 7 > Green Canyon > Cache Valley > Northern Wasatch > Wasatch Range > Utah",https://www.mountainproject.com/route/108420033/mac,1.7,-1,Sport,5.9,1,30,41.77161,-111.74437
"Barney With An Attitude","The Cartoon Crag > Crawdad Canyon / Veyo > Saint George > Southwest Utah > Utah",https://www.mountainproject.com/route/106762142/barney-with-an-attitude,1.4,-1,Sport,5.9,1,40,37.33517,-113.68913
"Unknown Chimney","Critic's Choice > Indian Creek > Southeast Utah > Utah",https://www.mountainproject.com/route/121717426/unknown-chimney,2.0,-1,"Sport, TR","5.9 R",1,,38.03075,-109.60173
Enewman,"2. Carrot Buttress > Buckskin Gulch > Grand Staircase > South Central Utah > Utah",https://www.mountainproject.com/route/116740123/enewman,2.0,-1,"Sport, TR",5.9,1,40,37.07603,-112.00355
"Baby Steps","Mammoth Head > West Sector > Desert Mountain > West Desert > Utah",https://www.mountainproject.com/route/118840291/baby-steps,2.0,-1,Sport,5.9,2,50,39.75505,-112.64226
"Arete a go-go","Shangri La > Jungle, on the Aquarius Plateau > South Central Utah > Utah",https://www.mountainproject.com/route/120953263/arete-a-go-go,2.0,-1,"Sport, Alpine",5.9,1,40,37.77957,-111.90183
"Unknown Far Right","Keen Wall > Knife Rocktropolis > Oquirrh Mountains > West Desert > Utah",https://www.mountainproject.com/route/119576511/unknown-far-right,2.0,-1,"Sport, TR",5.9,1,32,40.68028,-112.24492
"Beyer Friction","Small Adventures Wall / 313 Slabs > State Highway 313 > Southeast Utah > Utah",https://www.mountainproject.com/route/112836697/beyer-friction,2.0,-1,"Sport, TR","5.9 R",1,100,38.65324,-109.7204
"Dreaming in Sepia","Cinema Wall > Middle Fork > Maple Canyon > Central Utah > Utah",https://www.mountainproject.com/route/118740726/dreaming-in-sepia,2.0,-1,Sport,5.9,1,120,39.55715,-111.69488
"Crescent Moonwalk","The Suess Wall > The Running Scared Wall > Brian Head > Southwest Utah > Utah",https://www.mountainproject.com/route/114956496/crescent-moonwalk,2.7,-1,Sport,"5.9 PG13",1,75,37.66681,-112.71409
"Nathaniel's Climb","Mini Maple Wall > Redmond Rocks > Central Utah > Utah",https://www.mountainproject.com/route/114433195/nathaniels-climb,2.0,-1,"Sport, TR",5.9,1,33,39.01282,-111.79311
Sassysquatch,"Garulean Wall > Redmond Rocks > Central Utah > Utah",https://www.mountainproject.com/route/114379026/sassysquatch,2.7,-1,"Sport, TR",5.9,1,33,39.02806,-111.77878
"Combing Up Sars","Shotgun Alley > Saint George > Southwest Utah > Utah",https://www.mountainproject.com/route/108017774/combing-up-sars,2.0,-1,"Sport, TR",5.9,1,30,37.1709,-113.71399
Brontosaurus,"Cretaceous Crag > Dry Canyon > Southern Wasatch > Wasatch Range > Utah",https://www.mountainproject.com/route/122779339/brontosaurus,2.3,-1,"Sport, TR",5.9,1,40,40.34219,-111.67637
"The Wilting Flower","O Crags (Three Finger Canyon) > Eastern Reef Area.. AKA The Sandstone Alps > San Rafael Swell - South > San Rafael Swell > South Central Utah > Utah",https://www.mountainproject.com/route/107377338/the-wilting-flower,2.0,-1,"Trad, Sport",5.9,1,170,38.85834,-110.46595
"Trail Legs 2","Jon's Hideout > Big Willow Canyon > Central Wasatch > Wasatch Range > Utah",https://www.mountainproject.com/route/105740828/trail-legs-2,2.0,-1,Sport,5.9,1,90,40.5404,-111.809
"Stoney Bologna","The Pipe Dream > Right Fork > Maple Canyon > Central Utah > Utah",https://www.mountainproject.com/route/123231492/stoney-bologna,2.8,-1,Sport,5.9,3,200,39.56569,-111.69639
Stingray,"Two O'Clock Rock > Tank Canyon > American Fork Canyon > Southern Wasatch > Wasatch Range > Utah",https://www.mountainproject.com/route/106493624/stingray,1.7,-1,"Sport, TR",5.9,1,25,40.4476,-111.6866
"Spank the Monkey","Upper Bug Barn Dance Wall > Rock Canyon > Southern Wasatch > Wasatch Range > Utah",https://www.mountainproject.com/route/105809240/spank-the-monkey,1.7,-1,Sport,5.9,1,70,40.26578,-111.61553
"Stone Garden Offwidth Boulder","Stone Garden > Uinta Mountains > Northeast Utah > Utah",https://www.mountainproject.com/route/113407493/stone-garden-offwidth-boulder,2.0,-1,Sport,5.9,1,16,40.74985,-110.87912
"Butt Beetle","DLK dome > Mineral Mountains > West Desert > Utah",https://www.mountainproject.com/route/120759885/butt-beetle,2.0,-1,Sport,5.9,1,80,38.36298,-112.84464
"I'm Back Baby!","4. John Holmes Detachment > Buckskin Gulch > Grand Staircase > South Central Utah > Utah",https://www.mountainproject.com/route/120725714/im-back-baby,2.0,-1,Sport,5.9,1,50,37.07681,-112.00391
"Horton Eats a Packaged Pickle","Whoville > The Hermit's Watchtower > Marjum Canyon > House Range > West Desert > Utah",https://www.mountainproject.com/route/118259276/horton-eats-a-packaged-pickle,2.0,-1,Sport,5.9,1,80,39.24332,-113.40747
"Black Pudding","Serendipity Wall > Causey Reservoir > Northern Wasatch > Wasatch Range > Utah",https://www.mountainproject.com/route/112162121/black-pudding,1.8,-1,Sport,5.9,1,70,41.33233,-111.55249
"Black Sky","Black Sky Alcove > Middle Fork > Maple Canyon > Central Utah > Utah",https://www.mountainproject.com/route/119545808/black-sky,2.0,-1,Sport,5.9,1,,39.55807,-111.69156
"Booze and Fire","Jacob's Playpen > New Canyon > Central Utah > Utah",https://www.mountainproject.com/route/120456431/booze-and-fire,3.0,-1,Sport,5.9,1,40,39.34408,-111.52707
Rockapulco,"Upper Wall Lake Tier > Uinta Mountains > Northeast Utah > Utah",https://www.mountainproject.com/route/122755159/rockapulco,1.5,-1,"Sport, Alpine",5.9,1,50,40.69981,-110.96481
"Election Meddling","Collusion Wall > Redmond Rocks > Central Utah > Utah",https://www.mountainproject.com/route/114379078/election-meddling,2.0,-1,"Sport, TR",5.9,1,25,39.02756,-111.77904
"Unknown Corner","Last Stand Wall > Ruth Lake > Uinta Mountains > Northeast Utah > Utah",https://www.mountainproject.com/route/122858352/unknown-corner,2.0,-1,Sport,5.9,1,60,40.73076,-110.87897
"Turkey Carcass Vest","Giggling to the Graveyard > Blacksmith Fork Canyon > Cache Valley > Northern Wasatch > Wasatch Range > Utah",https://www.mountainproject.com/route/109266186/turkey-carcass-vest,1.8,-1,Sport,5.9,1,,41.63076,-111.70322
"Fort Knox","Kanab Creek Crag > Kanab Area > Southwest Utah > Utah",https://www.mountainproject.com/route/122844695/fort-knox,2.0,-1,Sport,5.9,1,50,37.2721,-112.52108
"New Jax City","Jax Cliff > Uinta Mountains > Northeast Utah > Utah",https://www.mountainproject.com/route/106046732/new-jax-city,1.8,-1,Sport,5.9,1,30,40.6674,-110.9691
"Frito Lay","The Stage > Take-Out Beach > River Road > Southeast Utah > Utah",https://www.mountainproject.com/route/123299930/frito-lay,1.9,-1,Sport,5.9,1,60,38.6618,-109.49886
"The Importance of Being Varnished","Wall Street > Potash Road > Southeast Utah > Utah",https://www.mountainproject.com/route/123542570/the-importance-of-being-varnished,2.1,-1,Sport,5.9,1,65,38.54668,-109.59959
"Calderone Slab","Plumb Line Gully > Little Cottonwood Canyon > Central Wasatch > Wasatch Range > Utah",https://www.mountainproject.com/route/114450024/calderone-slab,1.6,-1,Sport,5.9,1,100,40.57437,-111.75696
"Ego Massage","The Cartoon Crag > Crawdad Canyon / Veyo > Saint George > Southwest Utah > Utah",https://www.mountainproject.com/route/106762136/ego-massage,1.7,-1,Sport,5.9,1,40,37.33517,-113.68913
Omens,"Prophesy Wall > Saint George > Southwest Utah > Utah",https://www.mountainproject.com/route/118730850/omens,1.8,-1,Sport,5.9,1,60,37.2939,-113.6932
"Rubbing it Raw","Lonely Challenge Area > Big Cottonwood Canyon > Central Wasatch > Wasatch Range > Utah",https://www.mountainproject.com/route/113616817/rubbing-it-raw,1.8,-1,Sport,5.9,1,90,40.62048,-111.74596
Stotinki,"North Face > Lone Rock > Stansbury Mountains > West Desert > Utah",https://www.mountainproject.com/route/110067931/stotinki,1.8,-1,Sport,5.9,1,115,40.7093,-112.6845
"Mis-Information Society","Lou's Tavern > Middle Fork > Maple Canyon > Central Utah > Utah",https://www.mountainproject.com/route/113086753/mis-information-society,1.6,-1,Sport,5.9,1,70,39.55794,-111.68912
"Graffiti Madness","Shotgun Alley > Saint George > Southwest Utah > Utah",https://www.mountainproject.com/route/107119545/graffiti-madness,1.1,-1,"Sport, TR",5.9,1,25,37.1709,-113.71399
"Team Awesome","Coral Canyon Ridge > Saint George > Southwest Utah > Utah",https://www.mountainproject.com/route/106978379/team-awesome,1.6,-1,Sport,5.9,1,45,37.1515,-113.4416
Vagabond,"The Cooler > Rock Canyon > Southern Wasatch > Wasatch Range > Utah",https://www.mountainproject.com/route/107786803/vagabond,1.6,-1,Sport,5.9,1,50,40.2636,-111.6092
"High Dollar Value Meal","Fast Food Joint > Maple Canyon Road > Maple Canyon > Central Utah > Utah",https://www.mountainproject.com/route/112781324/high-dollar-value-meal,1.7,-1,Sport,5.9,2,100,39.55479,-111.67671
"Joy!  Joy!","Ren and Stimpy Wall > CLOSED - The Soul Asylum > Utah Hills > Saint George > Southwest Utah > Utah",https://www.mountainproject.com/route/108799091/joy-joy,1.7,-1,Sport,5.9,1,30,37.07353,-113.81905
"Cobblestone Cockamamie","Black Magic Rock > Maple Canyon Road > Maple Canyon > Central Utah > Utah",https://www.mountainproject.com/route/108384463/cobblestone-cockamamie,1.8,-1,Sport,5.9,1,30,39.55674,-111.68706
Messina,"Sandstone Southern View > Freeze Creek > Emigration Canyon > Central Wasatch > Wasatch Range > Utah",https://www.mountainproject.com/route/105914147/messina,1.7,-1,Sport,5.9,1,60,40.79674,-111.74268
Unknown,"Damned Wall > Storm Mountain Picnic Area > Big Cottonwood Canyon > Central Wasatch > Wasatch Range > Utah",https://www.mountainproject.com/route/112063891/unknown,1.5,-1,Sport,5.9,1,40,40.62653,-111.74418
"Spaghetti Western","Shotgun Alley > Saint George > Southwest Utah > Utah",https://www.mountainproject.com/route/106853932/spaghetti-western,1.3,-1,Sport,5.9,1,25,37.1709,-113.71399
"Plan B","The Playpen > Pine Valley > Saint George > Southwest Utah > Utah",https://www.mountainproject.com/route/107229081/plan-b,1.6,-1,Sport,5.9,1,35,37.4064,-113.53835
"Scotty's Taverse","Cosmic Web Wall > Albion Basin > Little Cottonwood Canyon > Central Wasatch > Wasatch Range > Utah",https://www.mountainproject.com/route/105999948/scottys-taverse,1.3,-1,Sport,5.9,1,50,40.57792,-111.6194
"Strawberry Blonde","Strawberry Fields Wall > Santaquin Canyon > Southern Wasatch > Wasatch Range > Utah",https://www.mountainproject.com/route/109087857/strawberry-blonde,1.5,-1,Sport,5.9,1,50,39.9046,-111.7325
"You Say Quosay","Walls of Liberation > Right Fork > Maple Canyon > Central Utah > Utah",https://www.mountainproject.com/route/107679991/you-say-quosay,1.8,-1,Sport,5.9,1,65,39.56175,-111.6876
"Brier Rabbit","The Waterfront > Logan Canyon > Cache Valley > Northern Wasatch > Wasatch Range > Utah",https://www.mountainproject.com/route/107765488/brier-rabbit,1.2,-1,"Sport, TR",5.9,1,25,41.7439,-111.78005
"Unknown 3","South-Facing Wall > The Hideaway > American Fork Canyon > Southern Wasatch > Wasatch Range > Utah",https://www.mountainproject.com/route/107628683/unknown-3,1.4,-1,Sport,5.9,1,30,40.4477,-111.7005
"Heavy Petting Zoo","Campsite West > Hermit Canyon > Marjum Canyon > House Range > West Desert > Utah",https://www.mountainproject.com/route/108395452/heavy-petting-zoo,1.3,-1,Sport,5.9,1,35,39.24614,-113.40319
"Learn To Bolt.","Wales Canyon > Central Utah > Utah",https://www.mountainproject.com/route/120800810/learn-to-bolt,1.5,-1,Sport,5.9,1,40,39.48543,-111.65491
Flavortown,"George > Rock Canyon > Southern Wasatch > Wasatch Range > Utah",https://www.mountainproject.com/route/114527781/flavortown,1.5,-1,Sport,5.9,1,30,40.2656,-111.6217
"Cosmic Cobble","Red Dog Wall > Right Fork > Maple Canyon > Central Utah > Utah",https://www.mountainproject.com/route/121134645/cosmic-cobble,1.5,-1,Sport,5.9,1,,39.56441,-111.6943
Jericolor,"Wall of Colors > Logan Canyon > Cache Valley > Northern Wasatch > Wasatch Range > Utah",https://www.mountainproject.com/route/112333772/jericolor,1.5,-1,Sport,5.9,1,30,41.80828,-111.63175
"Approach Pitch","The Balcony > Rock Canyon > Southern Wasatch > Wasatch Range > Utah",https://www.mountainproject.com/route/106413972/approach-pitch,0.9,-1,Sport,5.9,1,,40.26446,-111.61018
Pterodactyl,"Cretaceous Crag > Dry Canyon > Southern Wasatch > Wasatch Range > Utah",https://www.mountainproject.com/route/118859816/pterodactyl,1.3,-1,Sport,5.9,1,90,40.34219,-111.67637
"Little Devil","Crack of Noon > Hellgate Cliffs > Little Cottonwood Canyon > Central Wasatch > Wasatch Range > Utah",https://www.mountainproject.com/route/111828782/little-devil,1.3,-1,Sport,5.9,1,65,40.5907,-111.65187
"Afraid To Feel","Molar, The > Big Cottonwood Canyon > Central Wasatch > Wasatch Range > Utah",https://www.mountainproject.com/route/105741677/afraid-to-feel,1.3,-1,Sport,5.9,1,190,40.6193,-111.789
"The Deer Hunter","Thessalonian Buttress > Maple Canyon Road > Maple Canyon > Central Utah > Utah",https://www.mountainproject.com/route/105836224/the-deer-hunter,1.3,-1,Sport,5.9,1,60,39.5553,-111.6859
"Whispering Voices","Tangent Wall > Logan Canyon > Cache Valley > Northern Wasatch > Wasatch Range > Utah",https://www.mountainproject.com/route/110293243/whispering-voices,0.8,-1,Sport,5.9,1,40,41.76987,-111.66195
"Half Face","Wall of Illness > Right Hand Fork > Logan Canyon > Cache Valley > Northern Wasatch > Wasatch Range > Utah",https://www.mountainproject.com/route/105796328/half-face,0.9,-1,Sport,5.9,1,35,41.78082,-111.63598
DontChaKnow,"Family Friendly > Sunshine Wall > Southeast Utah > Utah",https://www.mountainproject.com/route/120410730/dontchaknow,0.8,-1,Sport,5.9,1,40,38.8614,-109.74396
"Bare Necessities","Green Valley Gap > Saint George > Southwest Utah > Utah",https://www.mountainproject.com/route/110063017/bare-necessities,0.9,-1,Sport,5.9,1,30,37.08852,-113.63779
Unknown,"Central Corral Crag > Corral Crags > Ibex > West Desert > Utah",https://www.mountainproject.com/route/113711273/unknown,1.0,-1,Sport,5.9,1,25,38.98551,-113.39088
"Prairie Dog","Viewfinder Towers > San Rafael Swell - South > San Rafael Swell > South Central Utah > Utah",https://www.mountainproject.com/route/121922458/prairie-dog,1.0,-1,Sport,5.9,1,35,38.79847,-110.45724
Watergate,"Beckey's Wall Area > Gate Buttress > Little Cottonwood Canyon > Central Wasatch > Wasatch Range > Utah",https://www.mountainproject.com/route/117837584/watergate,2.7,-1,Sport,"5.9 R",1,110,40.5729,-111.7529
"The Hatchet","The Little Prints > Blacksmith Fork Canyon > Cache Valley > Northern Wasatch > Wasatch Range > Utah",https://www.mountainproject.com/route/119536999/the-hatchet,1.7,-1,Sport,5.9,1,20,41.62629,-111.80056
"2nd From the Right.","Short Chossy wall above the Matrix > Middle Fork > Maple Canyon > Central Utah > Utah",https://www.mountainproject.com/route/114952306/2nd-from-the-right,1.0,-1,Sport,5.9,1,30,39.55812,-111.69166
"Wave of Imitation","The RattleHorn > City Creek Canyon > Central Wasatch > Wasatch Range > Utah",https://www.mountainproject.com/route/107299637/wave-of-imitation,1.0,-1,Sport,5.9,1,,40.80543,-111.86873
"Herbie's Hobo Hut","Aqueduct Area, The > Big Cottonwood Canyon > Central Wasatch > Wasatch Range > Utah",https://www.mountainproject.com/route/124181346/herbies-hobo-hut,2.0,-1,Sport,5.9,1,50,40.6232,-111.77
"The Count","Castlevania > Marjum Canyon > House Range > West Desert > Utah",https://www.mountainproject.com/route/124288551/the-count,2.0,-1,Sport,5.9,1,65,39.23865,-113.40166
"Unknown (Trivialities?)","Dysfunctional Wall > The Running Scared Wall > Brian Head > Southwest Utah > Utah",https://www.mountainproject.com/route/124422717/unknown-trivialities,2.0,-1,Sport,5.9,1,30,37.66831,-112.71453
Ravenous,"The Dark Tower > The Running Scared Wall > Brian Head > Southwest Utah > Utah",https://www.mountainproject.com/route/124422953/ravenous,2.5,-1,Sport,5.9,1,35,37.66748,-112.71436
"The Places You'll Go","The Suess Wall > The Running Scared Wall > Brian Head > Southwest Utah > Utah",https://www.mountainproject.com/route/124423183/the-places-youll-go,3.0,-1,Sport,5.9,1,65,37.66681,-112.71409
"Sugar Baby","Shattered Sea > Jungle, on the Aquarius Plateau > South Central Utah > Utah",https://www.mountainproject.com/route/124427066/sugar-baby,2.0,-1,"Sport, Alpine",5.9,1,30,37.7613,-111.89991
"El bueno","Shattered Sea > Jungle, on the Aquarius Plateau > South Central Utah > Utah",https://www.mountainproject.com/route/124427687/el-bueno,1.7,-1,"Sport, Alpine",5.9,1,40,37.7613,-111.89991
"Butterfly Caught","Shattered Sea > Jungle, on the Aquarius Plateau > South Central Utah > Utah",https://www.mountainproject.com/route/124489193/butterfly-caught,2.0,-1,"Sport, Alpine",5.9,1,30,37.7613,-111.89991
"Fully Alive","Peoples Canyon > House Range > West Desert > Utah",https://www.mountainproject.com/route/124494623/fully-alive,4.0,-1,Sport,5.9,1,,39.18212,-113.44251
"Rhythm is a Dancer","Peoples Canyon > House Range > West Desert > Utah",https://www.mountainproject.com/route/124494650/rhythm-is-a-dancer,3.0,-1,Sport,5.9,1,,39.18212,-113.44251
Hoax,"Quarantine Cliff > Big Cottonwood Canyon > Central Wasatch > Wasatch Range > Utah",https://www.mountainproject.com/route/124704406/hoax,2.9,-1,Sport,5.9,1,75,40.62086,-111.75716
"Paranoia Dips","Lost & Found > Uinta Mountains > Northeast Utah > Utah",https://www.mountainproject.com/route/125002958/paranoia-dips,3.0,-1,Sport,5.9,1,20,40.69886,-110.89815
"Sunglasses & Mustaches","Lost & Found > Uinta Mountains > Northeast Utah > Utah",https://www.mountainproject.com/route/125003168/sunglasses-mustaches,2.5,-1,Sport,5.9,1,60,40.69886,-110.89815
"Simple Pleasures","Lost & Found > Uinta Mountains > Northeast Utah > Utah",https://www.mountainproject.com/route/125003205/simple-pleasures,3.0,-1,Sport,5.9,1,50,40.69886,-110.89815
"Unknown B","Practice Wall > West Sector > Desert Mountain > West Desert > Utah",https://www.mountainproject.com/route/125126093/unknown-b,3.0,-1,"Sport, TR",5.9,1,45,39.75708,-112.64139
"Sipping to Excess","Whiskey Lounge > Right Fork > Maple Canyon > Central Utah > Utah",https://www.mountainproject.com/route/124755850/sipping-to-excess,1.7,-1,Sport,5.9,1,40,39.56335,-111.69038
"Always a Lowball","Whiskey Lounge > Right Fork > Maple Canyon > Central Utah > Utah",https://www.mountainproject.com/route/124755942/always-a-lowball,1.8,-1,Sport,5.9,1,40,39.56335,-111.69038
Nada,"Low Tide > Jungle, on the Aquarius Plateau > South Central Utah > Utah",https://www.mountainproject.com/route/125256159/nada,1.0,-1,"Sport, Alpine",5.9,1,25,37.76534,-111.8965
"Move on Now","Low Tide > Jungle, on the Aquarius Plateau > South Central Utah > Utah",https://www.mountainproject.com/route/125615284/move-on-now,1.0,-1,"Sport, Alpine",5.9,1,30,37.76534,-111.8965
"Unnecessary Trouble","Low Tide > Jungle, on the Aquarius Plateau > South Central Utah > Utah",https://www.mountainproject.com/route/125615333/unnecessary-trouble,2.0,-1,"Sport, Alpine",5.9,1,30,37.76534,-111.8965
Unknown,"The Latrine > Upper Buckhorn > Buckhorn Wash > San Rafael Swell - North > San Rafael Swell > South Central Utah > Utah",https://www.mountainproject.com/route/125736738/unknown,2.0,-1,Sport,5.9,1,65,39.12813,-110.70473
Antivaxers,"Prophesy Wall > Saint George > Southwest Utah > Utah",https://www.mountainproject.com/route/125781447/antivaxers,4.0,-1,Sport,5.9,1,110,37.2939,-113.6932
