Route,Location,URL,"Avg Stars","Your Stars","Route Type",Rating,Pitches,Length,"Area Latitude","Area Longitude"
"Pick Pocket","L. Superratic Pillar > Valhalla > Ten Sleep Canyon > Wyoming",https://www.mountainproject.com/route/106893248/pick-pocket,3.5,-1,Sport,5.12b/c,1,80,44.14305,-107.25785
Shaguar,"Powers Wall > Old Road Crags > Ten Sleep Canyon > Wyoming",https://www.mountainproject.com/route/117381713/shaguar,3.4,-1,Sport,5.12b/c,1,50,44.08855,-107.29197
"The Gravy Train","The Cigar > Downtown > Ten Sleep Canyon > Wyoming",https://www.mountainproject.com/route/107059786/the-gravy-train,3.7,-1,Sport,5.12b/c,1,65,44.12533,-107.25964
"Red Neck Superhero","Coolsville > Downtown > Ten Sleep Canyon > Wyoming",https://www.mountainproject.com/route/107714212/red-neck-superhero,3.6,-1,Sport,5.12b/c,1,90,44.12489,-107.25992
"Bighorn Roundup","Crazy Woman Cliff > Crazy Woman Crags > Eastern Big Horns > Wyoming",https://www.mountainproject.com/route/108251580/bighorn-roundup,3.8,-1,Sport,5.12b/c,1,85,44.17185,-106.87118
Charry,"Hound Dog Crag > Ten Sleep Canyon > Wyoming",https://www.mountainproject.com/route/107771886/charry,3.4,-1,Sport,5.12b/c,1,65,44.10033,-107.28463
GrandCentral,"(b) Central Sector > Rock Springs Buttress > Jackson Hole > Wyoming",https://www.mountainproject.com/route/109238890/grandcentral,3.4,-1,"Sport, Alpine",5.12b/c,5,300,43.58617,-110.86846
"Ocean of Terror","The Ark > Mecca > Ten Sleep Canyon > Wyoming",https://www.mountainproject.com/route/107223349/ocean-of-terror,3.1,-1,Sport,5.12b/c,1,90,44.13754,-107.23261
"Launchpad Camoflauge","Hidden Wall > Tongue River Canyon > Eastern Big Horns > Wyoming",https://www.mountainproject.com/route/109564552/launchpad-camoflauge,3.4,-1,Sport,5.12b/c,1,50,44.84631,-107.33765
"Searching for Jose Cuervo","White Heat Wall > Sinks Canyon > Lander Area > Wyoming",https://www.mountainproject.com/route/108295909/searching-for-jose-cuervo,3.2,-1,Sport,5.12b/c,1,80,42.74109,-108.8355
"Black Narcissist","Metropolis > Mondo Beyondo > Ten Sleep Canyon > Wyoming",https://www.mountainproject.com/route/107774596/black-narcissist,2.8,-1,Sport,5.12b/c,1,50,44.12829,-107.2577
"MechaJudas Super Villain","Metropolis > Mondo Beyondo > Ten Sleep Canyon > Wyoming",https://www.mountainproject.com/route/114984701/mechajudas-super-villain,3.0,-1,Sport,5.12b/c,1,100,44.12829,-107.2577
Kablamo!,"Downpour Wall > Mondo Beyondo > Ten Sleep Canyon > Wyoming",https://www.mountainproject.com/route/106794536/kablamo,2.8,-1,Sport,5.12b/c,1,100,44.13246,-107.25716
"Stone Ranger","2. Tribal War > 1. Left Side (Lunarscape, Tribal War, Poker-Face, Lone Pilgrim) > OK Corral > Wild Iris > Lander Area > Wyoming",https://www.mountainproject.com/route/108319399/stone-ranger,2.3,-1,Sport,5.12b/c,1,40,42.57488,-108.71721
"White Dwarf","Addiction > Sinks Canyon > Lander Area > Wyoming",https://www.mountainproject.com/route/106605263/white-dwarf,2.6,-1,Sport,5.12b/c,1,45,42.74091,-108.83616
*Decaying,"The Curl > The Book Pages Mound > Southwest Ridge of Reese Mtn > Reese Mountain > Laramie Peak Wildlife Habitat Management Area > Laramie Range > Wyoming",https://www.mountainproject.com/route/107482087/decaying,3.0,-1,Sport,5.12b/c,1,55,42.0045,-105.3728
Babalouie,"B. Rodeo Wave > The Main Wall > Wild Iris > Lander Area > Wyoming",https://www.mountainproject.com/route/106197462/babalouie,2.8,-1,Sport,5.12b/c,1,30,42.5851,-108.73729
"Thundercling City","Trailside Wall > Piney Creek Canyon > Eastern Big Horns > Wyoming",https://www.mountainproject.com/route/109598884/thundercling-city,2.6,-1,Sport,5.12b/c,1,45,44.55747,-106.93605
"Daddy Fat Sacks","Illigitimus Rotundus AKA: Fat Bastard > Lake Point > Ten Sleep Canyon > Wyoming",https://www.mountainproject.com/route/107929696/daddy-fat-sacks,2.8,-1,Sport,5.12b/c,1,70,44.15758,-107.23345
"The Brisket","Brisket > Sinks Canyon > Lander Area > Wyoming",https://www.mountainproject.com/route/107132840/the-brisket,2.3,-1,Sport,5.12b/c,1,35,42.74108,-108.83467
"Bats in Her Belfry","Crazy Woman Cliff > Crazy Woman Crags > Eastern Big Horns > Wyoming",https://www.mountainproject.com/route/117292138/bats-in-her-belfry,2.5,-1,Sport,5.12b/c,1,60,44.17185,-106.87118
"Beef Pudding","1. Beef Pudding Area > 2. Fairfield Central > Fairfield Hill > Sinks Canyon > Lander Area > Wyoming",https://www.mountainproject.com/route/116216149/beef-pudding,2.5,-1,Sport,5.12b/c,1,40,42.73985,-108.84892
"Wildflower Royale","Happy Wheel Wall > Sinks Canyon > Lander Area > Wyoming",https://www.mountainproject.com/route/107124630/wildflower-royale,2.5,-1,Sport,5.12b/c,1,50,42.73907,-108.83038
"Ride the Apocalypse","The Wilds & Achin' For Booty > Sinks Canyon > Lander Area > Wyoming",https://www.mountainproject.com/route/107918706/ride-the-apocalypse,2.0,-1,Sport,5.12b/c,1,70,42.7403,-108.84254
"Cheese and Rice","Metropolis > Mondo Beyondo > Ten Sleep Canyon > Wyoming",https://www.mountainproject.com/route/116222564/cheese-and-rice,2.0,-1,Sport,5.12b/c,1,80,44.12829,-107.2577
"Push the Button","Lost Wall > Ten Sleep Canyon > Wyoming",https://www.mountainproject.com/route/117585164/push-the-button,2.0,-1,Sport,5.12b/c,1,,44.14257,-107.23303
"Born Under a Bad Sign","Matrix Pillar > French Cattle Ranch > Ten Sleep Canyon > Wyoming",https://www.mountainproject.com/route/107707278/born-under-a-bad-sign,2.0,-1,Sport,5.12b/c,1,35,44.14844,-107.25765
Shwarzinvader,"Sweet Static Wall > The Green Mile > The Island Area > Cody > Wyoming",https://www.mountainproject.com/route/123337838/shwarzinvader,2.0,-1,Sport,5.12b/c,1,100,44.50846,-109.17986
"Pitch Black","Killer Cave > Sinks Canyon > Lander Area > Wyoming",https://www.mountainproject.com/route/107906247/pitch-black,1.5,-1,Sport,5.12b/c,1,60,42.74193,-108.83178
"Moonlight (Thumper Direct)","Grand Wall > Teton Canyon > Wyoming",https://www.mountainproject.com/route/109469230/moonlight-thumper-direct,1.0,-1,Sport,5.12b/c,1,45,43.75533,-110.91315
"Leave the 99","Lost Wall > Ten Sleep Canyon > Wyoming",https://www.mountainproject.com/route/117585414/leave-the-99,1.0,-1,Sport,5.12b/c,1,,44.14257,-107.23303
"Stranger Things","Netflix > Old Road Crags > Ten Sleep Canyon > Wyoming",https://www.mountainproject.com/route/124679679/stranger-things,3.0,-1,Sport,5.12b/c,1,,44.08651,-107.30468
"Potassium Powerpump","Precious Metal Wall (Upper Middle) > Periodic Table > Swift Creek Canyon > Jackson Hole > Wyoming",https://www.mountainproject.com/route/124758935/potassium-powerpump,3.7,-1,Sport,5.12b/c,1,60,42.74456,-110.84778
"Killa Hertz","Wavelength Wall > Periodic Table > Swift Creek Canyon > Jackson Hole > Wyoming",https://www.mountainproject.com/route/125000030/killa-hertz,3.0,-1,Sport,5.12b/c,1,100,42.7454,-110.84781
