Route,Location,URL,"Avg Stars","Your Stars","Route Type",Rating,Pitches,Length,"Area Latitude","Area Longitude"
"Spontaneous Conga Line","The Draw Pile. > Crags Against Humanity > 1 -  Lower Highway > Mount Lemmon (Catalina Highway) > Mount Lemmon (Santa Catalina Mountains) > Southern Arizona > Arizona",https://www.mountainproject.com/route/111851591/spontaneous-conga-line,2.5,-1,Sport,5.8,1,45,32.32441,-110.70657
"In Lightning","West Face > The Druid > 6 - Mid-Mountain > Mount Lemmon (Catalina Highway) > Mount Lemmon (Santa Catalina Mountains) > Southern Arizona > Arizona",https://www.mountainproject.com/route/105738353/in-lightning,3.0,-1,Sport,5.8,2,180,32.40573,-110.72538
"First Born","Atlantis South Side > Atlantis > Queen Creek Canyon > Central Arizona > Arizona",https://www.mountainproject.com/route/105950679/first-born,2.8,-1,Sport,5.8,1,100,33.30561,-111.07634
Guanica,"Left Hand Wall > Hairpin Turn Area > 1 -  Lower Highway > Mount Lemmon (Catalina Highway) > Mount Lemmon (Santa Catalina Mountains) > Southern Arizona > Arizona",https://www.mountainproject.com/route/107407244/guanica,2.6,-1,Sport,5.8,2,140,32.31428,-110.74269
"Puppy Chow","Lost Hawk > 2 - Bear Canyon > Mount Lemmon (Catalina Highway) > Mount Lemmon (Santa Catalina Mountains) > Southern Arizona > Arizona",https://www.mountainproject.com/route/105738446/puppy-chow,2.8,-1,Sport,5.8,1,90,32.3704,-110.70788
"Green Lantern","Main Wall - North > Isolation Canyon > Central Arizona > Arizona",https://www.mountainproject.com/route/105816206/green-lantern,2.7,-1,Sport,5.8,2,200,34.36086,-111.45007
"The Dark Side of Oz","The Towers > Munchkinland Area > 6 - Mid-Mountain > Mount Lemmon (Catalina Highway) > Mount Lemmon (Santa Catalina Mountains) > Southern Arizona > Arizona",https://www.mountainproject.com/route/105822476/the-dark-side-of-oz,2.6,-1,Sport,5.8,1,80,32.38908,-110.71668
"Dead Pool","The Pond > Queen Creek Canyon > Central Arizona > Arizona",https://www.mountainproject.com/route/106434567/dead-pool,2.5,-1,Sport,5.8,1,80,33.3104,-111.06756
"Follow Your Heart","The Pond > Queen Creek Canyon > Central Arizona > Arizona",https://www.mountainproject.com/route/105830529/follow-your-heart,2.4,-1,Sport,5.8,1,50,33.3104,-111.06756
"Kit Kat","Sweet Rock > West Stronghold > Cochise Stronghold > Southern Arizona > Arizona",https://www.mountainproject.com/route/106341417/kit-kat,2.4,-1,Sport,5.8,1,60,31.87238,-110.01815
Whatchamacallit,"Sweet Rock > West Stronghold > Cochise Stronghold > Southern Arizona > Arizona",https://www.mountainproject.com/route/106333989/whatchamacallit,2.3,-1,Sport,5.8,2,140,31.87238,-110.01815
"Jack Off","Cracker Jack Cliffs > Jacks Canyon > Winslow- Hwy’s 87 & 99 Corridors > Northern Arizona > Arizona",https://www.mountainproject.com/route/105827919/jack-off,2.3,-1,Sport,5.8,1,55,34.75582,-111.06739
"Sudden Impact","Ridgeline > 6 - Mid-Mountain > Mount Lemmon (Catalina Highway) > Mount Lemmon (Santa Catalina Mountains) > Southern Arizona > Arizona",https://www.mountainproject.com/route/105738713/sudden-impact,2.2,-1,Sport,5.8,1,70,32.40804,-110.69674
"Baby Jr.","Trad Rock > Isle of Ewe > West Stronghold > Cochise Stronghold > Southern Arizona > Arizona",https://www.mountainproject.com/route/105738368/baby-jr,2.1,-1,Sport,5.8,1,80,31.87484,-110.01472
Feta,"Swiss Wall > Jacks Canyon > Winslow- Hwy’s 87 & 99 Corridors > Northern Arizona > Arizona",https://www.mountainproject.com/route/105827971/feta,2.0,-1,Sport,5.8,1,40,34.75327,-111.06506
"Sappy Love Song","The Pond > Queen Creek Canyon > Central Arizona > Arizona",https://www.mountainproject.com/route/105830196/sappy-love-song,2.0,-1,Sport,5.8,1,,33.3104,-111.06756
"I Am Pokey","Casino Cliffs > Jacks Canyon > Winslow- Hwy’s 87 & 99 Corridors > Northern Arizona > Arizona",https://www.mountainproject.com/route/107221837/i-am-pokey,2.0,-1,Sport,5.8,1,45,34.75623,-111.06529
"Pindering to the Masses","Left Hand Wall > Hairpin Turn Area > 1 -  Lower Highway > Mount Lemmon (Catalina Highway) > Mount Lemmon (Santa Catalina Mountains) > Southern Arizona > Arizona",https://www.mountainproject.com/route/107408633/pindering-to-the-masses,1.9,-1,Sport,5.8,1,80,32.31428,-110.74269
"Wind of Change","Ridgeline > 6 - Mid-Mountain > Mount Lemmon (Catalina Highway) > Mount Lemmon (Santa Catalina Mountains) > Southern Arizona > Arizona",https://www.mountainproject.com/route/105811890/wind-of-change,1.9,-1,Sport,5.8,1,60,32.40804,-110.69674
"Pole Dancing Dragons","The Funny Farm > Atlantis > Queen Creek Canyon > Central Arizona > Arizona",https://www.mountainproject.com/route/116492650/pole-dancing-dragons,3.1,-1,Sport,5.8,2,164,33.30497,-111.07714
"Resume Builder","Left Hand Wall > Hairpin Turn Area > 1 -  Lower Highway > Mount Lemmon (Catalina Highway) > Mount Lemmon (Santa Catalina Mountains) > Southern Arizona > Arizona",https://www.mountainproject.com/route/105738281/resume-builder,1.7,-1,Sport,5.8,1,60,32.31428,-110.74269
"Rain of Terror","The Headwall > Camelback Mountain > **Phoenix Areas > Central Arizona > Arizona",https://www.mountainproject.com/route/105887982/rain-of-terror,2.0,-1,Sport,5.8,1,90,33.51992,-111.97037
"Nothing Shocking","The Pond > Queen Creek Canyon > Central Arizona > Arizona",https://www.mountainproject.com/route/106401819/nothing-shocking,2.5,-1,Sport,5.8,1,55,33.3104,-111.06756
"Party Pooters","Swim Fin > 4 - Windy Point West > Mount Lemmon (Catalina Highway) > Mount Lemmon (Santa Catalina Mountains) > Southern Arizona > Arizona",https://www.mountainproject.com/route/105738419/party-pooters,2.2,-1,Sport,5.8,1,50,32.36765,-110.71988
"Cellar Rat","8 - Vineyard > The Farmhouse > Southern Arizona > Arizona",https://www.mountainproject.com/route/114286358/cellar-rat,2.8,-1,Sport,5.8,1,65,31.69522,-110.43164
"Jack Pot","Cracker Jack Cliffs > Jacks Canyon > Winslow- Hwy’s 87 & 99 Corridors > Northern Arizona > Arizona",https://www.mountainproject.com/route/105827912/jack-pot,1.8,-1,Sport,5.8,1,40,34.75582,-111.06739
"Ride the Wave","Kitty Pool > Atlantis > Queen Creek Canyon > Central Arizona > Arizona",https://www.mountainproject.com/route/117815841/ride-the-wave,2.8,-1,Sport,5.8,1,100,33.30559,-111.07749
"Feed The Sweed","Barnum Rock > 6 - Mid-Mountain > Mount Lemmon (Catalina Highway) > Mount Lemmon (Santa Catalina Mountains) > Southern Arizona > Arizona",https://www.mountainproject.com/route/108720061/feed-the-sweed,2.6,-1,Sport,5.8,3,280,32.40108,-110.69681
"Walk in the Park","High Life Wall > Jacks Canyon > Winslow- Hwy’s 87 & 99 Corridors > Northern Arizona > Arizona",https://www.mountainproject.com/route/105828620/walk-in-the-park,2.6,-1,Sport,5.8,1,60,34.75412,-111.06837
"Tropical People","Finktion Wall > Isolation Canyon > Central Arizona > Arizona",https://www.mountainproject.com/route/106048018/tropical-people,2.3,-1,Sport,5.8,1,85,34.36127,-111.45026
"Seats of Evil","The Funny Farm > Atlantis > Queen Creek Canyon > Central Arizona > Arizona",https://www.mountainproject.com/route/116492588/seats-of-evil,2.8,-1,Sport,5.8,1,85,33.30497,-111.07714
"Adventure Quest","The Pond > Queen Creek Canyon > Central Arizona > Arizona",https://www.mountainproject.com/route/107122074/adventure-quest,1.6,-1,Sport,5.8,1,,33.3104,-111.06756
"Northwest Route","Hitchcock Pinnacle > 3 - Windy Point East > Mount Lemmon (Catalina Highway) > Mount Lemmon (Santa Catalina Mountains) > Southern Arizona > Arizona",https://www.mountainproject.com/route/105738497/northwest-route,2.4,-1,"Trad, Sport",5.8,1,50,32.36784,-110.71578
Lichen,"Boot Hill > 1 -  Lower Highway > Mount Lemmon (Catalina Highway) > Mount Lemmon (Santa Catalina Mountains) > Southern Arizona > Arizona",https://www.mountainproject.com/route/105738641/lichen,1.8,-1,"Trad, Sport",5.8,1,80,32.33319,-110.71853
"Looking Sharp","High Life Wall > Jacks Canyon > Winslow- Hwy’s 87 & 99 Corridors > Northern Arizona > Arizona",https://www.mountainproject.com/route/105828625/looking-sharp,2.4,-1,Sport,5.8,1,60,34.75412,-111.06837
"Serious Enthusiasm","The Funny Farm > Atlantis > Queen Creek Canyon > Central Arizona > Arizona",https://www.mountainproject.com/route/116383523/serious-enthusiasm,2.7,-1,Sport,5.8,1,115,33.30497,-111.07714
"Obsessed Driller","Boot Hill > 1 -  Lower Highway > Mount Lemmon (Catalina Highway) > Mount Lemmon (Santa Catalina Mountains) > Southern Arizona > Arizona",https://www.mountainproject.com/route/105738644/obsessed-driller,1.7,-1,Sport,5.8,1,40,32.33319,-110.71853
Silhouette,"Pinnacle Peak > Pinnacle Peak > **Phoenix Areas > Central Arizona > Arizona",https://www.mountainproject.com/route/106099254/silhouette,2.4,-1,Sport,5.8,1,,33.72624,-111.86334
"Sunday Stroll","High Life Wall > Jacks Canyon > Winslow- Hwy’s 87 & 99 Corridors > Northern Arizona > Arizona",https://www.mountainproject.com/route/105828629/sunday-stroll,2.5,-1,Sport,5.8,1,70,34.75412,-111.06837
Mogenhead,"Ridgeline > 6 - Mid-Mountain > Mount Lemmon (Catalina Highway) > Mount Lemmon (Santa Catalina Mountains) > Southern Arizona > Arizona",https://www.mountainproject.com/route/105822786/mogenhead,1.7,-1,Sport,5.8,1,55,32.40804,-110.69674
Quicklime,"Redbud Canyon > Lime Kiln Canyon > The Arizona Strip > Northern Arizona > Arizona",https://www.mountainproject.com/route/112486877/quicklime,2.4,-1,Sport,5.8,1,80,36.6573,-114.00503
"You're Welcome","Welcome Wall > 2 - The Prow > The Farmhouse > Southern Arizona > Arizona",https://www.mountainproject.com/route/118350608/youre-welcome,2.5,-1,Sport,5.8,1,60,31.69161,-110.42865
"Midget Magic","Backhand Wall > Hairpin Turn Area > 1 -  Lower Highway > Mount Lemmon (Catalina Highway) > Mount Lemmon (Santa Catalina Mountains) > Southern Arizona > Arizona",https://www.mountainproject.com/route/106613372/midget-magic,2.2,-1,Sport,5.8,1,85,32.31433,-110.74328
"Strawberry Razzle Tea","Lower Looner Land > The Mine Area > Queen Creek Canyon > Central Arizona > Arizona",https://www.mountainproject.com/route/107124975/strawberry-razzle-tea,2.4,-1,Sport,5.8,1,,33.29956,-111.06993
"The Dude Abides","Lebowski Wall > East Stronghold > Cochise Stronghold > Southern Arizona > Arizona",https://www.mountainproject.com/route/113936772/the-dude-abides,2.7,-1,Sport,5.8,2,160,31.9438,-109.9632
Concierge,"Southern Wall > Christopher Creek Gorge > Central Arizona > Arizona",https://www.mountainproject.com/route/111138699/concierge,2.5,-1,Sport,"5.8 PG13",1,90,34.31126,-111.06571
Ernie,"Old Tunnel Area > Queen Creek Canyon > Central Arizona > Arizona",https://www.mountainproject.com/route/122964611/ernie,3.0,-1,Sport,5.8,1,35,33.30342,-111.08201
"Sendero D'oro","Troll Hut > Northern Devils Canyon > Queen Creek Canyon > Central Arizona > Arizona",https://www.mountainproject.com/route/108012422/sendero-doro,4.0,-1,Sport,"5.8 PG13",1,40,33.341,-111.0399
"The Fisher King","Troll Hut > Northern Devils Canyon > Queen Creek Canyon > Central Arizona > Arizona",https://www.mountainproject.com/route/108026818/the-fisher-king,4.0,-1,Sport,"5.8 PG13",1,35,33.341,-111.0399
"Nothings Left","The Pond > Queen Creek Canyon > Central Arizona > Arizona",https://www.mountainproject.com/route/107122005/nothings-left,2.0,-1,Sport,5.8,1,,33.3104,-111.06756
"Cell Block Eight","Cell Blocks > Prison Camp (Gordon Hirabayashi) Area > 1 -  Lower Highway > Mount Lemmon (Catalina Highway) > Mount Lemmon (Santa Catalina Mountains) > Southern Arizona > Arizona",https://www.mountainproject.com/route/105738311/cell-block-eight,1.4,-1,"Trad, Sport",5.8,1,70,32.33339,-110.72478
Smoother,"Girlie Man Area > McDowell Mountains > **Phoenix Areas > Central Arizona > Arizona",https://www.mountainproject.com/route/107845065/smoother,2.0,-1,Sport,"5.8 PG13",1,60,33.68942,-111.79915
"New Years Day","Boot Hill > 1 -  Lower Highway > Mount Lemmon (Catalina Highway) > Mount Lemmon (Santa Catalina Mountains) > Southern Arizona > Arizona",https://www.mountainproject.com/route/105738647/new-years-day,1.7,-1,Sport,5.8,1,40,32.33319,-110.71853
"All hail the mighty Tri-sac-a-saurus","Stewart Peak > Stewart Pocket > Central Arizona > Arizona",https://www.mountainproject.com/route/113109905/all-hail-the-mighty-tri-sac-a-saurus,3.4,-1,Sport,5.8,2,145,34.21851,-111.26871
Lorazepam,"Greevers' Needle > **Phoenix Areas > Central Arizona > Arizona",https://www.mountainproject.com/route/108715181/lorazepam,2.9,-1,Sport,"5.8 PG13",1,110,33.46891,-111.5448
"Three Amigos","Glitter Box Area > Lower Devil's Canyon > Queen Creek Canyon > Central Arizona > Arizona",https://www.mountainproject.com/route/105893453/three-amigos,2.2,-1,Sport,5.8,1,,33.27681,-111.02935
"Grab em in Da Biscuits","Swim Fin > 4 - Windy Point West > Mount Lemmon (Catalina Highway) > Mount Lemmon (Santa Catalina Mountains) > Southern Arizona > Arizona",https://www.mountainproject.com/route/105738611/grab-em-in-da-biscuits,1.8,-1,Sport,5.8,1,90,32.36765,-110.71988
"Under the Knife","Players Club > Crags Against Humanity > 1 -  Lower Highway > Mount Lemmon (Catalina Highway) > Mount Lemmon (Santa Catalina Mountains) > Southern Arizona > Arizona",https://www.mountainproject.com/route/117784750/under-the-knife,2.1,-1,Sport,5.8,1,55,32.32442,-110.7072
"Unnamed 5.8 sport","Lower Pumphouse Wash > Oak Creek Canyon > Northern Arizona > Arizona",https://www.mountainproject.com/route/106490018/unnamed-58-sport,2.1,-1,Sport,5.8,1,45,35.0262,-111.7326
"Time Slot","Time Zone > West Shore > Watson Lake > Granite Dells > **Prescott Area > Central Arizona > Arizona",https://www.mountainproject.com/route/107357765/time-slot,2.3,-1,Sport,5.8,1,40,34.59498,-112.41763
"Crystal Pistol","Welcome Wall > The Homestead > Central Arizona > Arizona",https://www.mountainproject.com/route/106623061/crystal-pistol,1.9,-1,Sport,5.8,1,40,33.16984,-110.78221
Shenandoah,"Shenandoah Wall > Northern Devils Canyon > Queen Creek Canyon > Central Arizona > Arizona",https://www.mountainproject.com/route/108033197/shenandoah,3.5,-1,Sport,"5.8 PG13",1,80,33.3408,-111.0322
"Tap It","Lower Pumphouse Wash > Oak Creek Canyon > Northern Arizona > Arizona",https://www.mountainproject.com/route/106581571/tap-it,2.5,-1,"Trad, Sport",5.8,1,60,35.0262,-111.7326
Lumberjack,"The Throne/Universe Wall > Upper Devils Canyon > Queen Creek Canyon > Central Arizona > Arizona",https://www.mountainproject.com/route/105801900/lumberjack,2.4,-1,Sport,5.8,1,65,33.30896,-111.03475
BSTB,"The Magma Gardens > The Mine Area > Queen Creek Canyon > Central Arizona > Arizona",https://www.mountainproject.com/route/107130577/bstb,2.3,-1,Sport,5.8,1,,33.29875,-111.07289
"Surfing With the Alien","Tall Wall > Outcroppings > 6 - Mid-Mountain > Mount Lemmon (Catalina Highway) > Mount Lemmon (Santa Catalina Mountains) > Southern Arizona > Arizona",https://www.mountainproject.com/route/106228724/surfing-with-the-alien,2.2,-1,Sport,5.8,2,195,32.39974,-110.71559
"Tough Gumby","Upper Gumby Wall > Gumby Wall > 6 - Mid-Mountain > Mount Lemmon (Catalina Highway) > Mount Lemmon (Santa Catalina Mountains) > Southern Arizona > Arizona",https://www.mountainproject.com/route/105796666/tough-gumby,2.4,-1,Sport,"5.8 PG13",1,50,32.40105,-110.69632
"It Might Just Be A One-Shot Deal","Zappa Dome > East Stronghold > Cochise Stronghold > Southern Arizona > Arizona",https://www.mountainproject.com/route/106312756/it-might-just-be-a-one-shot-deal,2.2,-1,Sport,5.8,1,80,31.95347,-109.96365
"Bakefest in America","The Amphitheater > Northern Devils Canyon > Queen Creek Canyon > Central Arizona > Arizona",https://www.mountainproject.com/route/107042280/bakefest-in-america,3.3,-1,Sport,5.8,1,,33.341,-111.0399
PBDS,"Stewart Peak > Stewart Pocket > Central Arizona > Arizona",https://www.mountainproject.com/route/113109969/pbds,2.8,-1,Sport,5.8,2,145,34.21851,-111.26871
"Totally Trad","Lookout Mountain > **Phoenix Areas > Central Arizona > Arizona",https://www.mountainproject.com/route/105801353/totally-trad,1.9,-1,Sport,"5.8 R",1,40,33.62342,-112.04947
"Slate Nation Blues","Slate Nation > The Homestead > Central Arizona > Arizona",https://www.mountainproject.com/route/107426146/slate-nation-blues,2.2,-1,Sport,5.8,1,40,33.17202,-110.78128
"Hour of Power","Time Zone > West Shore > Watson Lake > Granite Dells > **Prescott Area > Central Arizona > Arizona",https://www.mountainproject.com/route/106447209/hour-of-power,2.1,-1,"Trad, Sport, TR",5.8,1,60,34.59498,-112.41763
"The Tiny Warrior","Shady Grove > The Oasis > Granite Gardens > Granite Dells > **Prescott Area > Central Arizona > Arizona",https://www.mountainproject.com/route/116503531/the-tiny-warrior,2.3,-1,"Sport, TR",5.8,1,,34.60927,-112.41778
"Call Me the Breeze","The Havens > 7 - Upper Highway > Mount Lemmon (Catalina Highway) > Mount Lemmon (Santa Catalina Mountains) > Southern Arizona > Arizona",https://www.mountainproject.com/route/109019605/call-me-the-breeze,1.5,-1,Sport,5.8,1,50,32.43168,-110.75242
Biaxident,"Tall Wall > Outcroppings > 6 - Mid-Mountain > Mount Lemmon (Catalina Highway) > Mount Lemmon (Santa Catalina Mountains) > Southern Arizona > Arizona",https://www.mountainproject.com/route/106228730/biaxident,2.1,-1,Sport,5.8,2,195,32.39974,-110.71559
"Winds of Change","The Pond > Queen Creek Canyon > Central Arizona > Arizona",https://www.mountainproject.com/route/107122125/winds-of-change,1.8,-1,Sport,5.8,1,,33.3104,-111.06756
Bebop,"Teenage Mutant Ninja Turtle Crag > 1 -  Lower Highway > Mount Lemmon (Catalina Highway) > Mount Lemmon (Santa Catalina Mountains) > Southern Arizona > Arizona",https://www.mountainproject.com/route/107560522/bebop,1.6,-1,Sport,5.8,1,40,32.3127,-110.743
"Corndog Millionaire","The Corndog Wall > The Oasis > Granite Gardens > Granite Dells > **Prescott Area > Central Arizona > Arizona",https://www.mountainproject.com/route/120288391/corndog-millionaire,3.0,-1,Sport,5.8,1,,34.60919,-112.41701
"Instead of Yappin'","Beale St East > Beale St Wall > Kingman Area > Northern Arizona > Arizona",https://www.mountainproject.com/route/115150370/instead-of-yappin,2.9,-1,"Sport, TR",5.8,1,45,35.20513,-114.08628
"Thought's of Strassman And Cochise","Tall Wall > Outcroppings > 6 - Mid-Mountain > Mount Lemmon (Catalina Highway) > Mount Lemmon (Santa Catalina Mountains) > Southern Arizona > Arizona",https://www.mountainproject.com/route/106229632/thoughts-of-strassman-and-cochise,2.3,-1,Sport,5.8,2,195,32.39974,-110.71559
"Giu La Testa","Spaghetti Western Wall > Isolation Canyon > Central Arizona > Arizona",https://www.mountainproject.com/route/105822436/giu-la-testa,2.4,-1,Sport,5.8,1,60,34.36308,-111.44887
"God Save The Ta Tas","The Pond > Queen Creek Canyon > Central Arizona > Arizona",https://www.mountainproject.com/route/106604354/god-save-the-ta-tas,1.6,-1,Sport,5.8,1,50,33.3104,-111.06756
"Spanish Omelette","The Throne/Universe Wall > Upper Devils Canyon > Queen Creek Canyon > Central Arizona > Arizona",https://www.mountainproject.com/route/116711300/spanish-omelette,2.8,-1,Sport,5.8,1,100,33.30896,-111.03475
"Black Streak","Confluence Wall > Christopher Creek Gorge > Central Arizona > Arizona",https://www.mountainproject.com/route/111025216/black-streak,2.4,-1,Sport,5.8,1,55,34.31205,-111.0664
"Dreaming of Chocolate Bunnies","The Pond > Queen Creek Canyon > Central Arizona > Arizona",https://www.mountainproject.com/route/119108331/dreaming-of-chocolate-bunnies,2.6,-1,Sport,5.8,1,,33.3104,-111.06756
"The Black Gate","Mordor > Christopher Creek Gorge > Central Arizona > Arizona",https://www.mountainproject.com/route/114391419/the-black-gate,3.0,-1,Sport,5.8,1,60,34.31103,-111.06675
"Wicked Witch of the West","Shoen's Dam > Central Arizona > Arizona",https://www.mountainproject.com/route/114057415/wicked-witch-of-the-west,2.8,-1,"Sport, TR",5.8,1,60,34.41528,-110.10164
"No Preservatives Added","Powerline Crag > Winslow- Hwy’s 87 & 99 Corridors > Northern Arizona > Arizona",https://www.mountainproject.com/route/107215757/no-preservatives-added,3.0,-1,Sport,5.8,1,30,34.5549,-111.1952
Shortcake,"Beale St West > Beale St Wall > Kingman Area > Northern Arizona > Arizona",https://www.mountainproject.com/route/118751610/shortcake,2.8,-1,"Sport, TR",5.8,1,30,35.20513,-114.08633
"Layaway Plan","The Short Stack. > Crags Against Humanity > 1 -  Lower Highway > Mount Lemmon (Catalina Highway) > Mount Lemmon (Santa Catalina Mountains) > Southern Arizona > Arizona",https://www.mountainproject.com/route/116644635/layaway-plan,2.0,-1,Sport,5.8,1,24,32.32472,-110.70647
"Eskimo Joe","Shady Grove > The Oasis > Granite Gardens > Granite Dells > **Prescott Area > Central Arizona > Arizona",https://www.mountainproject.com/route/116503378/eskimo-joe,2.2,-1,Sport,5.8,1,,34.60927,-112.41778
Skyscraper,"Geronimo Area > Apache Leap > Queen Creek Canyon > Central Arizona > Arizona",https://www.mountainproject.com/route/120484864/skyscraper,3.0,-1,"Sport, TR",5.8,1,190,33.28809,-111.07704
"Handsome Princess","Workman Falls > Central Arizona > Arizona",https://www.mountainproject.com/route/117543408/handsome-princess,3.0,-1,Sport,5.8,1,90,33.81839,-110.93062
Vajazzling,"Redbud Canyon > Lime Kiln Canyon > The Arizona Strip > Northern Arizona > Arizona",https://www.mountainproject.com/route/116974146/vajazzling,2.4,-1,Sport,5.8,1,65,36.6573,-114.00503
"The Minnow","The Parking Lot Rocks > The Flume Trail > Granite Dells > **Prescott Area > Central Arizona > Arizona",https://www.mountainproject.com/route/118070727/the-minnow,3.0,-1,Sport,5.8,1,45,34.60205,-112.42074
"Atmospheric Slate","Slate Nation > The Homestead > Central Arizona > Arizona",https://www.mountainproject.com/route/107426135/atmospheric-slate,2.0,-1,Sport,5.8,1,40,33.17202,-110.78128
"Cat Walk","The Amphitheater > Northern Devils Canyon > Queen Creek Canyon > Central Arizona > Arizona",https://www.mountainproject.com/route/107042265/cat-walk,3.0,-1,Sport,5.8,1,,33.341,-111.0399
"Grippen the Coals","Diamond Dog > Northern Devils Canyon > Queen Creek Canyon > Central Arizona > Arizona",https://www.mountainproject.com/route/107046538/grippen-the-coals,2.4,-1,Sport,5.8,1,,33.34296,-111.03004
"C.O.B.S. Route","Solomon Area > The Promised Land > **Prescott Area > Central Arizona > Arizona",https://www.mountainproject.com/route/106410563/cobs-route,2.0,-1,Sport,5.8,1,60,34.81519,-112.40776
"Screwed the Pooch","Lobo Wall > Canines, Lobo, & Kennel Wall > 3 - Windy Point East > Mount Lemmon (Catalina Highway) > Mount Lemmon (Santa Catalina Mountains) > Southern Arizona > Arizona",https://www.mountainproject.com/route/105838809/screwed-the-pooch,1.6,-1,Sport,5.8,1,,32.36786,-110.71241
"Peanut 3","Behind Sweet Rock > West Stronghold > Cochise Stronghold > Southern Arizona > Arizona",https://www.mountainproject.com/route/107936164/peanut-3,1.9,-1,Sport,5.8,1,40,31.87077,-110.01807
"Putin's Folly","Eastern Block > Black Mountains - Golden Valley > Kingman Area > Northern Arizona > Arizona",https://www.mountainproject.com/route/122201457/putins-folly,3.3,-1,Sport,5.8,1,90,35.16271,-114.32906
"Gneiss Guys Finish Fast","Wall of the Flying Scorpions > 1 -  Lower Highway > Mount Lemmon (Catalina Highway) > Mount Lemmon (Santa Catalina Mountains) > Southern Arizona > Arizona",https://www.mountainproject.com/route/108052622/gneiss-guys-finish-fast,1.4,-1,Sport,5.8,1,60,32.32265,-110.70343
"New Route 2","Eastern Block > Black Mountains - Golden Valley > Kingman Area > Northern Arizona > Arizona",https://www.mountainproject.com/route/122510687/new-route-2,3.0,-1,Sport,5.8,1,100,35.16271,-114.32906
"Peach’s Face","Old Tunnel Area > Queen Creek Canyon > Central Arizona > Arizona",https://www.mountainproject.com/route/122976610/peachs-face,2.5,-1,Sport,5.8,2,50,33.30342,-111.08201
"Peanut Butter Cracker Lover","Welcome Wall > The Homestead > Central Arizona > Arizona",https://www.mountainproject.com/route/105801323/peanut-butter-cracker-lover,1.9,-1,Sport,5.8,1,40,33.16984,-110.78221
"Forget about It","Fire Wall > Oak Creek Canyon > Northern Arizona > Arizona",https://www.mountainproject.com/route/114512143/forget-about-it,2.0,-1,Sport,5.8,1,25,34.87258,-111.7531
"Verse in Ragtime","Uptown > West Elden > Mt. Elden Crags > Flagstaff Area > Northern Arizona > Arizona",https://www.mountainproject.com/route/105818976/verse-in-ragtime,2.4,-1,"Trad, Sport","5.8 PG13",1,60,35.25552,-111.6237
"Dr. Satan","Devil's Rejects > Northern Devils Canyon > Queen Creek Canyon > Central Arizona > Arizona",https://www.mountainproject.com/route/107198202/dr-satan,2.8,-1,Sport,5.8,1,35,33.3252,-111.0325
"Sons of Plunder","Tall Wall > Outcroppings > 6 - Mid-Mountain > Mount Lemmon (Catalina Highway) > Mount Lemmon (Santa Catalina Mountains) > Southern Arizona > Arizona",https://www.mountainproject.com/route/106228709/sons-of-plunder,2.0,-1,Sport,5.8,2,195,32.39974,-110.71559
"BLM Bill","The Prow Area > Black Mountains - Golden Valley > Kingman Area > Northern Arizona > Arizona",https://www.mountainproject.com/route/114160332/blm-bill,2.8,-1,Sport,5.8,1,50,35.1608,-114.32884
"Country Mouse","The Mouse Wall > The Homestead > Central Arizona > Arizona",https://www.mountainproject.com/route/107425028/country-mouse,2.5,-1,Sport,5.8,1,40,33.17497,-110.7819
"Alright Aret-e","Kitty Pool > Atlantis > Queen Creek Canyon > Central Arizona > Arizona",https://www.mountainproject.com/route/118064603/alright-aret-e,2.1,-1,Sport,5.8,1,50,33.30559,-111.07749
"Frog Drop","Confluence Wall > Christopher Creek Gorge > Central Arizona > Arizona",https://www.mountainproject.com/route/111025225/frog-drop,2.4,-1,Sport,5.8,1,60,34.31205,-111.0664
"Pool Party","Canyoneers Wall > Christopher Creek Gorge > Central Arizona > Arizona",https://www.mountainproject.com/route/111807942/pool-party,2.3,-1,Sport,5.8,1,90,34.31143,-111.06403
"Smooth As Slate","Slate Nation > The Homestead > Central Arizona > Arizona",https://www.mountainproject.com/route/107426071/smooth-as-slate,2.1,-1,Sport,5.8,1,40,33.17202,-110.78128
"The Bearded Lady","Barnum Rock > 6 - Mid-Mountain > Mount Lemmon (Catalina Highway) > Mount Lemmon (Santa Catalina Mountains) > Southern Arizona > Arizona",https://www.mountainproject.com/route/118252676/the-bearded-lady,2.3,-1,Sport,5.8,1,79,32.40108,-110.69681
"The Glory Bowl","The Joint > Stewart Pocket > Central Arizona > Arizona",https://www.mountainproject.com/route/113835961/the-glory-bowl,2.2,-1,Sport,5.8,1,50,34.22415,-111.27374
[Redacted],"Barnum Rock > 6 - Mid-Mountain > Mount Lemmon (Catalina Highway) > Mount Lemmon (Santa Catalina Mountains) > Southern Arizona > Arizona",https://www.mountainproject.com/route/113891917/redacted,2.0,-1,Sport,5.8,1,60,32.40108,-110.69681
Reload,"Welcome Wash > Five Mile Draw > Central Arizona > Arizona",https://www.mountainproject.com/route/114012004/reload,2.7,-1,Sport,5.8,1,40,34.59162,-110.08354
"The A Team","(J) The Oven > The Pit (aka Le Petit Verdon) > Flagstaff Area > Northern Arizona > Arizona",https://www.mountainproject.com/route/121796169/the-a-team,2.4,-1,Sport,5.8,1,40,35.1294,-111.59711
"Cosmo Influence","Not So Steep > 7 - Upper Highway > Mount Lemmon (Catalina Highway) > Mount Lemmon (Santa Catalina Mountains) > Southern Arizona > Arizona",https://www.mountainproject.com/route/106302054/cosmo-influence,1.9,-1,Sport,5.8,1,40,32.41908,-110.75559
"Decompressing the Delusions","The Funny Farm > Atlantis > Queen Creek Canyon > Central Arizona > Arizona",https://www.mountainproject.com/route/116383751/decompressing-the-delusions,2.4,-1,Sport,5.8,1,100,33.30497,-111.07714
"We Want EZ","Beale St East > Beale St Wall > Kingman Area > Northern Arizona > Arizona",https://www.mountainproject.com/route/114610204/we-want-ez,2.5,-1,"Sport, TR",5.8,1,45,35.20513,-114.08628
"Master Splinter","Upper Wall > Exit Gorge > Christopher Creek Gorge > Central Arizona > Arizona",https://www.mountainproject.com/route/111024954/master-splinter,2.3,-1,Sport,5.8,1,90,34.3133,-111.06447
"The Mouse","The Mouse Wall > The Homestead > Central Arizona > Arizona",https://www.mountainproject.com/route/107424973/the-mouse,2.3,-1,Sport,5.8,1,40,33.17497,-110.7819
Spice,"Wall Drug > The Torch > The Refuge > Lower Devil's Canyon > Queen Creek Canyon > Central Arizona > Arizona",https://www.mountainproject.com/route/107383134/spice,2.2,-1,Sport,5.8,1,60,33.26839,-111.04849
"3-Star Nightmare","Boulder Canyon > Camelback Mountain > **Phoenix Areas > Central Arizona > Arizona",https://www.mountainproject.com/route/106389023/3-star-nightmare,2.1,-1,Sport,5.8,1,150,33.5145,-111.9618
"Tullamore Dew","IreIand Main Wall > Ireland > 7 - Upper Highway > Mount Lemmon (Catalina Highway) > Mount Lemmon (Santa Catalina Mountains) > Southern Arizona > Arizona",https://www.mountainproject.com/route/112209972/tullamore-dew,2.1,-1,Sport,5.8,1,50,32.42133,-110.74968
"Ants on a Log","Shady Grove > The Oasis > Granite Gardens > Granite Dells > **Prescott Area > Central Arizona > Arizona",https://www.mountainproject.com/route/116503505/ants-on-a-log,2.2,-1,"Sport, TR",5.8,1,,34.60927,-112.41778
"Mystery Mouse 2","The Mouse Wall > The Homestead > Central Arizona > Arizona",https://www.mountainproject.com/route/107424943/mystery-mouse-2,2.0,-1,Sport,5.8,1,40,33.17497,-110.7819
"Boom Shakalaka","Redbud Canyon > Lime Kiln Canyon > The Arizona Strip > Northern Arizona > Arizona",https://www.mountainproject.com/route/116974922/boom-shakalaka,2.3,-1,Sport,5.8,1,95,36.6573,-114.00503
"Sun Drop","Sweet Rock > West Stronghold > Cochise Stronghold > Southern Arizona > Arizona",https://www.mountainproject.com/route/114091281/sun-drop,1.9,-1,Sport,5.8,1,65,31.87238,-110.01815
"Peanut 5","Behind Sweet Rock > West Stronghold > Cochise Stronghold > Southern Arizona > Arizona",https://www.mountainproject.com/route/107936179/peanut-5,1.8,-1,Sport,5.8,1,40,31.87077,-110.01807
"One is the Loneliest","The Discard Pile. > Crags Against Humanity > 1 -  Lower Highway > Mount Lemmon (Catalina Highway) > Mount Lemmon (Santa Catalina Mountains) > Southern Arizona > Arizona",https://www.mountainproject.com/route/121978036/one-is-the-loneliest,2.3,-1,Sport,5.8,1,50,32.32468,-110.70684
"Flying Monkeys","Shoen's Dam > Central Arizona > Arizona",https://www.mountainproject.com/route/114057425/flying-monkeys,2.4,-1,"Sport, TR",5.8,1,60,34.41528,-110.10164
"Take Two","Dall Wall > Black Mountains - Golden Valley > Kingman Area > Northern Arizona > Arizona",https://www.mountainproject.com/route/114152280/take-two,2.3,-1,Sport,5.8,1,65,35.16028,-114.32982
"Black Gold","Powerline Crag > Winslow- Hwy’s 87 & 99 Corridors > Northern Arizona > Arizona",https://www.mountainproject.com/route/107215683/black-gold,2.4,-1,Sport,5.8,1,30,34.5549,-111.1952
"Tutankamens Ramen","Confluence Wall > Christopher Creek Gorge > Central Arizona > Arizona",https://www.mountainproject.com/route/111025182/tutankamens-ramen,2.3,-1,"Sport, TR",5.8,1,80,34.31205,-111.0664
"My Name is Mud","Primus Wall > Wilderness of Rocks > 7 - Upper Highway > Mount Lemmon (Catalina Highway) > Mount Lemmon (Santa Catalina Mountains) > Southern Arizona > Arizona",https://www.mountainproject.com/route/107400554/my-name-is-mud,2.1,-1,Sport,5.8,1,60,32.43194,-110.77684
Hammered,"The Prow Area > Black Mountains - Golden Valley > Kingman Area > Northern Arizona > Arizona",https://www.mountainproject.com/route/114160297/hammered,2.4,-1,Sport,5.8,1,40,35.1608,-114.32884
"Crazy Eight","Rollinstone > 2 - Bear Canyon > Mount Lemmon (Catalina Highway) > Mount Lemmon (Santa Catalina Mountains) > Southern Arizona > Arizona",https://www.mountainproject.com/route/107038001/crazy-eight,1.9,-1,Sport,5.8,1,45,32.3705,-110.70796
"The Right One","Hidden Jewels > 1 -  Lower Highway > Mount Lemmon (Catalina Highway) > Mount Lemmon (Santa Catalina Mountains) > Southern Arizona > Arizona",https://www.mountainproject.com/route/105738287/the-right-one,1.7,-1,"Trad, Sport",5.8,1,80,32.31542,-110.73742
"Rockin America","Bug Spring Wall > 1 -  Lower Highway > Mount Lemmon (Catalina Highway) > Mount Lemmon (Santa Catalina Mountains) > Southern Arizona > Arizona",https://www.mountainproject.com/route/105798630/rockin-america,1.8,-1,"Trad, Sport",5.8,1,60,32.34696,-110.70274
"Cow Poke","Road Area > Lower Devil's Canyon > Queen Creek Canyon > Central Arizona > Arizona",https://www.mountainproject.com/route/106892633/cow-poke,1.8,-1,Sport,5.8,1,40,33.27691,-111.03244
"Mexican Radio","The Wall of Voodoo > Upper Boulder Creek > Crags along the Peavine Trail > Granite Dells > **Prescott Area > Central Arizona > Arizona",https://www.mountainproject.com/route/116496623/mexican-radio,2.7,-1,Sport,5.8,1,65,34.59212,-112.40217
"On Ramp","Pharaoh > 2 - Bear Canyon > Mount Lemmon (Catalina Highway) > Mount Lemmon (Santa Catalina Mountains) > Southern Arizona > Arizona",https://www.mountainproject.com/route/106404029/on-ramp,2.5,-1,"Trad, Sport",5.8,1,130,32.37686,-110.69491
"Mustang Sally","Wild Horse Wall > Superstition Mountains > **Phoenix Areas > Central Arizona > Arizona",https://www.mountainproject.com/route/106693065/mustang-sally,2.5,-1,"Sport, TR","5.8 R",1,115,33.41302,-111.35194
"Little Miss Muffit","Lizzy Rock > 4 - Windy Point West > Mount Lemmon (Catalina Highway) > Mount Lemmon (Santa Catalina Mountains) > Southern Arizona > Arizona",https://www.mountainproject.com/route/105738434/little-miss-muffit,2.5,-1,"Sport, TR",5.8,1,60,32.36837,-110.71715
"Sonoran Moonfire","The Saloon > Tucson Mountains > Southern Arizona > Arizona",https://www.mountainproject.com/route/116232234/sonoran-moonfire,2.1,-1,Sport,5.8,1,45,32.35127,-111.13931
"In It To Win It","Redbud Canyon > Lime Kiln Canyon > The Arizona Strip > Northern Arizona > Arizona",https://www.mountainproject.com/route/114014154/in-it-to-win-it,1.9,-1,Sport,5.8,1,65,36.6573,-114.00503
Input,"Boot Hill > 1 -  Lower Highway > Mount Lemmon (Catalina Highway) > Mount Lemmon (Santa Catalina Mountains) > Southern Arizona > Arizona",https://www.mountainproject.com/route/105822731/input,1.2,-1,Sport,5.8,1,,32.33319,-110.71853
"Let Freedom Ping","Main Wall > La Milagrosa Canyon > Southern Arizona > Arizona",https://www.mountainproject.com/route/118244270/let-freedom-ping,1.5,-1,Sport,5.8,1,40,32.29825,-110.71317
"To Far North For The Migrating Munchkin","Tall Wall > Outcroppings > 6 - Mid-Mountain > Mount Lemmon (Catalina Highway) > Mount Lemmon (Santa Catalina Mountains) > Southern Arizona > Arizona",https://www.mountainproject.com/route/106229653/to-far-north-for-the-migrating-munchkin,2.0,-1,Sport,5.8,2,195,32.39974,-110.71559
"I'll Be Back","The Movie Quote Wall > The Homestead > Central Arizona > Arizona",https://www.mountainproject.com/route/108617719/ill-be-back,2.3,-1,Sport,5.8,1,80,33.16843,-110.7832
"Miles and Miles","The Havens > 7 - Upper Highway > Mount Lemmon (Catalina Highway) > Mount Lemmon (Santa Catalina Mountains) > Southern Arizona > Arizona",https://www.mountainproject.com/route/109019678/miles-and-miles,1.4,-1,Sport,5.8,1,60,32.43168,-110.75242
"Lay Me Down","Barks Canyon Wall > Superstition Mountains > **Phoenix Areas > Central Arizona > Arizona",https://www.mountainproject.com/route/118817569/lay-me-down,2.3,-1,Sport,"5.8 R",1,140,33.41152,-111.34934
"Willow Roof","Rose Hill Crag > Willow Canyon Crags > 6 - Mid-Mountain > Mount Lemmon (Catalina Highway) > Mount Lemmon (Santa Catalina Mountains) > Southern Arizona > Arizona",https://www.mountainproject.com/route/105738749/willow-roof,1.8,-1,Sport,5.8,1,80,32.38794,-110.70748
"Rip Off","Wailing Wall > Bright Angel Walls > Grand Canyon > Northern Arizona > Arizona",https://www.mountainproject.com/route/106947552/rip-off,2.2,-1,Sport,5.8,1,45,36.05903,-112.14738
Ratatouille,"The Mouse Wall > The Homestead > Central Arizona > Arizona",https://www.mountainproject.com/route/107424720/ratatouille,1.8,-1,Sport,5.8,1,30,33.17497,-110.7819
"Unknown 4","Kiddie Pool Area > Renegade > East Clear Creek > Winslow- Hwy’s 87 & 99 Corridors > Northern Arizona > Arizona",https://www.mountainproject.com/route/110560642/unknown-4,2.3,-1,Sport,5.8,1,60,34.897,-110.71915
"Unknown 5.7","Girlie Man Area > McDowell Mountains > **Phoenix Areas > Central Arizona > Arizona",https://www.mountainproject.com/route/117580478/unknown-57,1.6,-1,"Sport, TR",5.8,1,45,33.68942,-111.79915
"Kaeli's Clean Start","Naiche's Nest > West Stronghold > Cochise Stronghold > Southern Arizona > Arizona",https://www.mountainproject.com/route/106622086/kaelis-clean-start,1.9,-1,"Sport, TR",5.8,1,35,31.8756,-110.0164
"The Phantom missed the Opera","Gardener's Wall > McDowell Mountains > **Phoenix Areas > Central Arizona > Arizona",https://www.mountainproject.com/route/106414201/the-phantom-missed-the-opera,2.3,-1,"Trad, Sport","5.8 R",2,,33.68178,-111.80737
"Unknown 3","Kiddie Pool Area > Renegade > East Clear Creek > Winslow- Hwy’s 87 & 99 Corridors > Northern Arizona > Arizona",https://www.mountainproject.com/route/110560625/unknown-3,2.2,-1,Sport,5.8,1,50,34.897,-110.71915
"Pinky and The Brain","The Mouse Wall > The Homestead > Central Arizona > Arizona",https://www.mountainproject.com/route/107424713/pinky-and-the-brain,1.9,-1,Sport,5.8,1,30,33.17497,-110.7819
"Wheres Mike","Boot Hill > 1 -  Lower Highway > Mount Lemmon (Catalina Highway) > Mount Lemmon (Santa Catalina Mountains) > Southern Arizona > Arizona",https://www.mountainproject.com/route/105738629/wheres-mike,1.4,-1,"Trad, Sport",5.8,1,50,32.33319,-110.71853
"Ojo Blanco","Paleface Slab > West Stronghold > Cochise Stronghold > Southern Arizona > Arizona",https://www.mountainproject.com/route/107324496/ojo-blanco,2.0,-1,Sport,5.8,1,140,31.9354,-109.9969
"Mystery Mouse 1","The Mouse Wall > The Homestead > Central Arizona > Arizona",https://www.mountainproject.com/route/107424939/mystery-mouse-1,2.0,-1,Sport,5.8,1,40,33.17497,-110.7819
"One Legged Barstool","The Saloon > Tucson Mountains > Southern Arizona > Arizona",https://www.mountainproject.com/route/116232247/one-legged-barstool,1.8,-1,Sport,5.8,1,45,32.35127,-111.13931
"Drink Yourself A Jacket","The Main Wall > Griffith Springs > Flagstaff Area > Northern Arizona > Arizona",https://www.mountainproject.com/route/120946933/drink-yourself-a-jacket,1.6,-1,Sport,5.8,1,30,35.11235,-111.70593
"Catalonian Adventures","8 - One Day Wall > Chessman Area > 2 - Bear Canyon > Mount Lemmon (Catalina Highway) > Mount Lemmon (Santa Catalina Mountains) > Southern Arizona > Arizona",https://www.mountainproject.com/route/106780823/catalonian-adventures,1.8,-1,Sport,5.8,1,40,32.36032,-110.71983
"Slow Poke","Road Area > Lower Devil's Canyon > Queen Creek Canyon > Central Arizona > Arizona",https://www.mountainproject.com/route/106096503/slow-poke,2.0,-1,Sport,5.8,1,40,33.27691,-111.03244
"A Bag of Gumbies","The Watering Hole > The Zoo > 1 -  Lower Highway > Mount Lemmon (Catalina Highway) > Mount Lemmon (Santa Catalina Mountains) > Southern Arizona > Arizona",https://www.mountainproject.com/route/121994934/a-bag-of-gumbies,2.0,-1,Sport,5.8,1,60,32.34056,-110.69283
101,"2 - Shallow End > The Dry Canyon > Southern Arizona > Arizona",https://www.mountainproject.com/route/113896876/101,1.6,-1,Sport,5.8,1,50,31.79293,-110.40144
"Frigid Lizard","Ectotherm Tower > The Zoo > 1 -  Lower Highway > Mount Lemmon (Catalina Highway) > Mount Lemmon (Santa Catalina Mountains) > Southern Arizona > Arizona",https://www.mountainproject.com/route/121930523/frigid-lizard,2.3,-1,Sport,5.8,1,55,32.34105,-110.69266
"Battery Pack","Hook Wall > Euro Dog Valley > Queen Creek Canyon > Central Arizona > Arizona",https://www.mountainproject.com/route/108001319/battery-pack,2.1,-1,Sport,5.8,1,50,33.30387,-111.06193
"Red Chili Burrito","Stormwatch Wall > Northern Devils Canyon > Queen Creek Canyon > Central Arizona > Arizona",https://www.mountainproject.com/route/107338824/red-chili-burrito,2.0,-1,Sport,5.8,1,30,33.34318,-111.02799
Elsa,"Finland Terrace > The Homestead > Central Arizona > Arizona",https://www.mountainproject.com/route/106676293/elsa,1.8,-1,Sport,5.8,1,80,33.17507,-110.78122
"Short Story","Gremlins > Wildlife Canyon (Closures in Effect) > South Mountain > **Phoenix Areas > Central Arizona > Arizona",https://www.mountainproject.com/route/120847001/short-story,1.8,-1,Sport,5.8,1,30,33.34213,-112.07597
"Leopard gecko","Lower Looner Land > The Mine Area > Queen Creek Canyon > Central Arizona > Arizona",https://www.mountainproject.com/route/120091459/leopard-gecko,2.0,-1,Sport,5.8,1,30,33.29956,-111.06993
Smagel,"Rivendell > Hairpin Turn Area > 1 -  Lower Highway > Mount Lemmon (Catalina Highway) > Mount Lemmon (Santa Catalina Mountains) > Southern Arizona > Arizona",https://www.mountainproject.com/route/105822530/smagel,1.4,-1,Sport,5.8,1,75,32.3211,-110.739
"Hash Browns","Pancake House > Upper Devils Canyon > Queen Creek Canyon > Central Arizona > Arizona",https://www.mountainproject.com/route/106360669/hash-browns,1.8,-1,Sport,5.8,1,30,33.30561,-111.07634
"The Burglar","Rivendell > Hairpin Turn Area > 1 -  Lower Highway > Mount Lemmon (Catalina Highway) > Mount Lemmon (Santa Catalina Mountains) > Southern Arizona > Arizona",https://www.mountainproject.com/route/105822547/the-burglar,1.3,-1,Sport,5.8,1,75,32.3211,-110.739
"Baker's Half Dozen","K12 > School of Rock > 5 - Windy Ridge > Mount Lemmon (Catalina Highway) > Mount Lemmon (Santa Catalina Mountains) > Southern Arizona > Arizona",https://www.mountainproject.com/route/120473868/bakers-half-dozen,2.0,-1,Sport,5.8,1,45,32.37462,-110.70508
"Et Tu Fruite","Forum > Spectrum Crags > 7 - Upper Highway > Mount Lemmon (Catalina Highway) > Mount Lemmon (Santa Catalina Mountains) > Southern Arizona > Arizona",https://www.mountainproject.com/route/119014072/et-tu-fruite,2.0,-1,Sport,5.8,1,40,32.41797,-110.74913
Pockets,"Gargoyle Wall > Camelback Mountain > **Phoenix Areas > Central Arizona > Arizona",https://www.mountainproject.com/route/108621724/pockets,2.0,-1,Sport,5.8,1,40,33.5192,-111.9694
"Banana Potion","Surrounding > Miyazaki > Upper Boulder Creek > Crags along the Peavine Trail > Granite Dells > **Prescott Area > Central Arizona > Arizona",https://www.mountainproject.com/route/115378587/banana-potion,2.0,-1,"Sport, TR",5.8,1,42,34.5945,-112.40701
"L'eggo my Eggo","Pancake House > Upper Devils Canyon > Queen Creek Canyon > Central Arizona > Arizona",https://www.mountainproject.com/route/108276147/leggo-my-eggo,2.0,-1,Sport,5.8,1,,33.30561,-111.07634
"Saguaro Hotel","Cholla Mountain > **Phoenix Areas > Central Arizona > Arizona",https://www.mountainproject.com/route/106982749/saguaro-hotel,2.0,-1,Sport,5.8,1,50,33.78682,-111.82367
"Sob Story","Wailing Wall > 2 - Bear Canyon > Mount Lemmon (Catalina Highway) > Mount Lemmon (Santa Catalina Mountains) > Southern Arizona > Arizona",https://www.mountainproject.com/route/111346586/sob-story,2.0,-1,Sport,5.8,1,85,32.37192,-110.7019
"Turkey in a Blender","Boy Scout Wall > Northern Devils Canyon > Queen Creek Canyon > Central Arizona > Arizona",https://www.mountainproject.com/route/109794598/turkey-in-a-blender,2.0,-1,Sport,5.8,1,40,33.343,-111.03437
"Hit or Miss","Powerline Crag > Winslow- Hwy’s 87 & 99 Corridors > Northern Arizona > Arizona",https://www.mountainproject.com/route/107261906/hit-or-miss,2.0,-1,Sport,5.8,1,30,34.5549,-111.1952
"Dog Day Afternoon","Between Rock > The Outback > 5 - Windy Ridge > Mount Lemmon (Catalina Highway) > Mount Lemmon (Santa Catalina Mountains) > Southern Arizona > Arizona",https://www.mountainproject.com/route/105838505/dog-day-afternoon,2.0,-1,Sport,5.8,1,,32.3751,-110.70681
Jacked,"The Prow Area > Black Mountains - Golden Valley > Kingman Area > Northern Arizona > Arizona",https://www.mountainproject.com/route/114289584/jacked,1.7,-1,Sport,5.8,1,,35.1608,-114.32884
"Mystery Mouse 3","The Mouse Wall > The Homestead > Central Arizona > Arizona",https://www.mountainproject.com/route/107424948/mystery-mouse-3,1.8,-1,Sport,5.8,1,40,33.17497,-110.7819
Nephi,"Tollgate Pass West > Tollgate Pass > Black Hills > Southern Arizona > Arizona",https://www.mountainproject.com/route/120499508/nephi,2.0,-1,Sport,5.8,1,50,32.84279,-109.39935
"Christian Arete","Myth Wall > The Labyrinth > Superstition Mountains > **Phoenix Areas > Central Arizona > Arizona",https://www.mountainproject.com/route/118226336/christian-arete,2.0,-1,Sport,"5.8 R",1,60,33.41155,-111.35051
"Screaming scarlet micro missile (SSMM)","Zone-tail Buttress > Isolation Canyon > Central Arizona > Arizona",https://www.mountainproject.com/route/114293302/screaming-scarlet-micro-missile-ssmm,2.0,-1,Sport,5.8,1,40,34.36365,-111.44823
Unknown,"The Nursery > Lower Sullivan Canyon > Sullivan's Canyon > **Prescott Area > Central Arizona > Arizona",https://www.mountainproject.com/route/121463340/unknown,2.0,-1,Sport,5.8,1,25,34.86312,-112.44732
"Chet's Arete","Mogul Wall > Little Granite Mountain > **Phoenix Areas > Central Arizona > Arizona",https://www.mountainproject.com/route/109901575/chets-arete,2.0,-1,Sport,5.8,1,,33.78654,-111.80414
"Pussy Whipper","Lion's Den > Lower Devil's Canyon > Queen Creek Canyon > Central Arizona > Arizona",https://www.mountainproject.com/route/112534274/pussy-whipper,2.0,-1,Sport,5.8,1,75,33.27759,-111.02824
Godliness,"Medivac Wall > Medivac Wall > Bright Angel Walls > Grand Canyon > Northern Arizona > Arizona",https://www.mountainproject.com/route/108202316/godliness,2.0,-1,Sport,5.8,1,50,36.10733,-112.11205
Jubilation,"Creek Walls > Northern Devils Canyon > Queen Creek Canyon > Central Arizona > Arizona",https://www.mountainproject.com/route/112808714/jubilation,2.0,-1,Sport,5.8,1,50,33.33488,-111.03173
Nirvana,"East Face > Dromedary Peak > Central Arizona > Arizona",https://www.mountainproject.com/route/109926112/nirvana,2.0,-1,Sport,5.8,1,55,33.25791,-111.24973
"Drawing Blood","Talon's Grip Area > Raptor Ridge > The Refuge > Lower Devil's Canyon > Queen Creek Canyon > Central Arizona > Arizona",https://www.mountainproject.com/route/108719905/drawing-blood,2.0,-1,Sport,5.8,1,80,33.27099,-111.0461
"High Tension","Solstice Tower > Northern Devils Canyon > Queen Creek Canyon > Central Arizona > Arizona",https://www.mountainproject.com/route/108035554/high-tension,2.0,-1,Sport,"5.8 PG13",1,35,33.3416,-111.0334
Grassapocket,"Pocket Plaza > Northern Devils Canyon > Queen Creek Canyon > Central Arizona > Arizona",https://www.mountainproject.com/route/107486874/grassapocket,2.0,-1,Sport,5.8,1,60,33.341,-111.0399
"Too Chic to Freak","Pocket Plaza > Northern Devils Canyon > Queen Creek Canyon > Central Arizona > Arizona",https://www.mountainproject.com/route/107486881/too-chic-to-freak,2.0,-1,Sport,5.8,1,60,33.341,-111.0399
"Two Stepping","Half and Half Wall > McDowell Mountains > **Phoenix Areas > Central Arizona > Arizona",https://www.mountainproject.com/route/107944436/two-stepping,1.5,-1,"Sport, TR",5.8,1,55,33.6859,-111.8126
"MoonLight Pokey","2 - Shallow End > The Dry Canyon > Southern Arizona > Arizona",https://www.mountainproject.com/route/114115699/moonlight-pokey,1.7,-1,Sport,5.8,1,50,31.79293,-110.40144
"Tanager Tango","The Aviary > The Zoo > 1 -  Lower Highway > Mount Lemmon (Catalina Highway) > Mount Lemmon (Santa Catalina Mountains) > Southern Arizona > Arizona",https://www.mountainproject.com/route/121930326/tanager-tango,1.8,-1,Sport,5.8,1,35,32.34171,-110.69257
"Tailgate Tango","Goosehead > 5 - Windy Ridge > Mount Lemmon (Catalina Highway) > Mount Lemmon (Santa Catalina Mountains) > Southern Arizona > Arizona",https://www.mountainproject.com/route/121902268/tailgate-tango,1.7,-1,Sport,5.8,1,43,32.37483,-110.70448
"Toad Stool","Left Wall > Ricochet > San Francisco Peaks > Flagstaff Area > Northern Arizona > Arizona",https://www.mountainproject.com/route/120555661/toad-stool,1.8,-1,Sport,5.8,1,35,35.29457,-111.64604
"Lost in a Daydream","Diamond Dog > Northern Devils Canyon > Queen Creek Canyon > Central Arizona > Arizona",https://www.mountainproject.com/route/107046544/lost-in-a-daydream,1.4,-1,Sport,5.8,1,,33.34296,-111.03004
"Short and Sweet","Slate Nation > The Homestead > Central Arizona > Arizona",https://www.mountainproject.com/route/107426251/short-and-sweet,1.5,-1,Sport,5.8,1,30,33.17202,-110.78128
"Lords of Karma","Cave Wall > Outcroppings > 6 - Mid-Mountain > Mount Lemmon (Catalina Highway) > Mount Lemmon (Santa Catalina Mountains) > Southern Arizona > Arizona",https://www.mountainproject.com/route/106226643/lords-of-karma,1.5,-1,Sport,5.8,1,55,32.40027,-110.71542
"Tree Line","The Bridge Wall > Below the Dam > Granite Dells > **Prescott Area > Central Arizona > Arizona",https://www.mountainproject.com/route/116627145/tree-line,1.5,-1,Sport,5.8,1,,34.5974,-112.41455
"Ars Fabrilis","Barnum Rock > 6 - Mid-Mountain > Mount Lemmon (Catalina Highway) > Mount Lemmon (Santa Catalina Mountains) > Southern Arizona > Arizona",https://www.mountainproject.com/route/108720023/ars-fabrilis,1.8,-1,Sport,5.8,1,60,32.40108,-110.69681
"Oreos & Promises","The Murray Wall > 8 - Summit Crags > Mount Lemmon (Catalina Highway) > Mount Lemmon (Santa Catalina Mountains) > Southern Arizona > Arizona",https://www.mountainproject.com/route/106003895/oreos-promises,1.3,-1,Sport,5.8,1,,32.4337,-110.7977
"Route To Nowhere","Queen Victoria > Mitten Ridge > Sedona > Sedona Area > Northern Arizona > Arizona",https://www.mountainproject.com/route/105825259/route-to-nowhere,1.7,-1,Sport,5.8,1,80,34.87486,-111.73699
Energizer,"Hawk Boulder > McDowell Mountains > **Phoenix Areas > Central Arizona > Arizona",https://www.mountainproject.com/route/114173466/energizer,1.6,-1,"Sport, TR",5.8,1,40,33.68499,-111.80839
"Zoomed Out","Lockdown Rock > 1 -  Lower Highway > Mount Lemmon (Catalina Highway) > Mount Lemmon (Santa Catalina Mountains) > Southern Arizona > Arizona",https://www.mountainproject.com/route/120202397/zoomed-out,1.5,-1,Sport,5.8,1,35,32.32009,-110.70564
"Mo So Low","Turret Rock and Environs > 3 - Windy Point East > Mount Lemmon (Catalina Highway) > Mount Lemmon (Santa Catalina Mountains) > Southern Arizona > Arizona",https://www.mountainproject.com/route/105738440/mo-so-low,1.6,-1,Sport,5.8,1,30,32.36654,-110.71648
"Curious George","The Headwall > Camelback Mountain > **Phoenix Areas > Central Arizona > Arizona",https://www.mountainproject.com/route/106194452/curious-george,1.3,-1,Sport,5.8,1,100,33.51992,-111.97037
"Two Is Not As Good As One","The Discard Pile. > Crags Against Humanity > 1 -  Lower Highway > Mount Lemmon (Catalina Highway) > Mount Lemmon (Santa Catalina Mountains) > Southern Arizona > Arizona",https://www.mountainproject.com/route/121983165/two-is-not-as-good-as-one,1.7,-1,Sport,5.8,1,50,32.32468,-110.70684
"Last Gasp","3-Palisade West > Palisade Park > 6 - Mid-Mountain > Mount Lemmon (Catalina Highway) > Mount Lemmon (Santa Catalina Mountains) > Southern Arizona > Arizona",https://www.mountainproject.com/route/122905959/last-gasp,1.0,-1,Sport,5.8,1,45,32.41186,-110.72108
"Breakfast at the Verde","Sven Tower 1 > Sven Towers > McDowell Mountains > **Phoenix Areas > Central Arizona > Arizona",https://www.mountainproject.com/route/117806798/breakfast-at-the-verde,1.5,-1,"Sport, TR",5.8,1,50,33.68665,-111.8089
"The Getaway","Peavine Slab West > Peavine Cove > Watson Lake > Granite Dells > **Prescott Area > Central Arizona > Arizona",https://www.mountainproject.com/route/116513727/the-getaway,1.5,-1,Sport,5.8,1,,34.59022,-112.41163
"Route 66","The Prow Area > Black Mountains - Golden Valley > Kingman Area > Northern Arizona > Arizona",https://www.mountainproject.com/route/114160228/route-66,1.5,-1,Sport,5.8,1,60,35.1608,-114.32884
"Piggys Conch Shell","Knob Hill - East > Knob Hill Area > McDowell Mountains > **Phoenix Areas > Central Arizona > Arizona",https://www.mountainproject.com/route/106641550/piggys-conch-shell,1.5,-1,"Trad, Sport",5.8,1,80,33.68664,-111.80887
"Over Easy","Pancake House > Upper Devils Canyon > Queen Creek Canyon > Central Arizona > Arizona",https://www.mountainproject.com/route/108451734/over-easy,1.3,-1,Sport,5.8,1,,33.30561,-111.07634
"Can Due","Cannery Rock > 3 - Windy Point East > Mount Lemmon (Catalina Highway) > Mount Lemmon (Santa Catalina Mountains) > Southern Arizona > Arizona",https://www.mountainproject.com/route/105738473/can-due,1.3,-1,"Sport, TR",5.8,1,40,32.36712,-110.71485
Unknown,"Turret Rock and Environs > 3 - Windy Point East > Mount Lemmon (Catalina Highway) > Mount Lemmon (Santa Catalina Mountains) > Southern Arizona > Arizona",https://www.mountainproject.com/route/106104551/unknown,1.3,-1,"Trad, Sport",5.8,1,,32.36654,-110.71648
"Iron Rod","The Doctor's Office > Cave Springs > Oak Creek Canyon > Northern Arizona > Arizona",https://www.mountainproject.com/route/106178339/iron-rod,1.0,-1,Sport,5.8,1,20,35.00043,-111.74156
"Doug Daze","Lost Hawk > 2 - Bear Canyon > Mount Lemmon (Catalina Highway) > Mount Lemmon (Santa Catalina Mountains) > Southern Arizona > Arizona",https://www.mountainproject.com/route/107818509/doug-daze,1.1,-1,Sport,5.8,1,40,32.3704,-110.70788
"Summit Cruzer","Continuum Crag > Spectrum Crags > 7 - Upper Highway > Mount Lemmon (Catalina Highway) > Mount Lemmon (Santa Catalina Mountains) > Southern Arizona > Arizona",https://www.mountainproject.com/route/110508582/summit-cruzer,1.0,-1,Sport,5.8,1,65,32.41767,-110.74981
"So Low","Turret Rock and Environs > 3 - Windy Point East > Mount Lemmon (Catalina Highway) > Mount Lemmon (Santa Catalina Mountains) > Southern Arizona > Arizona",https://www.mountainproject.com/route/105738596/so-low,1.0,-1,"Trad, Sport",5.8,1,60,32.36654,-110.71648
"Conchoidal Arete","Wood Canyon > Central Arizona > Arizona",https://www.mountainproject.com/route/107528469/conchoidal-arete,1.0,-1,"Trad, Sport",5.8,1,,33.2332,-111.1119
Unkown,"Papago Amphitheater Blob > Papago Park > **Phoenix Areas > Central Arizona > Arizona",https://www.mountainproject.com/route/107888600/unkown,1.0,-1,"Sport, TR",5.8,1,70,33.4645,-111.95207
Unknown,"Upper Looner Land > The Mine Area > Queen Creek Canyon > Central Arizona > Arizona",https://www.mountainproject.com/route/116085203/unknown,1.8,-1,Sport,5.8,1,30,33.29996,-111.07183
Otherwise,"Camel's Foot > Camelback Mountain > **Phoenix Areas > Central Arizona > Arizona",https://www.mountainproject.com/route/114253995/otherwise,1.0,-1,Sport,5.8,1,50,33.51687,-111.97367
"Road Trip","Upper Tier > Crossroads Wall (AKA Parking Lot Wall) > McDowell Mountains > **Phoenix Areas > Central Arizona > Arizona",https://www.mountainproject.com/route/117669343/road-trip,1.0,-1,Sport,5.8,1,40,33.6807,-111.80956
"Pocket Change","Gray Wall > Dromedary Peak > Central Arizona > Arizona",https://www.mountainproject.com/route/109925033/pocket-change,1.0,-1,Sport,5.8,1,60,33.25791,-111.24973
"Something For Nothing","Upper Looner Land > The Mine Area > Queen Creek Canyon > Central Arizona > Arizona",https://www.mountainproject.com/route/107130632/something-for-nothing,1.0,-1,Sport,5.8,1,,33.29996,-111.07183
"The Hot Slot","Your Mom's Basement > The Jenga Tower and Your Mom's Basement > 6 - Mid-Mountain > Mount Lemmon (Catalina Highway) > Mount Lemmon (Santa Catalina Mountains) > Southern Arizona > Arizona",https://www.mountainproject.com/route/108172687/the-hot-slot,1.0,-1,Sport,5.8,1,35,32.3805,-110.71212
"Iron Maiden","King Dome > Crown King Area > Central Arizona > Arizona",https://www.mountainproject.com/route/106043775/iron-maiden,1.0,-1,Sport,5.8,1,90,34.20596,-112.33892
"What Are You Doing, Step-Frater?","The Athenaeum (Main Wall) > The Agora > 1 -  Lower Highway > Mount Lemmon (Catalina Highway) > Mount Lemmon (Santa Catalina Mountains) > Southern Arizona > Arizona",https://www.mountainproject.com/route/123686309/what-are-you-doing-step-frater,2.0,-1,Sport,5.8,1,60,32.31216,-110.71045
"Sing To Me, Circe","The Athenaeum (Main Wall) > The Agora > 1 -  Lower Highway > Mount Lemmon (Catalina Highway) > Mount Lemmon (Santa Catalina Mountains) > Southern Arizona > Arizona",https://www.mountainproject.com/route/123686331/sing-to-me-circe,1.5,-1,Sport,5.8,1,85,32.31216,-110.71045
"Tossin' Caesar's Salad","The Athenaeum (Main Wall) > The Agora > 1 -  Lower Highway > Mount Lemmon (Catalina Highway) > Mount Lemmon (Santa Catalina Mountains) > Southern Arizona > Arizona",https://www.mountainproject.com/route/123686538/tossin-caesars-salad,1.9,-1,Sport,5.8,1,90,32.31216,-110.71045
"Ludus Gladiatrix","Ludus Magnus Wall > Colosseum > 1 -  Lower Highway > Mount Lemmon (Catalina Highway) > Mount Lemmon (Santa Catalina Mountains) > Southern Arizona > Arizona",https://www.mountainproject.com/route/123779601/ludus-gladiatrix,2.7,-1,Sport,5.8,1,55,32.32256,-110.71168
"Eckie, Eckie, Patang","The Back Walls > Lime Kiln Canyon > The Arizona Strip > Northern Arizona > Arizona",https://www.mountainproject.com/route/124130167/eckie-eckie-patang,1.3,-1,Sport,5.8,1,60,36.6569,-114.00667
"Sacrificial Shrubbery","The Back Walls > Lime Kiln Canyon > The Arizona Strip > Northern Arizona > Arizona",https://www.mountainproject.com/route/124130250/sacrificial-shrubbery,2.0,-1,Sport,5.8,1,60,36.6569,-114.00667
"Charity Ball","2-Lower Wall > Palisade Park > 6 - Mid-Mountain > Mount Lemmon (Catalina Highway) > Mount Lemmon (Santa Catalina Mountains) > Southern Arizona > Arizona",https://www.mountainproject.com/route/124340829/charity-ball,1.0,-1,Sport,5.8,1,40,32.41188,-110.71787
Deflower,"Eden > Christopher Creek Gorge > Central Arizona > Arizona",https://www.mountainproject.com/route/124659110/deflower,2.7,-1,Sport,5.8,1,,34.311,-111.06325
"Let 'Er Buck!","Turkey Flat > Pinaleno mtns. (Mt. Graham) > Southern Arizona > Arizona",https://www.mountainproject.com/route/124937067/let-er-buck,2.0,-1,Sport,5.8,1,35,32.63603,-109.82408
"Keep Yer Knife Sharp","Turkey Flat > Pinaleno mtns. (Mt. Graham) > Southern Arizona > Arizona",https://www.mountainproject.com/route/124937131/keep-yer-knife-sharp,1.0,-1,Sport,5.8,1,40,32.63603,-109.82408
"Hand line","Waterfall Area > Christopher Creek Gorge > Central Arizona > Arizona",https://www.mountainproject.com/route/125199864/hand-line,2.0,-1,"Sport, Aid","5.8 A0 X",1,35,34.30839,-111.0566
Victorio,"Hall of Legends, Mid-Leap > Apache Leap > Queen Creek Canyon > Central Arizona > Arizona",https://www.mountainproject.com/route/125492523/victorio,3.5,-1,Sport,5.8,3,300,33.28612,-111.07589
Cowpoke,"Glitter Box Area > Lower Devil's Canyon > Queen Creek Canyon > Central Arizona > Arizona",https://www.mountainproject.com/route/125573198/cowpoke,1.5,-1,Sport,5.8,1,50,33.27681,-111.02935
"One Ringy-Dingy","Call of the Sirens Wall > Sheepshead Area (Southwest) > West Stronghold > Cochise Stronghold > Southern Arizona > Arizona",https://www.mountainproject.com/route/125625058/one-ringy-dingy,2.0,-1,Sport,5.8,1,120,31.86422,-109.99785
"As the Bell Tolls","Call of the Sirens Wall > Sheepshead Area (Southwest) > West Stronghold > Cochise Stronghold > Southern Arizona > Arizona",https://www.mountainproject.com/route/125625391/as-the-bell-tolls,2.0,-1,Sport,5.8,1,110,31.86422,-109.99785
"General Consensus","Entrance Boulder > The Mine Area > Queen Creek Canyon > Central Arizona > Arizona",https://www.mountainproject.com/route/125644548/general-consensus,3.0,-1,Sport,5.8,1,,33.30073,-111.07318
"Atlas Gauntlet","Entrance Boulder > The Mine Area > Queen Creek Canyon > Central Arizona > Arizona",https://www.mountainproject.com/route/125644559/atlas-gauntlet,3.0,-1,Sport,5.8,1,,33.30073,-111.07318
"Naiche's Escape","Hall of Legends, Mid-Leap > Apache Leap > Queen Creek Canyon > Central Arizona > Arizona",https://www.mountainproject.com/route/125711688/naiches-escape,2.0,-1,Sport,5.8,2,200,33.28612,-111.07589
"Cherry Picker","Petra Wall > Limestone Gulch > Clifton/Morenci > Southern Arizona > Arizona",https://www.mountainproject.com/route/125725263/cherry-picker,2.0,-1,Sport,5.8,1,35,33.07458,-109.29561
