Route,Location,URL,"Avg Stars","Your Stars","Route Type",Rating,Pitches,Length,"Area Latitude","Area Longitude"
"Pow Wow","Haven Wall > Hailes Cave South > Thacher State Park > New York",https://www.mountainproject.com/route/114353073/pow-wow,2.3,-1,Sport,5.6,1,35,42.66067,-74.02034
"Shelving Rock Earth Penatrator","6. Desert Shield Area > Shelving Rock > F: Lake George Region > Adirondacks > New York",https://www.mountainproject.com/route/108192869/shelving-rock-earth-penatrator,2.2,-1,Sport,5.6,1,55,43.55759,-73.60326
WMD,"6. Desert Shield Area > Shelving Rock > F: Lake George Region > Adirondacks > New York",https://www.mountainproject.com/route/108192877/wmd,1.8,-1,Sport,5.6,1,55,43.55759,-73.60326
Hysteresis,"Mahican Section > Hailes Cave South > Thacher State Park > New York",https://www.mountainproject.com/route/119229527/hysteresis,2.0,-1,Sport,5.6,1,40,42.66278,-74.02052
"Bad Engineering","Leaning Tower > Hailes Cave South > Thacher State Park > New York",https://www.mountainproject.com/route/118225098/bad-engineering,2.2,-1,Sport,5.6,1,35,42.66105,-74.02029
"Wolfshack Corner","6. Desert Shield Area > Shelving Rock > F: Lake George Region > Adirondacks > New York",https://www.mountainproject.com/route/119731450/wolfshack-corner,2.0,-1,Sport,5.6,1,50,43.55759,-73.60326
"Simulium Venustum","Blackfly Slab > Inman Slabs > K: Northern Region > Adirondacks > New York",https://www.mountainproject.com/route/113451298/simulium-venustum,2.0,-1,Sport,"5.6 R",1,65,44.569,-74.0945
