Route,Location,URL,"Avg Stars","Your Stars","Route Type",Rating,Pitches,Length,"Area Latitude","Area Longitude"
"Idiot's Deluxe","The Parking Lot Wall > *Rumney > New Hampshire",https://www.mountainproject.com/route/106254851/idiots-deluxe,2.9,-1,Sport,5.10c/d,1,,43.80273,-71.83029
"Hammond Organ","Jimmy Cliff > *Rumney > New Hampshire",https://www.mountainproject.com/route/105917803/hammond-organ,2.7,-1,Sport,5.10c/d,1,,43.80417,-71.84037
Squall,"Upper Darth Vader > *Rumney > New Hampshire",https://www.mountainproject.com/route/105955582/squall,2.4,-1,Sport,5.10c/d,1,25,43.80417,-71.84094
Milktoast,"5.8 Crag > *Rumney > New Hampshire",https://www.mountainproject.com/route/106089724/milktoast,2.2,-1,Sport,5.10c/d,1,,43.80105,-71.83823
Catcall,"09. C Lot Crag > WM: Pinkham / Presidentials > New Hampshire",https://www.mountainproject.com/route/120849682/catcall,3.3,-1,Sport,5.10c/d,1,60,44.27203,-71.24098
"Worm Drive","The Prow Area > *Cathedral Ledge > New Hampshire",https://www.mountainproject.com/route/107647018/worm-drive,2.0,-1,Sport,5.10c/d,1,40,44.06298,-71.1656
"Mud Falcon","Falcon Wall > Hounds Hump Ridge (Eaglet etc) > WM: Franconia Notch > New Hampshire",https://www.mountainproject.com/route/117265843/mud-falcon,2.0,-1,Sport,5.10c/d,1,50,44.17133,-71.67658
"Wild for the Night","Call of the Wild Cliff > Sundown Ledge > WM: Kancamagus (Eastern) > New Hampshire",https://www.mountainproject.com/route/108408200/wild-for-the-night,1.0,-1,Sport,5.10c/d,1,40,44.00839,-71.23031
