Route,Location,URL,"Avg Stars","Your Stars","Route Type",Rating,Pitches,Length,"Area Latitude","Area Longitude"
"Hard Times","The Northwest Territories > *Rumney > New Hampshire",https://www.mountainproject.com/route/106694077/hard-times,2.2,-1,Sport,5.11c/d,1,60,43.80478,-71.84537
"Jet Set","The Main Wall > Greens Cliff > WM: Kancamagus (Central) > New Hampshire",https://www.mountainproject.com/route/113766214/jet-set,3.4,-1,Sport,5.11c/d,1,85,44.0358,-71.3996
Shriek,"The Nest > Bird Murder > Merriam Woods aka Russell Crags > WM: Lincoln/Woodstock Area > New Hampshire",https://www.mountainproject.com/route/121567842/shriek,3.4,-1,Sport,5.11c/d,1,85,43.9927,-71.65781
"Tremendous Slouch","Waterfall Area > Bird Murder > Merriam Woods aka Russell Crags > WM: Lincoln/Woodstock Area > New Hampshire",https://www.mountainproject.com/route/123113392/tremendous-slouch,2.8,-1,Sport,5.11c/d,1,60,43.99281,-71.65803
Telekinesis,"Jeremy's Wall - Main Cliff upper right > Main Cliff Area > Merriam Woods aka Russell Crags > WM: Lincoln/Woodstock Area > New Hampshire",https://www.mountainproject.com/route/121804214/telekinesis,2.7,-1,Sport,5.11c/d,1,70,43.99321,-71.65832
"Virtual Insanity","The Asylum > *Rumney > New Hampshire",https://www.mountainproject.com/route/118087626/virtual-insanity,1.8,-1,Sport,5.11c/d,1,100,43.80527,-71.84431
"Jonny Rotten","El Wall > Jackson Crag > WM: Bartlett / Jackson Area > New Hampshire",https://www.mountainproject.com/route/112090164/jonny-rotten,2.0,-1,Sport,5.11c/d,1,85,44.15931,-71.1976
"Trash Juice","Love Bowl > 01. Boganville > 11a Gorham Area / Gorham Slab > WM: Pinkham / Presidentials > New Hampshire",https://www.mountainproject.com/route/123483388/trash-juice,2.0,-1,Sport,5.11c/d,1,60,44.43396,-71.16725
