Route,Location,URL,"Avg Stars","Your Stars","Route Type",Rating,Pitches,Length,"Area Latitude","Area Longitude"
"[E] Pornstar","World Wall > World Wall Group > Exit 32; Little Si > North Bend & Vicinity > Central-West Cascades & Seattle > Washington",https://www.mountainproject.com/route/106209318/e-pornstar,4.0,-1,Sport,5.13d,1,110,47.49795,-121.7549
"[L] Event Horizon","World Wall > World Wall Group > Exit 32; Little Si > North Bend & Vicinity > Central-West Cascades & Seattle > Washington",https://www.mountainproject.com/route/114587605/l-event-horizon,4.0,-1,Sport,5.13d,1,114,47.49795,-121.7549
"Tyler Derdan","Sector Europa > Metaline Falls > Northeast Corner & Spokane > Washington",https://www.mountainproject.com/route/122505805/tyler-derdan,4.0,-1,Sport,5.13d,1,50,48.86735,-117.37222
"Honorable Discharge","World Wall II > World Wall 2 Group > Exit 32; Little Si > North Bend & Vicinity > Central-West Cascades & Seattle > Washington",https://www.mountainproject.com/route/117120375/honorable-discharge,4.0,-1,Sport,5.13d,1,65,47.48821,-121.74628
"Black Plague","World Wall II > World Wall 2 Group > Exit 32; Little Si > North Bend & Vicinity > Central-West Cascades & Seattle > Washington",https://www.mountainproject.com/route/108622177/black-plague,3.3,-1,Sport,5.13d,1,90,47.48821,-121.74628
Sinistral,"Little Bridge Creek Rock > Bridge Creek Area > Icicle Creek > Leavenworth > Central-East Cascades, Wenatchee, & Leavenworth > Washington",https://www.mountainproject.com/route/123063386/sinistral,3.0,-1,Sport,5.13d,1,25,47.56738,-120.78287
Unknown,"Deception Wall > Deception Crags > Exit 38 > North Bend & Vicinity > Central-West Cascades & Seattle > Washington",https://www.mountainproject.com/route/121175809/unknown,2.0,-1,Sport,5.13d,1,35,47.43537,-121.66052
"Peckerman Direct","Main Wall > Minnehaha > Spokane Area > Northeast Corner & Spokane > Washington",https://www.mountainproject.com/route/106796076/peckerman-direct,3.0,-1,Sport,5.13d,1,40,47.68751,-117.32723
