Route,Location,URL,"Avg Stars","Your Stars","Route Type",Rating,Pitches,Length,"Area Latitude","Area Longitude"
"Hour of Power","Romper Room > Mount Scott > Wichita Mountains Wildlife Refuge > Oklahoma",https://www.mountainproject.com/route/107645655/hour-of-power,3.3,-1,"Trad, Sport",5.10,1,,34.74618,-98.5319
"Crash Landing","Robot Rocket > Mt. Lincoln > Charon's Gardens > Wichita Mountains Wildlife Refuge > Oklahoma",https://www.mountainproject.com/route/112027681/crash-landing,3.3,-1,"Sport, TR",5.10,1,40,34.71269,-98.72112
"Too Steep For Sheep","Pear and Apple > Charon's Gardens > Wichita Mountains Wildlife Refuge > Oklahoma",https://www.mountainproject.com/route/106335804/too-steep-for-sheep,2.0,-1,Sport,"5.10 PG13",1,40,34.7209,-98.7301
"Milk & Honey","Little Germany > Avery Drive > Tulsa Area > Oklahoma",https://www.mountainproject.com/route/119443264/milk-honey,2.5,-1,Sport,5.10,1,35,36.1243,-96.09438
Gangrene,"East Chandler > Chandler Park > Tulsa Area > Oklahoma",https://www.mountainproject.com/route/116511008/gangrene,3.0,-1,"Sport, TR","5.10 PG13",1,20,36.13213,-96.07358
"Kangaroo Court","Indian Head > Avery Drive > Tulsa Area > Oklahoma",https://www.mountainproject.com/route/125677815/kangaroo-court,2.0,-1,Sport,5.10,1,20,36.1228,-96.10021
