Route,Location,URL,"Avg Stars","Your Stars","Route Type",Rating,Pitches,Length,"Area Latitude","Area Longitude"
"Little Tokyo","Buffet Wall > Denny East > Denny Cove > Tennessee",https://www.mountainproject.com/route/115364009/little-tokyo,3.8,-1,Sport,5.13d,1,70,35.15364,-85.67698
"The Oracle","Crystal Buttress > Prentice Cooper > Tennessee",https://www.mountainproject.com/route/120329260/the-oracle,4.0,-1,Sport,5.13d,1,70,35.09341,-85.47511
Injective,"Laurel Falls > Tennessee",https://www.mountainproject.com/route/120542205/injective,4.0,-1,Sport,5.13d,1,50,35.55392,-84.99114
"Lucid Dream","The Shaman Cave > Denny East > Denny Cove > Tennessee",https://www.mountainproject.com/route/118144828/lucid-dream,3.8,-1,Sport,5.13d,1,75,35.15413,-85.68041
"Kids Eat Free","Buffet Wall > Denny East > Denny Cove > Tennessee",https://www.mountainproject.com/route/113823688/kids-eat-free,3.7,-1,Sport,5.13d,1,100,35.15364,-85.67698
"Apes on Acid","Apes on Acid Wall > Castle Rock > Tennessee",https://www.mountainproject.com/route/117969104/apes-on-acid,3.6,-1,Sport,5.13d,1,70,35.10509,-85.63014
"Anchor Arms","Tieranny Roofs > Obed & Clear Creek > Tennessee",https://www.mountainproject.com/route/120755064/anchor-arms,3.5,-1,Sport,5.13d,1,100,36.09055,-84.70502
"The Big, Empty Eclipse of the Bum Beast","The Left Bunker > Foster Falls > Tennessee",https://www.mountainproject.com/route/113487235/the-big-empty-eclipse-of-the-bum-beast,3.0,-1,Sport,5.13d,1,55,35.17853,-85.68079
