Route,Location,URL,"Avg Stars","Your Stars","Route Type",Rating,Pitches,Length,"Area Latitude","Area Longitude"
"Wehrmacht Stable","Adidas Wall > Grandad Bluff > Central > Wisconsin",https://www.mountainproject.com/route/106653493/wehrmacht-stable,2.8,-1,Sport,5.10b,1,45,43.81095,-91.20564
"Riverboat Hustler","10. Above Anthrax > Necedah (Petenwell Rock) > Central > Wisconsin",https://www.mountainproject.com/route/121468748/riverboat-hustler,3.3,-1,Sport,5.10b,1,50,44.046,-90.02047
"Rusted Ring Right","Rusty Ring Wall > The Fishin' Crag (Castle Rock South) > South > Wisconsin",https://www.mountainproject.com/route/106003387/rusted-ring-right,2.5,-1,Sport,5.10b,1,50,43.04466,-90.51996
Freehander,"Adidas Wall > Grandad Bluff > Central > Wisconsin",https://www.mountainproject.com/route/105983667/freehander,2.6,-1,Sport,5.10b,1,45,43.81095,-91.20564
"Sidepull Swingers","Hillbilly Routes > Hillbilly Hollow > Central > Wisconsin",https://www.mountainproject.com/route/121036353/sidepull-swingers,2.2,-1,Sport,5.10b,1,35,43.9763,-89.5005
"V Randall","Mushroom Wall > Grandad Bluff > Central > Wisconsin",https://www.mountainproject.com/route/106075380/v-randall,1.7,-1,Sport,5.10b,1,40,43.81217,-91.20764
