Route,Location,URL,"Avg Stars","Your Stars","Route Type",Rating,Pitches,Length,"Area Latitude","Area Longitude"
"Get It On","Main Cliff Right > *Rumney > New Hampshire",https://www.mountainproject.com/route/106079947/get-it-on,3.3,-1,Sport,5.12c/d,1,,43.8027,-71.83554
"Wild Blue Yonder","Triple Corners Center > Triple Corners > *Rumney > New Hampshire",https://www.mountainproject.com/route/106975531/wild-blue-yonder,3.4,-1,Sport,5.12c/d,1,50,43.80401,-71.84229
"The Dirty Handshake","The 5.10 Wall > The Right Cliff > Owl's Cliff > WM: Kancamagus (Central) > New Hampshire",https://www.mountainproject.com/route/107802595/the-dirty-handshake,3.5,-1,Sport,5.12c/d,1,100,44.043,-71.3591
"Mercury on a Halfshell","Venus Wall > *Rumney > New Hampshire",https://www.mountainproject.com/route/112314334/mercury-on-a-halfshell,3.0,-1,Sport,5.12c/d,1,,43.80188,-71.8375
"Traverse Route Left Finish","Rines Hill > New Durham Area  (Longstack, Devil's Den, Rines Hill, etc.) > Lakes Region > New Hampshire",https://www.mountainproject.com/route/106713065/traverse-route-left-finish,3.0,-1,Sport,5.12c/d,1,40,43.5372,-71.17992
"Barrington Hot Pocket","Stonehouse Pond > Southeast / Seacoast > New Hampshire",https://www.mountainproject.com/route/107753911/barrington-hot-pocket,2.3,-1,Sport,5.12c/d,1,50,43.1998,-71.0964
"Dying While Dancing","The Northwest Territories > *Rumney > New Hampshire",https://www.mountainproject.com/route/124389120/dying-while-dancing,2.0,-1,Sport,5.12c/d,1,60,43.80478,-71.84537
