Route,Location,URL,"Avg Stars","Your Stars","Route Type",Rating,Pitches,Length,"Area Latitude","Area Longitude"
"Swiss Cheese","Hillbilly Routes > Hillbilly Hollow > Central > Wisconsin",https://www.mountainproject.com/route/105863293/swiss-cheese,2.8,-1,"Sport, TR",5.8,1,40,43.9763,-89.5005
Cockblocker,"Mushroom Wall > Grandad Bluff > Central > Wisconsin",https://www.mountainproject.com/route/105794718/cockblocker,2.8,-1,Sport,5.8,1,,43.81217,-91.20764
Tramadol,"2. Qual Wall > Group Camps > Governor Dodge State Park > South > Wisconsin",https://www.mountainproject.com/route/107164516/tramadol,2.6,-1,Sport,5.8,1,75,43.03993,-90.10516
"Polish Route","Mushroom Wall > Grandad Bluff > Central > Wisconsin",https://www.mountainproject.com/route/105983696/polish-route,1.6,-1,"Trad, Sport",5.8,1,50,43.81217,-91.20764
"Riverboat Amateur","10. Above Anthrax > Necedah (Petenwell Rock) > Central > Wisconsin",https://www.mountainproject.com/route/121484258/riverboat-amateur,2.5,-1,"Sport, TR",5.8,1,45,44.046,-90.02047
"Sandy Cheeks","South Faces > The Fishin' Crag (Castle Rock South) > South > Wisconsin",https://www.mountainproject.com/route/121339259/sandy-cheeks,2.7,-1,Sport,5.8,1,65,43.0441,-90.51971
Randyland,"The Point > Grandad Bluff > Central > Wisconsin",https://www.mountainproject.com/route/106074239/randyland,2.0,-1,Sport,5.8,1,40,43.812,-91.21118
