Route,Location,URL,"Avg Stars","Your Stars","Route Type",Rating,Pitches,Length,"Area Latitude","Area Longitude"
"Mr Choad's Wild Ride","Sunny and Steep > Kraft Mountain Area > (01) Calico Basin > Red Rocks > Southern Nevada > Nevada",https://www.mountainproject.com/route/106375205/mr-choads-wild-ride,3.6,-1,Sport,5.11b,1,105,36.16986,-115.42321
Lunatic,"The Fringe > Ash Canyon > (01) Calico Basin > Red Rocks > Southern Nevada > Nevada",https://www.mountainproject.com/route/107612092/lunatic,3.7,-1,Sport,5.11b,1,95,36.16162,-115.43509
"Caustic Cock","Cannibal Crag > (01) Calico Basin > Red Rocks > Southern Nevada > Nevada",https://www.mountainproject.com/route/105820098/caustic-cock,3.4,-1,Sport,5.11b,1,40,36.14903,-115.42296
"Mary Jane","Mary Jane Cliff > Kyle Canyon > Mount Charleston > Southern Nevada > Nevada",https://www.mountainproject.com/route/105859077/mary-jane,3.5,-1,Sport,5.11b,1,50,36.26933,-115.66735
"The Grind","Sweet Pain Wall > (04) Second Pullout (Calico II) > Red Rocks > Southern Nevada > Nevada",https://www.mountainproject.com/route/105939418/the-grind,3.4,-1,Sport,5.11b,1,65,36.15597,-115.43663
"When the Cat's Away","Holiday Wall > Calico Tanks Area > (05) Sandstone Quarry > Red Rocks > Southern Nevada > Nevada",https://www.mountainproject.com/route/105913032/when-the-cats-away,3.4,-1,Sport,5.11b,1,40,36.16286,-115.44137
"Marshall Amp","Stratocaster Area > (04) Second Pullout (Calico II) > Red Rocks > Southern Nevada > Nevada",https://www.mountainproject.com/route/105813493/marshall-amp,3.4,-1,Sport,5.11b,1,105,36.15852,-115.4401
Paralyzed,"Alternative Crag > (01) Calico Basin > Red Rocks > Southern Nevada > Nevada",https://www.mountainproject.com/route/106421508/paralyzed,3.4,-1,Sport,5.11b,1,50,36.15633,-115.43093
"Bat Boy","Sonar Wall > North Echo Cliff > Echo Cliffs > Kyle Canyon > Mount Charleston > Southern Nevada > Nevada",https://www.mountainproject.com/route/113626932/bat-boy,3.3,-1,Sport,5.11b,1,65,36.25166,-115.64725
Footloose,"Stratocaster Area > (04) Second Pullout (Calico II) > Red Rocks > Southern Nevada > Nevada",https://www.mountainproject.com/route/106649113/footloose,3.1,-1,Sport,5.11b,1,60,36.15852,-115.4401
"Shut Up and Climb","The Wake-Up Wall > Wake Up Wall Area > (05) Sandstone Quarry > Red Rocks > Southern Nevada > Nevada",https://www.mountainproject.com/route/105885132/shut-up-and-climb,3.0,-1,Sport,5.11b,1,60,36.16724,-115.45361
"The Great Train Robbery","The Robbery Wall > Robber's Roost > Route 158 > Mount Charleston > Southern Nevada > Nevada",https://www.mountainproject.com/route/106911231/the-great-train-robbery,2.9,-1,Sport,5.11b,1,,36.30159,-115.6127
Psychobilly,"Lower Level - Right > Lower Level > The Black Corridor > (04) Second Pullout (Calico II) > Red Rocks > Southern Nevada > Nevada",https://www.mountainproject.com/route/105826090/psychobilly,2.9,-1,Sport,5.11b,1,60,36.15539,-115.4361
"Turtle Wax","Sunny and Steep > Kraft Mountain Area > (01) Calico Basin > Red Rocks > Southern Nevada > Nevada",https://www.mountainproject.com/route/105949674/turtle-wax,2.9,-1,Sport,5.11b,1,50,36.16986,-115.42321
"Sour Pain","Sweet Pain Wall > (04) Second Pullout (Calico II) > Red Rocks > Southern Nevada > Nevada",https://www.mountainproject.com/route/107983200/sour-pain,2.9,-1,Sport,5.11b,1,45,36.15597,-115.43663
"Good Morning","The Wake-Up Wall > Wake Up Wall Area > (05) Sandstone Quarry > Red Rocks > Southern Nevada > Nevada",https://www.mountainproject.com/route/105910353/good-morning,2.7,-1,Sport,5.11b,1,60,36.16724,-115.45361
"Pockets of Dirt","Left Wall > Front Corridor > Parking Lot Area > (05) Sandstone Quarry > Red Rocks > Southern Nevada > Nevada",https://www.mountainproject.com/route/106125706/pockets-of-dirt,2.7,-1,Sport,5.11b,1,50,36.1627,-115.44939
"Have a Beer with Fear","Cannibal Crag > (01) Calico Basin > Red Rocks > Southern Nevada > Nevada",https://www.mountainproject.com/route/105944620/have-a-beer-with-fear,2.7,-1,Sport,5.11b,1,60,36.14903,-115.42296
"Cactus Killa","Cactus Massacre > (03) First Pullout (Calico I) > Red Rocks > Southern Nevada > Nevada",https://www.mountainproject.com/route/116697532/cactus-killa,3.2,-1,Sport,5.11b,1,60,36.14687,-115.42762
"Dog Logic (aka Here Kitty, Kitty)","Dog Wall > (03) First Pullout (Calico I) > Red Rocks > Southern Nevada > Nevada",https://www.mountainproject.com/route/105880567/dog-logic-aka-here-kitty-kitty,2.5,-1,Sport,5.11b,1,50,36.14745,-115.42927
"Today, We are Thursday!","White Pine > Kyle Canyon > Mount Charleston > Southern Nevada > Nevada",https://www.mountainproject.com/route/114198430/today-we-are-thursday,3.2,-1,Sport,5.11b,1,60,36.26892,-115.66803
"Elbows of Mac and Ronnie","Cannibal Crag > (01) Calico Basin > Red Rocks > Southern Nevada > Nevada",https://www.mountainproject.com/route/105944680/elbows-of-mac-and-ronnie,2.1,-1,Sport,5.11b,1,60,36.14903,-115.42296
"Jungle Wall","Jungle Wall > (11) Juniper Canyon > Red Rocks > Southern Nevada > Nevada",https://www.mountainproject.com/route/106052597/jungle-wall,3.8,-1,Sport,5.11b,1,160,36.11776,-115.48996
"Unknown 2","Yellow Pine > Kyle Canyon > Mount Charleston > Southern Nevada > Nevada",https://www.mountainproject.com/route/106504529/unknown-2,3.0,-1,Sport,5.11b,1,40,36.27202,-115.67183
Adoption,"Lower Level - Right > Lower Level > The Black Corridor > (04) Second Pullout (Calico II) > Red Rocks > Southern Nevada > Nevada",https://www.mountainproject.com/route/106934998/adoption,2.6,-1,Sport,5.11b,1,80,36.15539,-115.4361
"Whamo (1st anchor)","Clear Light Cave > East Side > Mount Potosi > Southern Nevada > Nevada",https://www.mountainproject.com/route/108441936/whamo-1st-anchor,3.0,-1,Sport,5.11b,1,45,35.97018,-115.47445
"Passan Temba","Swamp Cave > Arrow Canyon > Southern Nevada > Nevada",https://www.mountainproject.com/route/108669207/passan-temba,3.0,-1,Sport,5.11b,1,70,36.74132,-114.79758
"Total Recall","Main Wall > River Rock > Reno Area > Western Nevada > Nevada",https://www.mountainproject.com/route/106316336/total-recall,2.8,-1,Sport,5.11b,1,45,39.4556,-120.0064
"Meister's Edge","Meister's Edge > (04) Second Pullout (Calico II) > Red Rocks > Southern Nevada > Nevada",https://www.mountainproject.com/route/105820517/meisters-edge,3.4,-1,Sport,"5.11b PG13",1,45,36.15451,-115.4373
"Turn Off Your Cool","White Pine > Kyle Canyon > Mount Charleston > Southern Nevada > Nevada",https://www.mountainproject.com/route/114198727/turn-off-your-cool,2.6,-1,Sport,5.11b,1,,36.26892,-115.66803
"Point Blank","Right (North) Wall > The Gun Club > La Madre Range > Southern Nevada > Nevada",https://www.mountainproject.com/route/107361726/point-blank,2.6,-1,Sport,5.11b,1,40,36.22975,-115.3364
"Pale Ale","Newcastle Crag > (03) First Pullout (Calico I) > Red Rocks > Southern Nevada > Nevada",https://www.mountainproject.com/route/105926121/pale-ale,3.1,-1,Sport,5.11b,1,40,36.15122,-115.43254
Climhazzard,"The Chasm > (03) First Pullout (Calico I) > Red Rocks > Southern Nevada > Nevada",https://www.mountainproject.com/route/109868570/climhazzard,3.0,-1,Sport,5.11b,1,50,36.14524,-115.42518
"Red Ships of Spain","Upper Tier > Little Springs Crag > Little Springs Canyon > (01) Calico Basin > Red Rocks > Southern Nevada > Nevada",https://www.mountainproject.com/route/107048897/red-ships-of-spain,2.7,-1,Sport,5.11b,1,60,36.15361,-115.4266
"Flash for Cash","2. The Arêtes (a.k.a. the Road Area) > Rainbow Canyon > Southern Nevada > Nevada",https://www.mountainproject.com/route/107674202/flash-for-cash,3.9,-1,Sport,5.11b,1,,37.3741,-114.55067
"Movin’ to Minnesota","Story Crag Main Wall > Old Spanish Trail Crags (Story Crags) > West Side > Mount Potosi > Southern Nevada > Nevada",https://www.mountainproject.com/route/120270769/movin-to-minnesota,3.5,-1,Sport,5.11b,1,75,35.97231,-115.52518
"Air Farce One","2. The Arêtes (a.k.a. the Road Area) > Rainbow Canyon > Southern Nevada > Nevada",https://www.mountainproject.com/route/107341134/air-farce-one,3.8,-1,Sport,5.11b,1,80,37.3741,-114.55067
"The Holy Flail","Central Gully > Castle Rock > Lake Tahoe Area > Western Nevada > Nevada",https://www.mountainproject.com/route/112158449/the-holy-flail,3.6,-1,Sport,"5.11b R",1,30,38.98955,-119.90811
"Crouching Tiger","Blue Diamond Cave > Blue Diamond Area > Southern Nevada > Nevada",https://www.mountainproject.com/route/120557326/crouching-tiger,2.7,-1,Sport,5.11b,1,55,36.03775,-115.39201
"Leisure Suit","Main Rock > Trippy Rock > Lake Tahoe Area > Western Nevada > Nevada",https://www.mountainproject.com/route/107852164/leisure-suit,2.7,-1,Sport,5.11b,1,45,39.27101,-119.93586
"Hand Drilled Heaven","Burns Wall > Kraft Mountain Area > (01) Calico Basin > Red Rocks > Southern Nevada > Nevada",https://www.mountainproject.com/route/106742481/hand-drilled-heaven,2.0,-1,Sport,5.11b,1,35,36.167,-115.416
"Pour Some Beta On Me","Classic Rock Wall > (03) First Pullout (Calico I) > Red Rocks > Southern Nevada > Nevada",https://www.mountainproject.com/route/122009513/pour-some-beta-on-me,2.9,-1,Sport,5.11b,1,85,36.14572,-115.42813
"Elephant Graveyard","5) Sun Kissed Sector > Wall of Misfortune > Mormon Mountains > Southern Nevada > Nevada",https://www.mountainproject.com/route/116369285/elephant-graveyard,3.3,-1,Sport,5.11b,1,60,36.9035,-114.28448
"Hoot And Holler","4. North Wall > Owl Rock > Reno Area > Western Nevada > Nevada",https://www.mountainproject.com/route/120175486/hoot-and-holler,3.2,-1,Sport,5.11b,1,50,39.36962,-119.69508
"Sandstone Enema","Upper Level - Right > Upper Level > The Black Corridor > (04) Second Pullout (Calico II) > Red Rocks > Southern Nevada > Nevada",https://www.mountainproject.com/route/105918917/sandstone-enema,2.1,-1,Sport,5.11b,1,50,36.15582,-115.43621
"80 Feet of Heat","EnTRAPment Wall > Upper Cliffs > Sleepy Hollow > West Side > Mount Potosi > Southern Nevada > Nevada",https://www.mountainproject.com/route/112559643/80-feet-of-heat,3.4,-1,Sport,5.11b,1,80,35.93317,-115.51554
"Spit Roasted","Spit Roasted Wall > Upper Cliffs > Sleepy Hollow > West Side > Mount Potosi > Southern Nevada > Nevada",https://www.mountainproject.com/route/112559990/spit-roasted,3.6,-1,Sport,5.11b,1,60,35.93486,-115.51884
"Colt's Neck","Story Crag Main Wall > Old Spanish Trail Crags (Story Crags) > West Side > Mount Potosi > Southern Nevada > Nevada",https://www.mountainproject.com/route/120270840/colts-neck,3.1,-1,Sport,5.11b,1,65,35.97231,-115.52518
"Drive By Hooting","1. East Wall > Owl Rock > Reno Area > Western Nevada > Nevada",https://www.mountainproject.com/route/120269705/drive-by-hooting,2.9,-1,Sport,5.11b,1,50,39.36947,-119.69488
Whackamole,"Blue Diamond Cave > Blue Diamond Area > Southern Nevada > Nevada",https://www.mountainproject.com/route/120451089/whackamole,2.3,-1,Sport,5.11b,1,55,36.03775,-115.39201
"Sand Buckets","The Sandbox > (04) Second Pullout (Calico II) > Red Rocks > Southern Nevada > Nevada",https://www.mountainproject.com/route/107594197/sand-buckets,2.8,-1,Sport,5.11b,1,50,36.15401,-115.43448
"Flakin' Out","Concave Wall > Arrow Canyon > Southern Nevada > Nevada",https://www.mountainproject.com/route/111301796/flakin-out,2.6,-1,Sport,5.11b,1,30,36.7368,-114.79148
"Baby Swiss","Lower Tier > Moderate Mecca > (01) Calico Basin > Red Rocks > Southern Nevada > Nevada",https://www.mountainproject.com/route/107049473/baby-swiss,2.6,-1,Sport,5.11b,1,55,36.14202,-115.42093
"Prime Ticket","Universal City > (03) First Pullout (Calico I) > Red Rocks > Southern Nevada > Nevada",https://www.mountainproject.com/route/107527302/prime-ticket,2.9,-1,Sport,5.11b,1,50,36.14724,-115.42684
"Gun Control","Right Wall > Front Corridor > Parking Lot Area > (05) Sandstone Quarry > Red Rocks > Southern Nevada > Nevada",https://www.mountainproject.com/route/112369349/gun-control,2.5,-1,Sport,5.11b,1,80,36.16265,-115.44929
Bergelene,"Brevity Wall > Mormon Mountains > Southern Nevada > Nevada",https://www.mountainproject.com/route/119611009/bergelene,3.0,-1,Sport,5.11b,1,50,36.90893,-114.30536
"B'Owl Obstruction","2. B'Owl Obstruction Wall > Owl Rock > Reno Area > Western Nevada > Nevada",https://www.mountainproject.com/route/120805141/bowl-obstruction,2.6,-1,Sport,5.11b,1,,39.36964,-119.6949
"Stay Foolish","Yellow Pine > Kyle Canyon > Mount Charleston > Southern Nevada > Nevada",https://www.mountainproject.com/route/107721381/stay-foolish,2.3,-1,Sport,5.11b,1,45,36.27202,-115.67183
Sharkstooth,"Left (South) Wall > The Gun Club > La Madre Range > Southern Nevada > Nevada",https://www.mountainproject.com/route/120543724/sharkstooth,2.7,-1,Sport,5.11b,1,60,36.22963,-115.33614
"Born Again Pagan","The Fringe > Ash Canyon > (01) Calico Basin > Red Rocks > Southern Nevada > Nevada",https://www.mountainproject.com/route/122205479/born-again-pagan,3.0,-1,Sport,5.11b,1,170,36.16162,-115.43509
"Death Proof","The Grindhouse > Wake Up Wall Area > (05) Sandstone Quarry > Red Rocks > Southern Nevada > Nevada",https://www.mountainproject.com/route/106505968/death-proof,2.9,-1,Sport,5.11b,1,60,36.16529,-115.45276
Nightshade,"3. The  Pyramid (a.k.a. Midway Area) > Rainbow Canyon > Southern Nevada > Nevada",https://www.mountainproject.com/route/107674282/nightshade,3.0,-1,Sport,5.11b,1,,37.37421,-114.55067
"The Dog's Bollocks","Stiff and Splits Dome > Lone Mountain > Western Nevada > Nevada",https://www.mountainproject.com/route/110246012/the-dogs-bollocks,3.0,-1,Sport,5.11b,1,50,37.99545,-117.5235
"Incoming Scud","Contra Canyon Lower Wall > Contra Canyon > Pig Rock Area > Pyramid Lake Area > Western Nevada > Nevada",https://www.mountainproject.com/route/106309008/incoming-scud,2.8,-1,"Sport, TR",5.11b,1,35,39.88948,-119.6538
"Mrs. Purchase","Story Crag Main Wall > Old Spanish Trail Crags (Story Crags) > West Side > Mount Potosi > Southern Nevada > Nevada",https://www.mountainproject.com/route/120270940/mrs-purchase,2.8,-1,Sport,5.11b,1,70,35.97231,-115.52518
"Repo Man","The Playground (AKA The Mall) > Kraft Mountain Area > (01) Calico Basin > Red Rocks > Southern Nevada > Nevada",https://www.mountainproject.com/route/105915698/repo-man,2.6,-1,Sport,5.11b,1,40,36.16133,-115.41245
"Turn Blue (CLOSED TO CLIMBING)","Entry Walls > Arrow Canyon > Southern Nevada > Nevada",https://www.mountainproject.com/route/111713618/turn-blue-closed-to-climbing,2.5,-1,Sport,5.11b,1,60,36.72776,-114.76862
"Tres Hombres","Black Wall (aka Happy Acres) > Guardian Angel Pass > (01) Calico Basin > Red Rocks > Southern Nevada > Nevada",https://www.mountainproject.com/route/106367795/tres-hombres,2.1,-1,"Trad, Sport",5.11b,3,300,36.15232,-115.43057
"Been Caught Stealin'","Janes Wall > (04) Second Pullout (Calico II) > Red Rocks > Southern Nevada > Nevada",https://www.mountainproject.com/route/108653482/been-caught-stealin,2.2,-1,Sport,5.11b,1,60,36.15234,-115.4323
"Blood and Swash","Pirate's Cove > Kyle Canyon > Mount Charleston > Southern Nevada > Nevada",https://www.mountainproject.com/route/106543934/blood-and-swash,2.4,-1,Sport,5.11b,1,30,36.26632,-115.61558
"Flake Eyes","The Twinkie > The Trophy Area > (05) Sandstone Quarry > Red Rocks > Southern Nevada > Nevada",https://www.mountainproject.com/route/120037950/flake-eyes,2.6,-1,Sport,5.11b,1,40,36.16936,-115.45331
"Strawberry Hedgehog","Cactus Joes > North Side > Mount Potosi > Southern Nevada > Nevada",https://www.mountainproject.com/route/120301965/strawberry-hedgehog,2.6,-1,Sport,5.11b,1,65,36.00409,-115.48324
"Holy Rail","Stiff and Splits Dome > Lone Mountain > Western Nevada > Nevada",https://www.mountainproject.com/route/110245864/holy-rail,2.7,-1,"Sport, TR",5.11b,1,60,37.99545,-117.5235
"The Harder They Fall","Den of Thieves Area > Robber's Roost > Route 158 > Mount Charleston > Southern Nevada > Nevada",https://www.mountainproject.com/route/113235328/the-harder-they-fall,2.3,-1,Sport,5.11b,1,70,36.30133,-115.61214
"Hear No Evil","6. The Souls Slab > The Hood > Kyle Canyon > Mount Charleston > Southern Nevada > Nevada",https://www.mountainproject.com/route/108930345/hear-no-evil,2.4,-1,Sport,5.11b,1,50,36.27448,-115.65728
"The Bobby","Velvet Elvis > (03) First Pullout (Calico I) > Red Rocks > Southern Nevada > Nevada",https://www.mountainproject.com/route/111443438/the-bobby,2.5,-1,Sport,5.11b,1,40,36.1466,-115.42677
"Walk the Line","Hall of Fame > Calico Tanks Area > (05) Sandstone Quarry > Red Rocks > Southern Nevada > Nevada",https://www.mountainproject.com/route/106063707/walk-the-line,2.5,-1,Sport,5.11b,1,45,36.16528,-115.44285
"Crimper Overdose","Main Rock > Trippy Rock > Lake Tahoe Area > Western Nevada > Nevada",https://www.mountainproject.com/route/118595208/crimper-overdose,2.4,-1,"Sport, TR",5.11b,1,45,39.27101,-119.93586
"Bad Reputation","Hall of Fame > Calico Tanks Area > (05) Sandstone Quarry > Red Rocks > Southern Nevada > Nevada",https://www.mountainproject.com/route/106063699/bad-reputation,2.4,-1,Sport,5.11b,1,45,36.16528,-115.44285
PMS,"Clear Light Cave > East Side > Mount Potosi > Southern Nevada > Nevada",https://www.mountainproject.com/route/112295297/pms,2.4,-1,Sport,5.11b,1,,35.97018,-115.47445
"Pieces of Eight","Pirate's Cove > Kyle Canyon > Mount Charleston > Southern Nevada > Nevada",https://www.mountainproject.com/route/106543940/pieces-of-eight,2.3,-1,Sport,5.11b,1,30,36.26632,-115.61558
"Burnt to a Crisp","Upper Sunhouse > The Sunhouse > Route 158 > Mount Charleston > Southern Nevada > Nevada",https://www.mountainproject.com/route/122287776/burnt-to-a-crisp,2.7,-1,Sport,5.11b,1,65,36.29672,-115.61479
"Lackawanna Roof","Hercules Gap > Eastern Nevada > Nevada",https://www.mountainproject.com/route/121734107/lackawanna-roof,2.5,-1,Sport,5.11b,2,,39.3509,-114.8918
"Boiled in Oil","West Gully > Castle Rock > Lake Tahoe Area > Western Nevada > Nevada",https://www.mountainproject.com/route/112147308/boiled-in-oil,2.3,-1,Sport,5.11b,1,30,38.98958,-119.90839
Gardyloo,"Lower Tier > Sonic Youth Cliff > Wake Up Wall Area > (05) Sandstone Quarry > Red Rocks > Southern Nevada > Nevada",https://www.mountainproject.com/route/108665585/gardyloo,1.9,-1,Sport,5.11b,1,50,36.16602,-115.45317
"Team Tough 11a","California 12a > (04) Second Pullout (Calico II) > Red Rocks > Southern Nevada > Nevada",https://www.mountainproject.com/route/112549705/team-tough-11a,2.0,-1,"Sport, TR",5.11b,1,60,36.15337,-115.43439
"Sakisniper Reynajon","Story Crag Main Wall > Old Spanish Trail Crags (Story Crags) > West Side > Mount Potosi > Southern Nevada > Nevada",https://www.mountainproject.com/route/120271264/sakisniper-reynajon,2.3,-1,Sport,5.11b,1,50,35.97231,-115.52518
"Gun Shy","Left (South) Wall > The Gun Club > La Madre Range > Southern Nevada > Nevada",https://www.mountainproject.com/route/116956393/gun-shy,2.5,-1,Sport,"5.11b R",1,50,36.22963,-115.33614
"Joker's Wild","The Enclaves and White Rock Springs North > (06) White Rock Spring > Red Rocks > Southern Nevada > Nevada",https://www.mountainproject.com/route/114149197/jokers-wild,2.3,-1,Sport,5.11b,1,35,36.18047,-115.48647
"Mexican Secret Agent Man","Ranch Hands Crag > (01) Calico Basin > Red Rocks > Southern Nevada > Nevada",https://www.mountainproject.com/route/111773931/mexican-secret-agent-man,2.2,-1,Sport,5.11b,1,70,36.1504,-115.4261
"The Promised Warm Up","(08) The Promised Land > Red Rocks > Southern Nevada > Nevada",https://www.mountainproject.com/route/108667529/the-promised-warm-up,1.9,-1,Sport,5.11b,1,30,36.18178,-115.52067
"Chicago Ho","Urban Crag > Lone Mountain > La Madre Range > Southern Nevada > Nevada",https://www.mountainproject.com/route/116253667/chicago-ho,2.0,-1,Sport,5.11b,1,40,36.23845,-115.311
"Saki’s Red Tail’s Wail","Story Crag Main Wall > Old Spanish Trail Crags (Story Crags) > West Side > Mount Potosi > Southern Nevada > Nevada",https://www.mountainproject.com/route/120271105/sakis-red-tails-wail,1.9,-1,Sport,5.11b,1,80,35.97231,-115.52518
"Hair Today Gone Tomorrow","Right Wall > Front Corridor > Parking Lot Area > (05) Sandstone Quarry > Red Rocks > Southern Nevada > Nevada",https://www.mountainproject.com/route/112369387/hair-today-gone-tomorrow,2.3,-1,Sport,5.11b,1,110,36.16265,-115.44929
"Dark Crystal","Central Gully > Castle Rock > Lake Tahoe Area > Western Nevada > Nevada",https://www.mountainproject.com/route/112155625/dark-crystal,2.2,-1,Sport,"5.11b R",1,30,38.98955,-119.90811
"Truffle Mac n Cheese","Red Springs Rock > (01) Calico Basin > Red Rocks > Southern Nevada > Nevada",https://www.mountainproject.com/route/121919835/truffle-mac-n-cheese,2.0,-1,Sport,5.11b,1,50,36.14611,-115.42222
"Joel’s Arete","La Fin Du Monde > Little Springs Canyon > (01) Calico Basin > Red Rocks > Southern Nevada > Nevada",https://www.mountainproject.com/route/119904187/joels-arete,2.0,-1,Sport,5.11b,1,40,36.15481,-115.43163
"Slabba Dabba Doo","Straight Shooter Wall > (10) Pine Creek Canyon > Red Rocks > Southern Nevada > Nevada",https://www.mountainproject.com/route/107450248/slabba-dabba-doo,1.7,-1,Sport,"5.11b R",1,60,36.1268,-115.48806
"Hangar 18","Main Rock > Spooner Crag > Lake Tahoe Area > Western Nevada > Nevada",https://www.mountainproject.com/route/107021114/hangar-18,2.0,-1,Sport,5.11b,1,35,39.1002,-119.9141
"Pinched Loaf","Porcelain Wall > East Side > Mount Potosi > Southern Nevada > Nevada",https://www.mountainproject.com/route/112294850/pinched-loaf,2.0,-1,Sport,5.11b,1,,35.96987,-115.47512
Nightrain,"White Pine > Kyle Canyon > Mount Charleston > Southern Nevada > Nevada",https://www.mountainproject.com/route/123187897/nightrain,3.2,-1,Sport,5.11b,1,60,36.26892,-115.66803
"Lovin' Spoonful","Suburban Crag > Lone Mountain > La Madre Range > Southern Nevada > Nevada",https://www.mountainproject.com/route/116563140/lovin-spoonful,2.3,-1,Sport,5.11b,1,,36.23651,-115.31342
"Spotted Owl","Avian Wall > The Trophy Area > (05) Sandstone Quarry > Red Rocks > Southern Nevada > Nevada",https://www.mountainproject.com/route/121694162/spotted-owl,2.5,-1,Sport,5.11b,1,80,36.1701,-115.4518
"The Jagged Edge","Mud Spring Wing > (17) Mud Spring Canyon > Red Rocks > Southern Nevada > Nevada",https://www.mountainproject.com/route/111754454/the-jagged-edge,1.8,-1,Sport,5.11b,1,70,36.02788,-115.46107
"Purple Suede","Velvet Elvis > (03) First Pullout (Calico I) > Red Rocks > Southern Nevada > Nevada",https://www.mountainproject.com/route/111443442/purple-suede,2.0,-1,Sport,5.11b,1,40,36.1466,-115.42677
"Locally Owned","Iron Butte > Western Nevada > Nevada",https://www.mountainproject.com/route/106319234/locally-owned,2.0,-1,Sport,5.11b,1,40,39.30869,-119.48005
"Fish and Chips","Pirate's Cove > Kyle Canyon > Mount Charleston > Southern Nevada > Nevada",https://www.mountainproject.com/route/106543959/fish-and-chips,1.8,-1,Sport,5.11b,1,45,36.26632,-115.61558
Thunderbird,"Avian Wall > The Trophy Area > (05) Sandstone Quarry > Red Rocks > Southern Nevada > Nevada",https://www.mountainproject.com/route/121683935/thunderbird,1.7,-1,Sport,"5.11b PG13",1,80,36.1701,-115.4518
1999,"The Icehouse > Route 158 > Mount Charleston > Southern Nevada > Nevada",https://www.mountainproject.com/route/105993128/1999,1.7,-1,Sport,5.11b,1,90,36.3087,-115.6418
"Newton’s Flaming Laser Sword","Science Wall > Old Spanish Trail Crags (Story Crags) > West Side > Mount Potosi > Southern Nevada > Nevada",https://www.mountainproject.com/route/120271382/newtons-flaming-laser-sword,2.0,-1,Sport,5.11b,1,115,35.97231,-115.52519
"Orange County","California Crag > Parking Lot Area > (05) Sandstone Quarry > Red Rocks > Southern Nevada > Nevada",https://www.mountainproject.com/route/118236863/orange-county,1.0,-1,Sport,5.11b,1,40,36.16118,-115.44733
"Cobble Groove","The Clubhouse > Visitor Gateway Cliffs > Kyle Canyon > Mount Charleston > Southern Nevada > Nevada",https://www.mountainproject.com/route/122609190/cobble-groove,1.0,-1,Sport,5.11b,1,65,36.2662,-115.58987
Moonshiner,"Entry Walls > Arrow Canyon > Southern Nevada > Nevada",https://www.mountainproject.com/route/124020566/moonshiner,3.0,-1,Sport,5.11b,1,50,36.72776,-114.76862
"The Virus","Area 51 > La Madre North > La Madre Range > Southern Nevada > Nevada",https://www.mountainproject.com/route/124390017/the-virus,3.3,-1,Sport,5.11b,1,50,36.28336,-115.4029
"Civilised Fool","Right Wall > The Imagination Wall > Kyle Canyon > Mount Charleston > Southern Nevada > Nevada",https://www.mountainproject.com/route/124600492/civilised-fool,3.2,-1,Sport,5.11b,1,45,36.2617,-115.66287
"Throttle Control","Hunter S. Thompson Dome > (04) Second Pullout (Calico II) > Red Rocks > Southern Nevada > Nevada",https://www.mountainproject.com/route/124837254/throttle-control,2.8,-1,Sport,5.11b,1,50,36.15631,-115.43649
"Ya, Weird!","Cuzcotopia > Comedy Crags > North Side > Mount Potosi > Southern Nevada > Nevada",https://www.mountainproject.com/route/124885271/ya-weird,3.0,-1,Sport,5.11b,1,45,35.99751,-115.48731
MuccLovin,"Hinkey Summit > Paradise Valley > Santa Rosa Range > Western Nevada > Nevada",https://www.mountainproject.com/route/123676154/mucclovin,3.0,-1,"Sport, Alpine",5.11b,3,297,41.66886,-117.54578
Steve,"The Cleft > Paradise Valley > Santa Rosa Range > Western Nevada > Nevada",https://www.mountainproject.com/route/124705694/steve,4.0,-1,"Sport, Alpine",5.11b,1,,41.65854,-117.54267
HWY,"Area 51 > La Madre North > La Madre Range > Southern Nevada > Nevada",https://www.mountainproject.com/route/125366005/hwy,2.0,-1,Sport,5.11b,1,70,36.28336,-115.4029
"Tectonic Tango","Lake Mead Buttress > La Madre Range > Southern Nevada > Nevada",https://www.mountainproject.com/route/125604946/tectonic-tango,2.9,-1,Sport,5.11b,6,550,36.2169,-115.36439
"Dark Territory","The Black Wall > Dreamland Gully > La Madre North > La Madre Range > Southern Nevada > Nevada",https://www.mountainproject.com/route/125748247/dark-territory,3.0,-1,Sport,5.11b,1,,36.29019,-115.3959
