Route,Location,URL,"Avg Stars","Your Stars","Route Type",Rating,Pitches,Length,"Area Latitude","Area Longitude"
"Bo Cleevil","Mushroom Tip Wall > Crag 6 > Ten Sleep Canyon > Wyoming",https://www.mountainproject.com/route/114805112/bo-cleevil,3.1,-1,Sport,5.13a/b,1,65,44.12108,-107.1918
"Arms Deal","Upper Ledge > Arms Deal Wall > Teton Canyon > Wyoming",https://www.mountainproject.com/route/109469431/arms-deal,4.0,-1,Sport,5.13a/b,1,40,43.75578,-110.91313
Talon,"The Dragons Den > Lower Canyon Granite > Cody > Wyoming",https://www.mountainproject.com/route/121641535/talon,4.0,-1,Sport,5.13a/b,1,80,44.50753,-109.1764
"Slim Jim","The Grasshopper Wall > French Cattle Ranch > Ten Sleep Canyon > Wyoming",https://www.mountainproject.com/route/122765055/slim-jim,4.0,-1,Sport,5.13a/b,1,70,44.14732,-107.25778
"Ministry of Magic","J. Ministry Wall > Valhalla > Ten Sleep Canyon > Wyoming",https://www.mountainproject.com/route/113266131/ministry-of-magic,3.5,-1,Sport,5.13a/b,1,80,44.13872,-107.25767
"Angry Orange","Metropolis > Mondo Beyondo > Ten Sleep Canyon > Wyoming",https://www.mountainproject.com/route/115154290/angry-orange,3.6,-1,Sport,5.13a/b,1,100,44.12829,-107.2577
"Riki Tiki Tavi","The Cobra > Lake Point > Ten Sleep Canyon > Wyoming",https://www.mountainproject.com/route/107755227/riki-tiki-tavi,3.3,-1,Sport,5.13a/b,1,80,44.1572,-107.2334
"Canadian Jackhammer","L. Superratic Pillar > Valhalla > Ten Sleep Canyon > Wyoming",https://www.mountainproject.com/route/124691550/canadian-jackhammer,3.0,-1,Sport,5.13a/b,1,100,44.14305,-107.25785
