Route,Location,URL,"Avg Stars","Your Stars","Route Type",Rating,Pitches,Length,"Area Latitude","Area Longitude"
Ambushed,"The Secret 13 Wall > The Trophy Area > (05) Sandstone Quarry > Red Rocks > Southern Nevada > Nevada",https://www.mountainproject.com/route/105948388/ambushed,3.7,-1,Sport,5.13-,1,70,36.17073,-115.45045
SOS,"Tsunami Wall > (04) Second Pullout (Calico II) > Red Rocks > Southern Nevada > Nevada",https://www.mountainproject.com/route/105808879/sos,3.1,-1,Sport,5.13-,1,50,36.15177,-115.43311
Hotbox,"Cannabis Crag > Kraft Mountain Area > (01) Calico Basin > Red Rocks > Southern Nevada > Nevada",https://www.mountainproject.com/route/120071264/hotbox,3.5,-1,Sport,5.13-,1,40,36.16728,-115.4179
"Ultrasonic Weapons","The Glass House > Route 158 > Mount Charleston > Southern Nevada > Nevada",https://www.mountainproject.com/route/122400614/ultrasonic-weapons,3.8,-1,Sport,5.13-,1,85,36.2956,-115.6107
"The Aspirant","Meister's Edge > (04) Second Pullout (Calico II) > Red Rocks > Southern Nevada > Nevada",https://www.mountainproject.com/route/105891452/the-aspirant,2.8,-1,Sport,5.13-,1,60,36.15451,-115.4373
Arabesque,"Upper Sunhouse > The Sunhouse > Route 158 > Mount Charleston > Southern Nevada > Nevada",https://www.mountainproject.com/route/122287867/arabesque,3.0,-1,Sport,5.13-,1,65,36.29672,-115.61479
"MACMFR (Meat and Cheese Memorial Face Route)","Digimon Sector > Sun City > Southern Nevada > Nevada",https://www.mountainproject.com/route/116561862/macmfr-meat-and-cheese-memorial-face-route,2.0,-1,Sport,5.13-,1,,36.67005,-114.08283
