Route,Location,URL,"Avg Stars","Your Stars","Route Type",Rating,Pitches,Length,"Area Latitude","Area Longitude"
"Dealer's Choice","New Vice Area > Red Wing (a.k.a. He Mni Can, Barn Bluff) > Minnesota",https://www.mountainproject.com/route/105826295/dealers-choice,1.8,-1,Sport,5.6,1,40,44.56993,-92.5238
"One Hand Jam","Perfect Crimb Area > Red Wing (a.k.a. He Mni Can, Barn Bluff) > Minnesota",https://www.mountainproject.com/route/105831574/one-hand-jam,1.7,-1,Sport,5.6,1,,44.5696,-92.52273
"Ramp Route","Winona, Sugar Loaf > Minnesota",https://www.mountainproject.com/route/113417537/ramp-route,2.3,-1,Sport,5.6,1,50,44.02836,-91.62665
"Six Foot Flake","Quarry Park (St. Cloud) > Minnesota",https://www.mountainproject.com/route/106179847/six-foot-flake,2.2,-1,"Sport, TR",5.6,1,20,45.5355,-94.2416
"Back in the Saddle","Winona, Sugar Loaf > Minnesota",https://www.mountainproject.com/route/115328865/back-in-the-saddle,1.9,-1,Sport,5.6,1,45,44.02836,-91.62665
"East Face","Winona, Sugar Loaf > Minnesota",https://www.mountainproject.com/route/113535668/east-face,1.9,-1,Sport,5.6,1,45,44.02836,-91.62665
"Tiny Hammer","Winona, Sugar Loaf > Minnesota",https://www.mountainproject.com/route/115401711/tiny-hammer,1.7,-1,Sport,5.6,1,45,44.02836,-91.62665
"Mr Information","Silver Creek Tunnel Rock > Silver Creek Tunnel Area (North Shore) > Minnesota",https://www.mountainproject.com/route/125073897/mr-information,2.0,-1,Sport,5.6,1,70,47.09561,-91.55209
"Antique Arete","Silver Creek Tunnel Rock > Silver Creek Tunnel Area (North Shore) > Minnesota",https://www.mountainproject.com/route/125364516/antique-arete,2.0,-1,Sport,5.6,1,65,47.09561,-91.55209
