Route,Location,URL,"Avg Stars","Your Stars","Route Type",Rating,Pitches,Length,"Area Latitude","Area Longitude"
"Speedway Boogie","Leda > Tennessee",https://www.mountainproject.com/route/105890847/speedway-boogie,2.9,-1,Sport,5.7+,1,60,35.2356,-85.22649
Fanfair,"Leda > Tennessee",https://www.mountainproject.com/route/106078878/fanfair,2.7,-1,Sport,5.7+,1,60,35.2356,-85.22649
"Coco Puffs","Image Wall > South Clear Creek > Obed & Clear Creek > Tennessee",https://www.mountainproject.com/route/106099046/coco-puffs,1.8,-1,"Trad, Sport",5.7+,1,40,36.09386,-84.70206
"Sibling Rivalry","Wall of Useless Conflict > Foster Falls > Tennessee",https://www.mountainproject.com/route/113602729/sibling-rivalry,2.5,-1,Sport,5.7+,1,50,35.17829,-85.68934
"Monkey Brains","The River Wall > Little Clear Creek > Obed & Clear Creek > Tennessee",https://www.mountainproject.com/route/107279098/monkey-brains,2.1,-1,Sport,5.7+,1,,36.108,-84.7162
"Twisted Aces","Fort Sandstone > Obed & Clear Creek > Tennessee",https://www.mountainproject.com/route/114215635/twisted-aces,2.7,-1,Sport,5.7+,1,,36.08972,-84.71158
"Independence Day","The Alley > King's Bluff > Tennessee",https://www.mountainproject.com/route/107828412/independence-day,2.6,-1,Sport,5.7+,1,35,36.50091,-87.32427
"Bob the Builder","The Alley > King's Bluff > Tennessee",https://www.mountainproject.com/route/107131808/bob-the-builder,1.9,-1,Sport,5.7+,1,35,36.50091,-87.32427
"Broken Glass","Goliath wall > Collegedale Park > Tennessee",https://www.mountainproject.com/route/121560829/broken-glass,2.2,-1,Sport,5.7+,1,50,35.04831,-85.04618
