Route,Location,URL,"Avg Stars","Your Stars","Route Type",Rating,Pitches,Length,"Area Latitude","Area Longitude"
"Taco Time","Thunderdome Wall > The Meadows > Wichita Mountains Wildlife Refuge > Oklahoma",https://www.mountainproject.com/route/105950850/taco-time,2.2,-1,"Sport, TR",5.6,1,,34.7085,-98.64618
"Sunday Stroll","Pyromania Area > Treasure Cove > Charon's Gardens > Wichita Mountains Wildlife Refuge > Oklahoma",https://www.mountainproject.com/route/107653034/sunday-stroll,4.0,-1,"Trad, Sport",5.6,1,,34.7193,-98.7288
"Community Angle","Prattville > Tulsa Area > Oklahoma",https://www.mountainproject.com/route/116111652/community-angle,3.1,-1,Sport,5.6,1,30,36.11707,-96.11594
"Journey Through Mirkwood","04. Headwall > Quartz Mountain > Oklahoma",https://www.mountainproject.com/route/122274094/journey-through-mirkwood,3.0,-1,Sport,5.6,1,65,34.89838,-99.33318
"Unknown 5.6","Lost City > Lost City Area > Avery Drive > Tulsa Area > Oklahoma",https://www.mountainproject.com/route/108089223/unknown-56,1.8,-1,"Sport, TR",5.6,1,20,36.12126,-96.10245
"Learning to Lead","Little Germany > Avery Drive > Tulsa Area > Oklahoma",https://www.mountainproject.com/route/119692094/learning-to-lead,2.0,-1,Sport,5.6,1,35,36.1243,-96.09438
"Stray Kittens Right","Kitten Slabs > 11. Cedar Valley > Quartz Mountain > Oklahoma",https://www.mountainproject.com/route/119935001/stray-kittens-right,2.0,-1,Sport,5.6,1,50,34.89861,-99.32898
"Mid Life Crisis","05. Sea of Screams > Quartz Mountain > Oklahoma",https://www.mountainproject.com/route/105866491/mid-life-crisis,1.0,-1,Sport,"5.6 R",1,,34.89814,-99.33283
"Crinoid Fever","Prattville > Tulsa Area > Oklahoma",https://www.mountainproject.com/route/123817068/crinoid-fever,2.0,-1,Sport,5.6,1,25,36.11707,-96.11594
