Route,Location,URL,"Avg Stars","Your Stars","Route Type",Rating,Pitches,Length,"Area Latitude","Area Longitude"
"Pump Me Up","D: Thurmond Slab > A: Main Bluff > EM: St. Francois State Park > Missouri",https://www.mountainproject.com/route/107532187/pump-me-up,2.6,-1,"Sport, TR",5.9-,1,35,37.968,-90.53666
"Off The Beach and into The Dungeon","Wizard's Point > EM: Sage Mountain Recreation Area > Missouri",https://www.mountainproject.com/route/123132997/off-the-beach-and-into-the-dungeon,3.4,-1,"Sport, TR",5.9-,1,,38.61651,-91.27803
"C Is For Crumpecker","G: The Landing > 1: South, Climber's Left of Stairs > EM: Robinson Bluff > Missouri",https://www.mountainproject.com/route/118878892/c-is-for-crumpecker,3.0,-1,Sport,5.9-,1,48,38.01,-90.6288
"Sunny Place For Shady People","South Area > CM: Providence > Missouri",https://www.mountainproject.com/route/112331807/sunny-place-for-shady-people,2.5,-1,Sport,5.9-,1,50,38.83282,-92.40041
"Magic Carpet Ride aka One for Bill","B: Cryptic Wall > 1: South, Climber's Left of Stairs > EM: Robinson Bluff > Missouri",https://www.mountainproject.com/route/118329720/magic-carpet-ride-aka-one-for-bill,2.7,-1,Sport,5.9-,1,65,38.01175,-90.62756
