Route,Location,URL,"Avg Stars","Your Stars","Route Type",Rating,Pitches,Length,"Area Latitude","Area Longitude"
"Lucky Streak","The Point Butress(Main Wall) > Castle Rock > Tennessee",https://www.mountainproject.com/route/108614131/lucky-streak,2.2,-1,Sport,5.10-,1,70,35.10392,-85.63142
"The Thrill of the Drill","Drill of Rights Wall > Woodcock Cove > Tennessee",https://www.mountainproject.com/route/122296244/the-thrill-of-the-drill,2.9,-1,Sport,5.10-,1,,35.33292,-85.45646
Remnant,"Tea and Crumpets Wall > Deep Creek > Tennessee",https://www.mountainproject.com/route/121543878/remnant,3.2,-1,Sport,5.10-,1,,35.29555,-85.19524
"Done Dirt Cheep","Lilly Bluff > Obed & Clear Creek > Tennessee",https://www.mountainproject.com/route/107797682/done-dirt-cheep,1.5,-1,Sport,5.10-,1,40,36.1022,-84.7184
Trundle,"The Orchard > King's Bluff > Tennessee",https://www.mountainproject.com/route/112516950/trundle,2.6,-1,Sport,5.10-,1,50,36.50128,-87.32035
"Death Climb for Cutie","West Cliff > Dogwood > Tennessee",https://www.mountainproject.com/route/123512309/death-climb-for-cutie,1.0,-1,Sport,5.10-,1,,35.49623,-85.08593
"Man With The Hammer","Jack of All Wall > Woodcock Cove > Tennessee",https://www.mountainproject.com/route/124231096/man-with-the-hammer,2.5,-1,Sport,5.10-,1,,35.3337,-85.45839
